$GPGGA,130441.89,5239.3154,N,00907.7011,E,1,08,1.25,16.76,M,46.79,M,,*6D
$GPGLL,5239.3154,N,00907.7011,E,130441.89,A,A*6C
$GPGGA,130451.79,5239.3342,N,00907.5049,E,1,08,1.25,27.07,M,46.79,M,,*6D
$GPGLL,5239.3342,N,00907.5049,E,130451.79,A,A*68
$GPGGA,130501.79,5239.3529,N,00907.3115,E,1,07,1.25,33.09,M,46.79,M,,*68
$GPGLL,5239.3529,N,00907.3115,E,130501.79,A,A*69
$GPGGA,130511.79,5239.3743,N,00907.0929,E,1,08,1.25,38.92,M,46.79,M,,*65
$GPGLL,5239.3744,N,00907.0653,E,130512.79,A,A*64
$GPGGA,130522.09,5239.3943,N,00906.8698,E,1,06,1.50,48.03,M,46.79,M,,*63
$GPGLL,5239.3943,N,00906.8698,E,130522.09,A,A*67
$GPGGA,130532.09,5239.4242,N,00906.6659,E,1,07,1.00,48.87,M,46.79,M,,*64
$GPGLL,5239.4242,N,00906.6659,E,130532.09,A,A*68
$GPGGA,130542.09,5239.4767,N,00906.4995,E,1,07,1.00,74.90,M,46.79,M,,*65
$GPGLL,5239.4767,N,00906.4995,E,130542.09,A,A*60
$GPGGA,130552.09,5239.5505,N,00906.3532,E,1,07,1.00,74.15,M,46.79,M,,*68
$GPGLL,5239.5505,N,00906.3532,E,130552.09,A,A*60
$GPGGA,130601.09,5239.6393,N,00906.2538,E,1,08,1.00,77.40,M,46.79,M,,*60
$GPGLL,5239.6506,N,00906.2444,E,130602.09,A,A*67
$GPGGA,130611.09,5239.7626,N,00906.1844,E,1,08,1.00,79.10,M,46.79,M,,*65
$GPGLL,5239.7756,N,00906.1806,E,130612.09,A,A*69
$GPGGA,130622.09,5239.9119,N,00906.1750,E,1,08,1.00,80.81,M,46.79,M,,*64
$GPGLL,5239.9119,N,00906.1750,E,130622.09,A,A*65
$GPGGA,130632.09,5240.0484,N,00906.2127,E,1,08,1.00,75.87,M,46.79,M,,*6A
$GPGLL,5240.0484,N,00906.2127,E,130632.09,A,A*67
$GPGGA,130641.09,5240.1652,N,00906.2616,E,1,08,1.00,75.35,M,46.79,M,,*6A
$GPGLL,5240.1777,N,00906.2668,E,130642.09,A,A*62
$GPGGA,130651.09,5240.2888,N,00906.3149,E,1,08,1.00,72.59,M,46.79,M,,*60
$GPGLL,5240.3009,N,00906.3200,E,130652.09,A,A*64
$GPGGA,130701.09,5240.4085,N,00906.3575,E,1,08,1.25,65.73,M,46.79,M,,*65
$GPGLL,5240.4202,N,00906.3609,E,130702.09,A,A*63
$GPGGA,130712.09,5240.5322,N,00906.3725,E,1,08,1.25,61.79,M,46.79,M,,*61
$GPGLL,5240.5322,N,00906.3725,E,130712.09,A,A*6F
$GPGGA,130722.09,5240.6453,N,00906.3536,E,1,08,1.25,59.31,M,46.79,M,,*67
$GPGLL,5240.6453,N,00906.3536,E,130722.09,A,A*6E
$GPGGA,130732.09,5240.7549,N,00906.2963,E,1,08,1.25,61.54,M,46.79,M,,*68
$GPGLL,5240.7549,N,00906.2963,E,130732.09,A,A*69
$GPGGA,130742.09,5240.8522,N,00906.2092,E,1,07,1.50,57.87,M,46.79,M,,*6C
$GPGLL,5240.8522,N,00906.2092,E,130742.09,A,A*6B
$GPGGA,130752.09,5240.9448,N,00906.1141,E,1,07,1.50,63.12,M,46.79,M,,*66
$GPGLL,5240.9448,N,00906.1141,E,130752.09,A,A*6A
$GPGGA,130802.09,5241.0364,N,00906.0237,E,1,07,1.50,72.06,M,46.79,M,,*6B
$GPGLL,5241.0364,N,00906.0237,E,130802.09,A,A*62
$GPGGA,130811.09,5241.1184,N,00905.9363,E,1,08,1.25,66.48,M,46.79,M,,*6C
$GPGLL,5241.1272,N,00905.9275,E,130812.09,A,A*68
$GPGGA,130822.09,5241.2147,N,00905.8368,E,1,08,1.25,66.51,M,46.79,M,,*62
$GPGLL,5241.2147,N,00905.8368,E,130822.09,A,A*61
$GPGGA,130832.09,5241.3140,N,00905.7304,E,1,06,1.50,61.48,M,46.79,M,,*63
$GPGLL,5241.3140,N,00905.7304,E,130832.09,A,A*63
$GPGGA,130842.09,5241.4404,N,00905.5990,E,1,06,2.00,61.74,M,46.79,M,,*6A
$GPGLL,5241.4404,N,00905.5990,E,130842.09,A,A*63
$GPGGA,130852.09,5241.5594,N,00905.4789,E,1,07,1.50,63.63,M,46.79,M,,*66
$GPGLL,5241.5594,N,00905.4789,E,130852.09,A,A*6C
$GPGLL,5241.6683,N,00905.3670,E,130902.09,A,A*6E
$GPGGA,130903.09,5241.6789,N,00905.3578,E,1,06,1.00,60.74,M,46.79,M,,*64
$GPGLL,5241.7745,N,00905.2583,E,130912.09,A,A*6B
$GPGGA,130913.09,5241.7856,N,00905.2457,E,1,07,1.50,62.68,M,46.79,M,,*6F
$GPGLL,5241.8852,N,00905.1444,E,130922.09,A,A*67
$GPGGA,130924.09,5241.9070,N,00905.1222,E,1,07,1.50,62.85,M,46.79,M,,*6D
$GPGLL,5241.9973,N,00905.0295,E,130932.09,A,A*6E
$GPGGA,130934.09,5242.0204,N,00905.0061,E,1,07,1.50,58.84,M,46.79,M,,*6B
$GPGLL,5242.1145,N,00904.9067,E,130942.09,A,A*68
$GPGGA,130945.09,5242.1519,N,00904.8700,E,1,07,1.50,60.04,M,46.79,M,,*6D
$GPGLL,5242.2369,N,00904.7841,E,130952.19,A,A*65
$GPGGA,130955.09,5242.2666,N,00904.7530,E,1,07,1.50,56.26,M,46.79,M,,*6F
$GPGLL,5242.3283,N,00904.6897,E,131002.09,A,A*67
$GPGGA,131004.19,5242.3464,N,00904.6718,E,1,07,1.50,56.49,M,46.79,M,,*63
$GPGLL,5242.4100,N,00904.6064,E,131012.19,A,A*6C
$GPGGA,131014.09,5242.4246,N,00904.5920,E,1,07,1.50,60.42,M,46.79,M,,*6A
$GPGLL,5242.4880,N,00904.5262,E,131022.09,A,A*68
$GPGGA,131024.09,5242.5040,N,00904.5105,E,1,07,1.50,60.15,M,46.79,M,,*61
$GPGLL,5242.5640,N,00904.4473,E,131032.09,A,A*6D
$GPGGA,131034.09,5242.5777,N,00904.4307,E,1,07,1.50,57.10,M,46.79,M,,*63
$GPGLL,5242.6274,N,00904.3521,E,131042.09,A,A*6B
$GPGGA,131044.09,5242.6397,N,00904.3290,E,1,07,1.50,55.71,M,46.79,M,,*60
$GPGLL,5242.6941,N,00904.2367,E,131052.09,A,A*62
$GPGGA,131055.09,5242.7154,N,00904.2013,E,1,06,1.50,54.81,M,46.79,M,,*6B
$GPGLL,5242.7699,N,00904.1085,E,131102.19,A,A*60
$GPGGA,131104.19,5242.8212,N,00904.1159,E,1,07,1.50,56.53,M,46.79,M,,*61
$GPGLL,5242.8633,N,00903.9646,E,131112.19,A,A*68
$GPGGA,131115.09,5242.8886,N,00903.9153,E,1,07,1.00,55.74,M,46.79,M,,*61
$GPGLL,5242.9556,N,00903.8000,E,131122.19,A,A*6F
$GPGGA,131125.09,5242.9832,N,00903.7510,E,1,07,1.50,56.90,M,46.79,M,,*6D
$GPGLL,5243.0502,N,00903.6345,E,131132.19,A,A*6B
$GPGGA,131134.19,5243.0693,N,00903.6033,E,1,07,1.00,57.43,M,46.79,M,,*6E
$GPGLL,5243.1454,N,00903.4739,E,131142.19,A,A*62
$GPGGA,131145.09,5243.1733,N,00903.4269,E,1,07,1.25,62.84,M,46.79,M,,*66
$GPGLL,5243.2394,N,00903.3118,E,131152.09,A,A*68
$GPGGA,131155.09,5243.2674,N,00903.2616,E,1,07,1.25,62.92,M,46.79,M,,*6B
$GPGLL,5243.3352,N,00903.1518,E,131202.19,A,A*62
$GPGGA,131204.19,5243.3535,N,00903.1199,E,1,07,1.25,57.50,M,46.73,M,,*6B
$GPGLL,5243.4259,N,00902.9972,E,131212.19,A,A*67
$GPGGA,131214.19,5243.4438,N,00902.9665,E,1,08,1.25,50.55,M,46.73,M,,*61
$GPGLL,5243.5127,N,00902.8498,E,131222.19,A,A*67
$GPGGA,131224.19,5243.5290,N,00902.8235,E,1,08,1.25,48.22,M,46.73,M,,*6E
$GPGLL,5243.5877,N,00902.7263,E,131232.19,A,A*67
$GPGGA,131234.19,5243.6018,N,00902.7022,E,1,06,1.50,48.47,M,46.73,M,,*6A
$GPGLL,5243.6588,N,00902.6041,E,131242.09,A,A*6C
$GPGGA,131244.09,5243.6743,N,00902.5779,E,1,07,1.25,47.59,M,46.73,M,,*6D
$GPGLL,5243.7397,N,00902.4661,E,131252.19,A,A*63
$GPGGA,131254.19,5243.7568,N,00902.4372,E,1,07,1.00,48.24,M,46.73,M,,*6B
$GPGLL,5243.8295,N,00902.3161,E,131302.09,A,A*6A
$GPGGA,131305.19,5243.8573,N,00902.2666,E,1,07,1.00,48.95,M,46.73,M,,*67
$GPGLL,5243.9192,N,00902.1623,E,131312.09,A,A*6D
$GPGGA,131315.99,5243.9541,N,00902.1055,E,1,07,1.50,46.20,M,46.73,M,,*6E
$GPGLL,5244.0071,N,00902.0139,E,131322.19,A,A*60
$GPGGA,131326.19,5244.0413,N,00901.9545,E,1,08,1.00,43.55,M,46.73,M,,*6C
$GPGLL,5244.0958,N,00901.8632,E,131332.19,A,A*64
$GPGGA,131337.09,5244.1411,N,00901.7868,E,1,07,1.00,44.03,M,46.73,M,,*69
$GPGLL,5244.1875,N,00901.7074,E,131342.09,A,A*66
$GPGGA,131347.09,5244.2334,N,00901.6305,E,1,07,1.00,47.69,M,46.73,M,,*63
$GPGLL,5244.2782,N,00901.5536,E,131352.09,A,A*62
$GPGGA,131357.09,5244.3216,N,00901.4840,E,1,07,1.00,56.08,M,46.73,M,,*6D
$GPGLL,5244.3730,N,00901.4378,E,131402.09,A,A*65
$GPGGA,131406.09,5244.4220,N,00901.4152,E,1,08,1.00,52.75,M,46.73,M,,*67
$GPGLL,5244.4997,N,00901.3871,E,131412.09,A,A*65
$GPGGA,131417.09,5244.5656,N,00901.3632,E,1,08,1.00,51.97,M,46.73,M,,*6A
$GPGLL,5244.6313,N,00901.3399,E,131422.09,A,A*6F
$GPGGA,131427.09,5244.6968,N,00901.3155,E,1,07,1.00,54.00,M,46.73,M,,*6A
$GPGLL,5244.7642,N,00901.2925,E,131432.09,A,A*62
$GPGGA,131437.09,5244.8304,N,00901.2690,E,1,08,1.00,53.49,M,46.73,M,,*6F
$GPGLL,5244.8957,N,00901.2462,E,131442.09,A,A*6F
$GPGGA,131447.09,5244.9597,N,00901.2228,E,1,08,1.00,51.39,M,46.73,M,,*67
$GPGLL,5245.0239,N,00901.1993,E,131452.09,A,A*64
$GPGGA,131457.09,5245.0882,N,00901.1763,E,1,07,1.00,49.02,M,46.73,M,,*60
$GPGLL,5245.1483,N,00901.1551,E,131502.09,A,A*64
$GPGGA,131507.09,5245.2039,N,00901.1351,E,1,08,1.00,44.94,M,46.73,M,,*66
$GPGLL,5245.2589,N,00901.1155,E,131512.09,A,A*6D
$GPGGA,131518.09,5245.3256,N,00901.0923,E,1,07,1.00,50.58,M,46.73,M,,*66
$GPGLL,5245.3742,N,00901.0743,E,131522.09,A,A*6A
$GPGGA,131529.09,5245.4621,N,00901.0437,E,1,08,1.00,49.83,M,46.73,M,,*6E
$GPGLL,5245.4954,N,00901.0311,E,131532.09,A,A*66
$GPGGA,131539.09,5245.5632,N,00900.9984,E,1,08,1.00,50.52,M,46.73,M,,*65
$GPGLL,5245.5841,N,00900.9797,E,131542.09,A,A*67
$GPGGA,131549.09,5245.6191,N,00900.9311,E,1,08,1.00,50.36,M,46.73,M,,*6B
$GPGLL,5245.6327,N,00900.9087,E,131552.09,A,A*68
$GPGGA,131559.09,5245.6625,N,00900.8537,E,1,06,1.50,49.25,M,46.73,M,,*60
$GPGLL,5245.6773,N,00900.8315,E,131602.09,A,A*62
$GPGGA,131609.09,5245.7155,N,00900.7935,E,1,07,1.25,47.69,M,46.73,M,,*63
$GPGLL,5245.7327,N,00900.7823,E,131612.09,A,A*66
$GPGGA,131619.09,5245.7769,N,00900.7564,E,1,08,1.00,43.91,M,46.73,M,,*68
$GPGLL,5245.8027,N,00900.7414,E,131622.09,A,A*61
$GPGGA,131629.09,5245.8792,N,00900.7021,E,1,07,1.25,43.38,M,46.73,M,,*6F
$GPGLL,5245.9114,N,00900.6844,E,131632.09,A,A*68
$GPGGA,131639.09,5245.9760,N,00900.6491,E,1,08,1.00,43.69,M,46.73,M,,*60
$GPGLL,5245.9996,N,00900.6356,E,131642.09,A,A*65
$GPGGA,131648.09,5246.0389,N,00900.5955,E,1,07,1.25,43.34,M,46.73,M,,*69
$GPGLL,5246.0556,N,00900.5500,E,131652.09,A,A*68
$GPGGA,131658.09,5246.0741,N,00900.4702,E,1,07,1.00,43.92,M,46.73,M,,*6E
$GPGLL,5246.0994,N,00900.4324,E,131702.09,A,A*6F
$GPGGA,131709.09,5246.1486,N,00900.3825,E,1,07,1.25,43.63,M,46.73,M,,*66
$GPGLL,5246.1729,N,00900.3760,E,131712.09,A,A*64
$GPGGA,131719.09,5246.2309,N,00900.3603,E,1,07,1.25,49.11,M,46.73,M,,*61
$GPGLL,5246.2561,N,00900.3454,E,131722.09,A,A*6E
$GPGGA,131728.09,5246.3029,N,00900.3126,E,1,07,1.25,47.75,M,46.73,M,,*6F
$GPGLL,5246.3338,N,00900.2915,E,131732.09,A,A*6D
$GPGGA,131739.09,5246.3892,N,00900.2539,E,1,06,1.25,46.61,M,46.73,M,,*69
$GPGLL,5246.4133,N,00900.2362,E,131742.19,A,A*6F
$GPGGA,131749.09,5246.4675,N,00900.1974,E,1,07,1.25,47.52,M,46.73,M,,*68
$GPGLL,5246.4929,N,00900.1798,E,131752.19,A,A*6F
$GPGGA,131759.09,5246.5488,N,00900.1401,E,1,08,1.00,49.49,M,46.73,M,,*6B
$GPGLL,5246.5727,N,00900.1226,E,131802.09,A,A*65
$GPGGA,131810.09,5246.6441,N,00900.0720,E,1,07,1.25,58.99,M,46.73,M,,*6B
$GPGLL,5246.6637,N,00900.0581,E,131812.09,A,A*6C
$GPGGA,131819.19,5246.7382,N,00900.0051,E,1,08,1.25,55.39,M,46.73,M,,*63
$GPGLL,5246.7680,N,00859.9848,E,131822.09,A,A*6E
$GPGGA,131829.09,5246.8391,N,00859.9248,E,1,07,1.50,60.45,M,46.73,M,,*62
$GPGLL,5246.8689,N,00859.8904,E,131832.09,A,A*61
$GPGGA,131840.09,5246.9563,N,00859.7903,E,1,07,1.25,47.53,M,46.73,M,,*6D
$GPGLL,5246.9781,N,00859.7653,E,131842.09,A,A*6C
$GPGGA,131850.09,5247.0678,N,00859.6613,E,1,07,1.25,52.30,M,46.73,M,,*63
$GPGLL,5247.0903,N,00859.6346,E,131852.09,A,A*61
$GPGGA,131901.09,5247.1910,N,00859.5173,E,1,06,1.00,52.30,M,46.73,M,,*62
$GPGLL,5247.2022,N,00859.5049,E,131902.09,A,A*62
$GPGGA,131911.09,5247.2982,N,00859.3926,E,1,07,1.25,51.08,M,46.73,M,,*6B
$GPGLL,5247.3094,N,00859.3805,E,131912.09,A,A*69
$GPGGA,131921.09,5247.4093,N,00859.2664,E,1,08,1.25,56.69,M,46.73,M,,*60
$GPGLL,5247.4206,N,00859.2542,E,131922.09,A,A*6B
$GPGGA,131932.09,5247.5244,N,00859.1321,E,1,07,1.25,55.69,M,46.73,M,,*60
$GPGLL,5247.5244,N,00859.1321,E,131932.09,A,A*6D
$GPGLL,5247.6212,N,00859.0207,E,131942.09,A,A*6E
$GPGGA,131943.09,5247.6311,N,00859.0099,E,1,08,1.25,50.64,M,46.73,M,,*62
$GPGGA,131952.09,5247.7265,N,00858.8997,E,1,07,1.25,47.05,M,46.73,M,,*61
$GPGLL,5247.7265,N,00858.8997,E,131952.09,A,A*65
$GPGGA,132002.09,5247.8380,N,00858.7695,E,1,07,1.25,46.94,M,46.73,M,,*60
$GPGLL,5247.8380,N,00858.7695,E,132002.09,A,A*6D
$GPGLL,5247.9463,N,00858.6440,E,132012.09,A,A*6C
$GPGGA,132013.09,5247.9567,N,00858.6318,E,1,07,1.25,50.33,M,46.73,M,,*65
$GPGGA,132022.09,5248.0394,N,00858.5359,E,1,08,1.25,54.08,M,46.73,M,,*6E
$GPGLL,5248.0394,N,00858.5359,E,132022.09,A,A*6A
$GPGGA,132032.09,5248.1174,N,00858.4460,E,1,07,1.25,56.19,M,46.73,M,,*63
$GPGLL,5248.1174,N,00858.4460,E,132032.09,A,A*6A
$GPGLL,5248.1921,N,00858.3605,E,132042.09,A,A*63
$GPGGA,132043.09,5248.2002,N,00858.3520,E,1,08,1.25,50.24,M,46.73,M,,*63
$GPGLL,5248.2749,N,00858.2738,E,132052.09,A,A*6F
$GPGGA,132053.09,5248.2839,N,00858.2650,E,1,07,1.00,51.25,M,46.73,M,,*6F
$GPGLL,5248.3657,N,00858.1798,E,132102.09,A,A*6D
$GPGGA,132104.09,5248.3837,N,00858.1609,E,1,08,1.25,57.52,M,46.73,M,,*62
$GPGLL,5248.4580,N,00858.0835,E,132112.19,A,A*6A
$GPGGA,132113.19,5248.4674,N,00858.0739,E,1,08,1.25,58.86,M,46.73,M,,*6E
$GPGLL,5248.5476,N,00857.9734,E,132122.09,A,A*69
$GPGGA,132123.09,5248.5557,N,00857.9586,E,1,07,1.00,47.99,M,46.73,M,,*67
$GPGLL,5248.6295,N,00857.8153,E,132132.09,A,A*66
$GPGGA,132134.09,5248.6461,N,00857.7838,E,1,06,1.25,43.45,M,46.73,M,,*63
$GPGLL,5248.7072,N,00857.6689,E,132142.19,A,A*64
$GPGGA,132145.19,5248.7273,N,00857.6313,E,1,08,1.25,40.88,M,46.73,M,,*6F
$GPGLL,5248.7744,N,00857.5403,E,132152.09,A,A*65
$GPGGA,132156.09,5248.8045,N,00857.4867,E,1,08,1.25,40.70,M,46.73,M,,*69
$GPGLL,5248.8514,N,00857.3908,E,132202.19,A,A*6A
$GPGGA,132207.09,5248.8922,N,00857.3178,E,1,08,1.25,45.33,M,46.73,M,,*64
$GPGLL,5248.9303,N,00857.2379,E,132212.09,A,A*66
$GPGGA,132217.19,5248.9711,N,00857.1591,E,1,08,1.25,48.20,M,46.66,M,,*61
$GPGLL,5248.9964,N,00857.0631,E,132222.19,A,A*64
$GPGGA,132228.19,5249.0583,N,00856.9842,E,1,07,1.00,50.47,M,46.66,M,,*66
$GPGLL,5249.0929,N,00856.9247,E,132232.19,A,A*69
$GPGGA,132237.19,5249.1348,N,00856.8434,E,1,07,1.00,50.80,M,46.66,M,,*6F
$GPGLL,5249.1773,N,00856.7600,E,132242.09,A,A*66
$GPGGA,132248.19,5249.2345,N,00856.6556,E,1,07,1.00,52.25,M,46.66,M,,*6F
$GPGLL,5249.2696,N,00856.5862,E,132252.19,A,A*67
$GPGGA,132258.19,5249.3214,N,00856.4846,E,1,08,1.25,51.78,M,46.66,M,,*67
$GPGLL,5249.3549,N,00856.4142,E,132302.19,A,A*69
$GPGGA,132308.19,5249.4084,N,00856.3137,E,1,07,1.00,49.51,M,46.66,M,,*6D
$GPGLL,5249.4422,N,00856.2494,E,132312.19,A,A*6B
$GPGGA,132318.19,5249.4903,N,00856.1566,E,1,08,1.25,47.01,M,46.66,M,,*6B
$GPGLL,5249.5226,N,00856.0954,E,132322.09,A,A*69
$GPGGA,132329.09,5249.5798,N,00855.9861,E,1,07,1.25,44.98,M,46.66,M,,*68
$GPGLL,5249.6028,N,00855.9424,E,132332.09,A,A*67
$GPGGA,132339.09,5249.6559,N,00855.8418,E,1,07,1.25,44.97,M,46.66,M,,*69
$GPGLL,5249.6790,N,00855.7961,E,132342.09,A,A*66
$GPGGA,132349.09,5249.7317,N,00855.6939,E,1,08,1.25,44.64,M,46.66,M,,*60
$GPGLL,5249.7555,N,00855.6477,E,132352.09,A,A*66
$GPGGA,132359.09,5249.8125,N,00855.5389,E,1,07,1.25,37.51,M,46.66,M,,*62
$GPGLL,5249.8362,N,00855.4938,E,132402.09,A,A*6D
$GPGGA,132409.09,5249.8934,N,00855.3836,E,1,08,1.25,32.30,M,46.66,M,,*6C
$GPGLL,5249.9176,N,00855.3358,E,132412.09,A,A*61
$GPGGA,132418.09,5249.9632,N,00855.2485,E,1,08,1.25,28.09,M,46.66,M,,*60
$GPGLL,5249.9926,N,00855.1963,E,132422.09,A,A*6F
$GPGGA,132429.09,5250.0400,N,00855.0971,E,1,08,1.25,24.42,M,46.66,M,,*67
$GPGLL,5250.0577,N,00855.0508,E,132432.09,A,A*67
$GPGGA,132439.09,5250.1002,N,00854.9366,E,1,07,1.00,23.03,M,46.66,M,,*6F
$GPGLL,5250.1200,N,00854.8852,E,132442.09,A,A*6D
$GPGGA,132449.09,5250.1654,N,00854.7646,E,1,08,0.75,26.47,M,46.66,M,,*6D
$GPGLL,5250.1847,N,00854.7125,E,132452.09,A,A*63
$GPGGA,132459.09,5250.2329,N,00854.5855,E,1,08,0.75,30.70,M,46.66,M,,*6D
$GPGLL,5250.2545,N,00854.5275,E,132502.19,A,A*6E
$GPGGA,132509.09,5250.3002,N,00854.4097,E,1,08,0.75,39.00,M,46.66,M,,*6B
$GPGLL,5250.3243,N,00854.3655,E,132512.09,A,A*6E
$GPGGA,132519.09,5250.3936,N,00854.2792,E,1,07,0.75,47.09,M,46.66,M,,*6F
$GPGLL,5250.4272,N,00854.2441,E,132522.09,A,A*6E
$GPGGA,132528.09,5250.4984,N,00854.1708,E,1,08,0.75,51.64,M,46.66,M,,*60
$GPGLL,5250.5448,N,00854.1236,E,132532.09,A,A*64
$GPGGA,132539.09,5250.6202,N,00854.0453,E,1,08,0.75,55.01,M,46.66,M,,*6C
$GPGLL,5250.6522,N,00854.0122,E,132542.09,A,A*6A
$GPGGA,132549.09,5250.7271,N,00853.9355,E,1,08,1.00,56.33,M,46.66,M,,*60
$GPGLL,5250.7594,N,00853.9029,E,132552.09,A,A*63
$GPGGA,132558.09,5250.8245,N,00853.8361,E,1,07,1.00,55.64,M,46.66,M,,*60
$GPGLL,5250.8683,N,00853.7907,E,132602.09,A,A*64
$GPGGA,132609.09,5250.9427,N,00853.7149,E,1,08,0.75,54.12,M,46.66,M,,*6F
$GPGLL,5250.9756,N,00853.6809,E,132612.09,A,A*63
$GPGGA,132619.09,5251.0553,N,00853.5976,E,1,07,1.00,50.15,M,46.66,M,,*6D
$GPGLL,5251.0913,N,00853.5611,E,132622.09,A,A*63
$GPGGA,132628.09,5251.1605,N,00853.4891,E,1,07,1.00,51.73,M,46.66,M,,*66
$GPGLL,5251.2066,N,00853.4416,E,132632.09,A,A*6F
$GPGGA,132639.09,5251.2845,N,00853.3594,E,1,06,1.75,48.48,M,46.66,M,,*63
$GPGLL,5251.3179,N,00853.3245,E,132642.09,A,A*61
$GPGGA,132649.09,5251.3943,N,00853.2450,E,1,07,1.25,45.65,M,46.66,M,,*6C
$GPGLL,5251.4276,N,00853.2111,E,132652.09,A,A*68
$GPGGA,132700.09,5251.5125,N,00853.1160,E,1,06,1.25,44.69,M,46.66,M,,*67
$GPGLL,5251.5334,N,00853.0912,E,132702.09,A,A*63
$GPGGA,132710.09,5251.6192,N,00852.9913,E,1,07,1.25,48.78,M,46.66,M,,*61
$GPGLL,5251.6404,N,00852.9655,E,132712.09,A,A*61
$GPGGA,132720.09,5251.7310,N,00852.8594,E,1,07,1.25,54.64,M,46.66,M,,*69
$GPGLL,5251.7549,N,00852.8307,E,132722.09,A,A*68
$GPGGA,132729.09,5251.8337,N,00852.7394,E,1,07,1.25,59.81,M,46.66,M,,*65
$GPGLL,5251.8666,N,00852.7029,E,132732.09,A,A*68
$GPGGA,132740.09,5251.9469,N,00852.6085,E,1,08,0.75,50.28,M,46.66,M,,*64
$GPGLL,5251.9651,N,00852.5872,E,132742.09,A,A*6E
$GPGGA,132750.09,5252.0406,N,00852.4998,E,1,08,0.75,49.47,M,46.66,M,,*60
$GPGLL,5252.0602,N,00852.4771,E,132752.09,A,A*6E
$GPGGA,132801.09,5252.1516,N,00852.3689,E,1,07,1.00,46.42,M,46.66,M,,*64
$GPGLL,5252.1628,N,00852.3559,E,132802.09,A,A*62
$GPGGA,132812.09,5252.2706,N,00852.2315,E,1,08,0.75,45.58,M,46.66,M,,*63
$GPGLL,5252.2706,N,00852.2315,E,132812.09,A,A*62
$GPGGA,132822.09,5252.3654,N,00852.1208,E,1,08,0.75,46.56,M,46.66,M,,*64
$GPGLL,5252.3654,N,00852.1208,E,132822.09,A,A*68
$GPGGA,132831.09,5252.4277,N,00852.0486,E,1,08,0.75,42.89,M,46.66,M,,*63
$GPGLL,5252.4335,N,00852.0422,E,132832.09,A,A*63
$GPGGA,132842.09,5252.4882,N,00851.9792,E,1,08,0.75,43.73,M,46.66,M,,*6F
$GPGLL,5252.4882,N,00851.9792,E,132842.09,A,A*61
$GPGLL,5252.5649,N,00851.9253,E,132852.19,A,A*61
$GPGGA,132853.09,5252.5728,N,00851.9219,E,1,07,1.25,41.01,M,46.66,M,,*6B
$GPGLL,5252.6484,N,00851.8944,E,132902.09,A,A*68
$GPGGA,132903.09,5252.6569,N,00851.8912,E,1,07,1.25,44.50,M,46.66,M,,*6B
$GPGLL,5252.7310,N,00851.8583,E,132912.09,A,A*65
$GPGGA,132914.09,5252.7436,N,00851.8492,E,1,08,1.25,46.87,M,46.66,M,,*65
$GPGLL,5252.7899,N,00851.7987,E,132922.09,A,A*6B
$GPGGA,132924.09,5252.8008,N,00851.7838,E,1,07,1.25,49.30,M,46.66,M,,*6F
$GPGLL,5252.8433,N,00851.7247,E,132932.09,A,A*6E
$GPGGA,132934.09,5252.8542,N,00851.7097,E,1,07,1.25,49.23,M,46.66,M,,*6A
$GPGLL,5252.9003,N,00851.6440,E,132942.09,A,A*6F
$GPGGA,132944.09,5252.9133,N,00851.6275,E,1,08,0.75,59.92,M,46.66,M,,*61
$GPGLL,5252.9621,N,00851.5559,E,132952.09,A,A*62
$GPGGA,132954.09,5252.9763,N,00851.5369,E,1,08,0.75,61.45,M,46.66,M,,*6D
$GPGLL,5253.0371,N,00851.4506,E,133002.19,A,A*6D
$GPGGA,133005.09,5253.0607,N,00851.4170,E,1,08,0.75,64.78,M,46.66,M,,*6A
$GPGLL,5253.1133,N,00851.3200,E,133012.19,A,A*6F
$GPGGA,133016.09,5253.1409,N,00851.2566,E,1,06,1.00,44.31,M,46.66,M,,*62
$GPGLL,5253.1851,N,00851.1553,E,133022.09,A,A*63
$GPGGA,133026.19,5253.2167,N,00851.0881,E,1,08,0.75,42.41,M,46.60,M,,*62
$GPGLL,5253.2683,N,00851.0046,E,133032.09,A,A*60
$GPGGA,133037.19,5253.3241,N,00850.9564,E,1,08,0.75,36.80,M,46.60,M,,*64
$GPGLL,5253.3858,N,00850.9263,E,133042.19,A,A*62
$GPGGA,133048.09,5253.4669,N,00850.8954,E,1,08,0.75,33.99,M,46.60,M,,*67
$GPGLL,5253.5263,N,00850.8730,E,133052.19,A,A*65
$GPGGA,133059.09,5253.6214,N,00850.8381,E,1,08,0.75,33.74,M,46.60,M,,*6A
$GPGLL,5253.6590,N,00850.8243,E,133102.09,A,A*69
$GPGGA,133109.09,5253.7450,N,00850.7914,E,1,08,1.00,28.09,M,46.60,M,,*63
$GPGLL,5253.7813,N,00850.7774,E,133112.09,A,A*61
$GPGGA,133120.09,5253.8792,N,00850.7408,E,1,07,1.50,32.35,M,46.60,M,,*64
$GPGLL,5253.9049,N,00850.7310,E,133122.19,A,A*6C
$GPGGA,133129.09,5253.9768,N,00850.6809,E,1,07,1.00,33.01,M,46.60,M,,*66
$GPGLL,5254.0063,N,00850.6509,E,133132.09,A,A*65
$GPGGA,133139.09,5254.0747,N,00850.5795,E,1,08,1.00,41.62,M,46.60,M,,*62
$GPGLL,5254.1015,N,00850.5510,E,133142.09,A,A*69
$GPGGA,133149.19,5254.1623,N,00850.4870,E,1,08,1.00,50.26,M,46.60,M,,*63
$GPGLL,5254.1858,N,00850.4616,E,133152.09,A,A*6D
$GPGGA,133159.19,5254.2433,N,00850.3961,E,1,07,1.25,45.60,M,46.60,M,,*6A
$GPGLL,5254.2643,N,00850.3688,E,133202.09,A,A*6C
$GPGGA,133210.09,5254.3193,N,00850.2965,E,1,08,1.00,39.37,M,46.60,M,,*6F
$GPGLL,5254.3329,N,00850.2797,E,133212.09,A,A*6B
$GPGGA,133219.19,5254.3803,N,00850.2143,E,1,07,1.25,34.07,M,46.60,M,,*6D
$GPGLL,5254.4000,N,00850.1858,E,133222.09,A,A*68
$GPGGA,133230.09,5254.4571,N,00850.1040,E,1,07,1.25,25.32,M,46.60,M,,*6F
$GPGLL,5254.4715,N,00850.0837,E,133232.19,A,A*63
$GPGGA,133240.19,5254.5245,N,00850.0103,E,1,07,1.25,21.76,M,46.60,M,,*6B
$GPGLL,5254.5367,N,00849.9932,E,133242.09,A,A*60
$GPGGA,133251.09,5254.5921,N,00849.9166,E,1,08,1.00,20.63,M,46.60,M,,*6C
$GPGLL,5254.5977,N,00849.9087,E,133252.09,A,A*6D
$GPGGA,133301.09,5254.6309,N,00849.8627,E,1,07,1.25,18.46,M,46.60,M,,*6C
$GPGLL,5254.6341,N,00849.8585,E,133302.09,A,A*63
$GPGGA,133312.09,5254.6733,N,00849.8042,E,1,08,1.00,18.76,M,46.60,M,,*6D
$GPGLL,5254.6733,N,00849.8042,E,133312.09,A,A*6D
$GPGGA,133322.09,5254.7219,N,00849.7142,E,1,07,1.25,14.74,M,46.60,M,,*6A
$GPGLL,5254.7219,N,00849.7142,E,133322.09,A,A*6C
$GPGGA,133332.09,5254.7753,N,00849.6321,E,1,07,1.25,15.96,M,46.60,M,,*6B
$GPGLL,5254.7753,N,00849.6321,E,133332.09,A,A*60
$GPGGA,133342.09,5254.8327,N,00849.6201,E,1,07,0.75,17.99,M,46.60,M,,*6E
$GPGLL,5254.8327,N,00849.6201,E,133342.09,A,A*6C
$GPGGA,133352.09,5254.8812,N,00849.6796,E,1,07,0.75,21.10,M,46.60,M,,*6D
$GPGLL,5254.8812,N,00849.6796,E,133352.09,A,A*6B
$GPGGA,133402.09,5254.9485,N,00849.6969,E,1,08,1.00,25.18,M,46.60,M,,*62
$GPGLL,5254.9485,N,00849.6969,E,133402.09,A,A*64
$GPGLL,5255.0215,N,00849.7311,E,133412.09,A,A*66
$GPGGA,133413.09,5255.0302,N,00849.7313,E,1,08,1.00,28.09,M,46.60,M,,*69
$GPGGA,133422.09,5255.1010,N,00849.7149,E,1,08,1.00,28.84,M,46.60,M,,*62
$GPGLL,5255.1010,N,00849.7149,E,133422.09,A,A*6C
$GPGLL,5255.1841,N,00849.6890,E,133432.09,A,A*6D
$GPGGA,133433.09,5255.1909,N,00849.6880,E,1,08,1.00,23.57,M,46.60,M,,*6B
$GPGGA,133443.09,5255.2722,N,00849.6583,E,1,05,2.50,15.93,M,46.60,M,,*60
$GPGLL,5255.2722,N,00849.6583,E,133443.09,A,A*6D
$GPGGA,133452.99,5255.3463,N,00849.5738,E,1,06,1.25,15.15,M,46.60,M,,*63
$GPGLL,5255.3533,N,00849.5626,E,133454.09,A,A*67
$GPGGA,133503.09,5255.4169,N,00849.4817,E,1,07,0.75,14.43,M,46.60,M,,*63
$GPGLL,5255.4251,N,00849.4750,E,133504.09,A,A*66
$GPGGA,133513.09,5255.5029,N,00849.4339,E,1,08,1.00,13.10,M,46.60,M,,*6C
$GPGLL,5255.5104,N,00849.4328,E,133514.09,A,A*6E
$GPGGA,133523.09,5255.5835,N,00849.4349,E,1,08,1.00,10.87,M,46.60,M,,*60
$GPGLL,5255.5922,N,00849.4356,E,133524.09,A,A*68
$GPGGA,133533.09,5255.6737,N,00849.4490,E,1,08,1.00,21.66,M,46.60,M,,*61
$GPGLL,5255.6833,N,00849.4510,E,133534.09,A,A*6F
$GPGGA,133543.09,5255.7696,N,00849.4670,E,1,08,1.00,27.84,M,46.60,M,,*6B
$GPGLL,5255.7782,N,00849.4689,E,133544.09,A,A*6F
$GPGGA,133553.09,5255.8526,N,00849.4832,E,1,06,1.50,33.69,M,46.60,M,,*68
$GPGLL,5255.8604,N,00849.4844,E,133554.09,A,A*61
$GPGGA,133603.09,5255.9285,N,00849.4958,E,1,08,1.00,37.79,M,46.60,M,,*62
$GPGLL,5255.9334,N,00849.4967,E,133604.09,A,A*60
$GPGGA,133613.09,5255.9814,N,00849.5053,E,1,07,0.75,33.37,M,46.60,M,,*60
$GPGLL,5255.9869,N,00849.5064,E,133614.09,A,A*69
$GPGGA,133623.09,5256.0355,N,00849.5162,E,1,08,1.00,26.16,M,46.60,M,,*6F
$GPGLL,5256.0392,N,00849.5169,E,133624.09,A,A*63
$GPGGA,133634.09,5256.0847,N,00849.5248,E,1,08,1.00,18.27,M,46.60,M,,*65
$GPGLL,5256.0847,N,00849.5248,E,133634.09,A,A*61
$GPGGA,133644.09,5256.1355,N,00849.5343,E,1,07,0.75,17.84,M,46.60,M,,*6B
$GPGLL,5256.1355,N,00849.5343,E,133644.09,A,A*65
$GPGGA,133654.09,5256.1913,N,00849.5442,E,1,07,0.75,15.52,M,46.60,M,,*6D
$GPGLL,5256.1913,N,00849.5442,E,133654.09,A,A*6A
$GPGGA,133704.09,5256.2164,N,00849.5496,E,1,07,1.50,18.91,M,46.60,M,,*6F
$GPGLL,5256.2164,N,00849.5496,E,133704.09,A,A*6C
$GPGGA,133714.09,5256.2440,N,00849.5545,E,1,08,1.00,23.21,M,46.60,M,,*6B
$GPGLL,5256.2440,N,00849.5545,E,133714.09,A,A*61
$GPGGA,133724.09,5256.2685,N,00849.5584,E,1,07,0.75,26.68,M,46.60,M,,*6A
$GPGLL,5256.2685,N,00849.5584,E,133724.09,A,A*64
$GPGGA,133734.09,5256.2832,N,00849.5619,E,1,05,1.50,32.01,M,46.60,M,,*60
$GPGLL,5256.2832,N,00849.5619,E,133734.09,A,A*60
$GPGGA,133744.09,5256.2854,N,00849.5629,E,1,07,0.75,25.34,M,46.60,M,,*60
$GPGLL,5256.2854,N,00849.5629,E,133744.09,A,A*64
$GPGGA,133754.09,5256.2854,N,00849.5629,E,1,08,1.00,25.34,M,46.60,M,,*6D
$GPGLL,5256.2854,N,00849.5629,E,133754.09,A,A*65
$GPGGA,133804.09,5256.2854,N,00849.5629,E,1,08,1.00,25.34,M,46.60,M,,*67
$GPGLL,5256.2854,N,00849.5629,E,133804.09,A,A*6F
$GPGLL,5256.2854,N,00849.5629,E,133814.09,A,A*6E
$GPGGA,133815.09,5256.2854,N,00849.5629,E,1,08,1.00,25.34,M,46.60,M,,*67
$GPGLL,5256.2854,N,00849.5629,E,133824.09,A,A*6D
$GPGGA,133826.09,5256.2889,N,00849.5643,E,1,08,1.00,22.43,M,46.60,M,,*6C
$GPGLL,5256.3116,N,00849.5680,E,133834.09,A,A*61
$GPGGA,133837.09,5256.3225,N,00849.5702,E,1,08,1.00,21.98,M,46.60,M,,*60
$GPGLL,5256.3363,N,00849.5727,E,133844.09,A,A*6A
$GPGGA,133848.09,5256.3413,N,00849.5734,E,1,07,0.75,20.02,M,46.60,M,,*60
$GPGLL,5256.3428,N,00849.5741,E,133854.09,A,A*63
$GPGGA,133858.09,5256.3427,N,00849.5747,E,1,06,1.50,21.01,M,46.60,M,,*67
$GPGLL,5256.3427,N,00849.5747,E,133904.09,A,A*6E
$GPGGA,133907.09,5256.3427,N,00849.5747,E,1,08,1.00,21.01,M,46.60,M,,*67
$GPGLL,5256.3427,N,00849.5747,E,133914.19,A,A*6E
$GPGGA,133917.09,5256.3427,N,00849.5747,E,1,08,1.00,21.01,M,46.60,M,,*66
$GPGLL,5256.3427,N,00849.5747,E,133924.09,A,A*6C
$GPGGA,133927.09,5256.3427,N,00849.5747,E,1,08,1.00,21.01,M,46.60,M,,*65
$GPGLL,5256.3427,N,00849.5747,E,133934.09,A,A*6D
$GPGGA,133938.09,5256.3427,N,00849.5747,E,1,07,1.00,21.01,M,46.60,M,,*64
$GPGLL,5256.3427,N,00849.5747,E,133944.09,A,A*6A
$GPGGA,133949.09,5256.3427,N,00849.5747,E,1,07,1.00,21.01,M,46.60,M,,*62
$GPGLL,5256.3427,N,00849.5747,E,133954.09,A,A*6B
$GPGGA,133959.09,5256.3523,N,00849.5756,E,1,07,1.00,24.90,M,46.60,M,,*6B
$GPGLL,5256.3716,N,00849.5790,E,134004.09,A,A*6B
$GPGGA,134009.19,5256.3953,N,00849.5898,E,1,08,1.00,23.26,M,46.60,M,,*62
$GPGLL,5256.4255,N,00849.5947,E,134014.09,A,A*6B
$GPGGA,134020.09,5256.4746,N,00849.6001,E,1,06,1.00,20.15,M,46.60,M,,*63
$GPGLL,5256.5115,N,00849.6002,E,134024.09,A,A*65
$GPGGA,134030.09,5256.5711,N,00849.5865,E,1,07,1.25,13.69,M,46.60,M,,*65
$GPGLL,5256.6109,N,00849.5671,E,134034.09,A,A*6B
$GPGGA,134039.09,5256.6630,N,00849.5296,E,1,08,0.75,11.93,M,46.60,M,,*67
$GPGLL,5256.7121,N,00849.4818,E,134044.09,A,A*67
$GPGGA,134049.19,5256.7577,N,00849.4302,E,1,08,0.75,8.51,M,46.60,M,,*5B
$GPGLL,5256.7961,N,00849.3763,E,134054.09,A,A*6E
$GPGGA,134100.09,5256.8449,N,00849.3000,E,1,07,0.75,6.87,M,46.60,M,,*59
$GPGLL,5256.8794,N,00849.2463,E,134104.19,A,A*62
$GPGGA,134109.19,5256.9207,N,00849.1794,E,1,08,0.75,11.13,M,46.60,M,,*60
$GPGLL,5256.9624,N,00849.1112,E,134114.19,A,A*68
$GPGGA,134119.19,5257.0049,N,00849.0409,E,1,08,0.75,12.41,M,46.60,M,,*63
$GPGLL,5257.0472,N,00848.9723,E,134124.19,A,A*6F
$GPGGA,134130.19,5257.0948,N,00848.8948,E,1,07,0.75,11.46,M,46.60,M,,*6A
$GPGLL,5257.1263,N,00848.8427,E,134134.19,A,A*6F
$GPGGA,134140.09,5257.1700,N,00848.7607,E,1,07,0.75,10.32,M,46.60,M,,*66
$GPGLL,5257.2002,N,00848.7062,E,134144.19,A,A*64
$GPGGA,134150.09,5257.2267,N,00848.6213,E,1,07,1.00,7.19,M,46.60,M,,*5C
$GPGLL,5257.2567,N,00848.5700,E,134154.19,A,A*62
$GPGGA,134200.19,5257.3037,N,00848.4987,E,1,08,0.75,6.26,M,46.60,M,,*58
$GPGLL,5257.3374,N,00848.4549,E,134204.19,A,A*6F
$GPGGA,134211.09,5257.4007,N,00848.3812,E,1,08,0.75,9.12,M,46.60,M,,*5F
$GPGLL,5257.4275,N,00848.3500,E,134214.19,A,A*63
$GPGGA,134221.09,5257.4857,N,00848.2804,E,1,08,0.75,12.85,M,46.60,M,,*63
$GPGLL,5257.5109,N,00848.2510,E,134223.99,A,A*66
$GPGGA,134231.19,5257.5742,N,00848.1772,E,1,06,1.25,11.41,M,46.60,M,,*65
$GPGLL,5257.6109,N,00848.1337,E,134235.19,A,A*6A
$GPGGA,134240.19,5257.6535,N,00848.0843,E,1,07,1.00,11.44,M,46.60,M,,*6D
$GPGLL,5257.6976,N,00848.0312,E,134245.19,A,A*6B
$GPGGA,134250.99,5257.7333,N,00847.9978,E,1,07,1.25,11.40,M,46.60,M,,*69
$GPGLL,5257.7465,N,00847.9818,E,134255.09,A,A*62
$GPGGA,134301.09,5257.7581,N,00847.9665,E,1,07,1.25,8.09,M,46.60,M,,*5C
$GPGLL,5257.7608,N,00847.9632,E,134305.09,A,A*69
$GPGGA,134311.09,5257.7631,N,00847.9666,E,1,08,0.75,9.26,M,46.60,M,,*51
$GPGLL,5257.7740,N,00847.9560,E,134315.09,A,A*61
$GPGGA,134321.09,5257.8021,N,00847.9337,E,1,08,0.75,5.18,M,46.60,M,,*5A
$GPGLL,5257.8271,N,00847.9165,E,134325.09,A,A*6B
$GPGGA,134331.09,5257.8716,N,00847.8893,E,1,08,0.75,7.44,M,46.60,M,,*57
$GPGLL,5257.9028,N,00847.8686,E,134335.09,A,A*6E
$GPGGA,134341.09,5257.9585,N,00847.8370,E,1,08,0.75,17.54,M,46.60,M,,*6F
$GPGLL,5257.9971,N,00847.8132,E,134345.09,A,A*64
$GPGGA,134351.09,5258.0512,N,00847.7808,E,1,08,0.75,23.34,M,46.60,M,,*6C
$GPGLL,5258.0861,N,00847.7593,E,134355.09,A,A*63
$GPGGA,134401.09,5258.1428,N,00847.7265,E,1,07,1.00,27.38,M,46.60,M,,*62
$GPGLL,5258.1805,N,00847.7042,E,134405.09,A,A*6B
$GPGGA,134410.19,5258.2298,N,00847.6755,E,1,08,0.75,25.65,M,46.60,M,,*6C
$GPGLL,5258.2722,N,00847.6488,E,134415.09,A,A*60
$GPGGA,134421.09,5258.3348,N,00847.6114,E,1,08,1.00,9.44,M,46.60,M,,*5F
$GPGLL,5258.3765,N,00847.5857,E,134425.09,A,A*6C
$GPGGA,134431.19,5258.4404,N,00847.5480,E,1,08,0.75,3.44,M,46.60,M,,*55
$GPGLL,5258.4804,N,00847.5223,E,134435.09,A,A*6B
$GPGGA,134441.19,5258.5402,N,00847.4862,E,1,08,0.75,15.05,M,46.60,M,,*66
$GPGLL,5258.5783,N,00847.4641,E,134445.09,A,A*6C
$GPGGA,134452.09,5258.6437,N,00847.4237,E,1,08,1.00,12.74,M,46.60,M,,*68
$GPGLL,5258.6729,N,00847.4059,E,134455.09,A,A*61
$GPGGA,134502.09,5258.7421,N,00847.3639,E,1,08,0.75,15.24,M,46.60,M,,*66
$GPGLL,5258.7732,N,00847.3453,E,134505.09,A,A*67
$GPGGA,134512.09,5258.8416,N,00847.3034,E,1,08,0.75,12.16,M,46.60,M,,*61
$GPGLL,5258.8699,N,00847.2871,E,134515.09,A,A*64
$GPGGA,134522.09,5258.9380,N,00847.2456,E,1,07,1.25,12.24,M,46.60,M,,*60
$GPGLL,5258.9788,N,00847.2278,E,134526.09,A,A*67
$GPGGA,134532.09,5259.0449,N,00847.2197,E,1,08,0.75,6.85,M,46.60,M,,*56
$GPGLL,5259.0838,N,00847.2211,E,134536.09,A,A*65
$GPGGA,134543.09,5259.1427,N,00847.2219,E,1,07,1.25,3.12,M,46.60,M,,*5C
$GPGLL,5259.1673,N,00847.2220,E,134546.09,A,A*60
$GPGGA,134553.09,5259.2310,N,00847.2212,E,1,07,1.00,3.00,M,46.52,M,,*53
$GPGLL,5259.2657,N,00847.2215,E,134556.69,A,A*64
$GPGGA,134602.69,5259.3230,N,00847.2215,E,1,07,1.00,3.28,M,46.52,M,,*5D
$GPGLL,5259.3587,N,00847.2217,E,134606.69,A,A*6F
$GPGGA,134612.69,5259.4093,N,00847.2212,E,1,08,0.75,5.96,M,46.52,M,,*58
$GPGLL,5259.4435,N,00847.2218,E,134616.69,A,A*6E
$GPGGA,134622.69,5259.4962,N,00847.2216,E,1,06,1.00,6.78,M,46.52,M,,*56
$GPGLL,5259.5327,N,00847.2227,E,134626.69,A,A*64
$GPGGA,134632.69,5259.5916,N,00847.2230,E,1,06,1.25,4.37,M,46.52,M,,*5F
$GPGLL,5259.6291,N,00847.2224,E,134636.69,A,A*69
$GPGGA,134642.79,5259.6874,N,00847.2224,E,1,08,0.75,0.67,M,46.52,M,,*51
$GPGLL,5259.7228,N,00847.2212,E,134646.69,A,A*68
$GPGGA,134652.69,5259.7763,N,00847.2223,E,1,07,1.25,-0.47,M,46.52,M,,*7A
$GPGLL,5259.8096,N,00847.2257,E,134656.69,A,A*60
$GPGGA,134702.79,5259.8527,N,00847.2556,E,1,08,0.75,1.85,M,46.52,M,,*5E
$GPGLL,5259.8813,N,00847.2801,E,134706.69,A,A*68
$GPGGA,134712.69,5259.9286,N,00847.3076,E,1,08,0.75,6.15,M,46.52,M,,*5B
$GPGLL,5259.9481,N,00847.3397,E,134716.69,A,A*6A
$GPGGA,134722.69,5259.9667,N,00847.4178,E,1,08,0.75,6.46,M,46.52,M,,*5D
$GPGLL,5259.9811,N,00847.4808,E,134726.69,A,A*66
$GPGGA,134732.69,5300.0070,N,00847.5707,E,1,07,1.00,6.17,M,46.52,M,,*5F
$GPGLL,5300.0295,N,00847.6267,E,134736.69,A,A*64
$GPGGA,134742.79,5300.0698,N,00847.7045,E,1,07,1.00,4.31,M,46.52,M,,*5C
$GPGLL,5300.1012,N,00847.7479,E,134746.69,A,A*67
$GPGGA,134752.69,5300.1517,N,00847.8060,E,1,06,1.00,4.42,M,46.52,M,,*54
$GPGLL,5300.1900,N,00847.8367,E,134756.69,A,A*6B
$GPGGA,134802.69,5300.2510,N,00847.8750,E,1,07,1.00,5.89,M,46.52,M,,*59
$GPGLL,5300.2928,N,00847.8929,E,134806.69,A,A*68
$GPGGA,134812.69,5300.3581,N,00847.9126,E,1,07,1.00,2.25,M,46.52,M,,*56
$GPGLL,5300.4035,N,00847.9219,E,134816.69,A,A*63
$GPGGA,134822.69,5300.4745,N,00847.9305,E,1,06,1.00,13.70,M,46.52,M,,*6A
$GPGLL,5300.5222,N,00847.9325,E,134826.69,A,A*6B
$GPGGA,134832.69,5300.5959,N,00847.9290,E,1,07,1.00,14.26,M,46.52,M,,*61
$GPGLL,5300.6462,N,00847.9237,E,134836.79,A,A*68
$GPGGA,134842.69,5300.7194,N,00847.9158,E,1,06,1.00,13.62,M,46.52,M,,*6C
$GPGLL,5300.7691,N,00847.9109,E,134846.79,A,A*6E
$GPGGA,134852.79,5300.8388,N,00847.9089,E,1,07,1.00,3.00,M,46.52,M,,*55
$GPGLL,5300.8825,N,00847.9101,E,134856.69,A,A*68
$GPGGA,134902.69,5300.9471,N,00847.9177,E,1,06,1.25,6.32,M,46.52,M,,*52
$GPGLL,5300.9893,N,00847.9256,E,134906.69,A,A*61
$GPGGA,134912.69,5301.0504,N,00847.9413,E,1,07,1.00,0.29,M,46.52,M,,*55
$GPGLL,5301.0905,N,00847.9564,E,134916.69,A,A*60
$GPGGA,134922.69,5301.1491,N,00847.9824,E,1,07,1.00,3.75,M,46.52,M,,*58
$GPGLL,5301.1857,N,00848.0015,E,134926.79,A,A*60
$GPGGA,134932.79,5301.2336,N,00848.0348,E,1,07,1.00,5.28,M,46.52,M,,*58
$GPGLL,5301.2650,N,00848.0590,E,134936.69,A,A*62
$GPGGA,134942.79,5301.3057,N,00848.0917,E,1,07,1.00,2.53,M,46.52,M,,*51
$GPGLL,5301.3176,N,00848.1164,E,134946.69,A,A*69
$GPGGA,134952.69,5301.3210,N,00848.1766,E,1,07,1.00,3.26,M,46.52,M,,*5A
$GPGLL,5301.3325,N,00848.2203,E,134956.69,A,A*6D
$GPGGA,135002.79,5301.3698,N,00848.2689,E,1,07,1.00,3.28,M,46.52,M,,*5F
$GPGLL,5301.3889,N,00848.3049,E,135006.79,A,A*61
$GPGGA,135012.49,5301.3997,N,00848.3746,E,1,07,1.00,0.93,M,46.52,M,,*5D
$GPGLL,5301.4055,N,00848.4400,E,135016.59,A,A*62
$GPGGA,135022.49,5301.4113,N,00848.5581,E,1,07,1.00,0.87,M,46.52,M,,*57
$GPGLL,5301.4160,N,00848.6539,E,135026.49,A,A*6E
$GPGGA,135032.49,5301.4186,N,00848.8141,E,1,05,5.50,-1.27,M,46.52,M,,*7A
$GPGLL,5301.4204,N,00848.9296,E,135036.49,A,A*63
$GPGGA,135042.49,5301.4205,N,00849.1072,E,1,06,2.00,-3.69,M,46.52,M,,*75
$GPGLL,5301.4199,N,00849.2242,E,135046.49,A,A*60
$GPGGA,135052.49,5301.4188,N,00849.3973,E,1,06,2.00,-2.18,M,46.52,M,,*7F
$GPGLL,5301.4185,N,00849.5102,E,135056.49,A,A*6C
$GPGGA,135102.49,5301.4186,N,00849.6769,E,1,07,1.00,2.45,M,46.52,M,,*52
$GPGLL,5301.4196,N,00849.7890,E,135106.49,A,A*6A
$GPGGA,135112.49,5301.4209,N,00849.9590,E,1,06,5.00,6.92,M,46.52,M,,*57
$GPGLL,5301.4207,N,00850.0621,E,135116.19,A,A*6E
$GPGGA,135122.19,5301.4217,N,00850.2255,E,1,06,5.00,-0.97,M,46.52,M,,*7D
$GPGLL,5301.4245,N,00850.3351,E,135126.19,A,A*6A
$GPGGA,135132.19,5301.4373,N,00850.5024,E,1,06,5.00,8.92,M,46.52,M,,*5C
$GPGLL,5301.4505,N,00850.6150,E,135136.29,A,A*6D
$GPGGA,135142.19,5301.4760,N,00850.7722,E,1,06,5.00,-1.79,M,46.52,M,,*7F
$GPGLL,5301.4984,N,00850.8789,E,135146.29,A,A*63
$GPGGA,135152.29,5301.5361,N,00851.0168,E,1,07,1.00,-2.35,M,46.52,M,,*79
$GPGLL,5301.5628,N,00851.1058,E,135156.29,A,A*69
$GPGGA,135202.29,5301.6141,N,00851.2390,E,1,07,1.00,1.76,M,46.52,M,,*52
$GPGLL,5301.6502,N,00851.3253,E,135206.19,A,A*6F
$GPGGA,135212.29,5301.7073,N,00851.4601,E,1,08,1.00,5.45,M,46.52,M,,*52
$GPGLL,5301.7450,N,00851.5480,E,135216.19,A,A*67
$GPGGA,135222.29,5301.8021,N,00851.6857,E,1,07,1.00,1.75,M,46.52,M,,*5E
$GPGLL,5301.8383,N,00851.7696,E,135226.29,A,A*66
$GPGGA,135232.29,5301.8921,N,00851.8950,E,1,08,1.00,4.75,M,46.52,M,,*54
$GPGLL,5301.9269,N,00851.9772,E,135236.29,A,A*66
$GPGGA,135242.29,5301.9774,N,00852.0953,E,1,08,1.00,5.15,M,46.52,M,,*53
$GPGLL,5302.0114,N,00852.1749,E,135246.29,A,A*61
$GPGGA,135252.29,5302.0614,N,00852.2931,E,1,08,1.00,5.39,M,46.52,M,,*57
$GPGLL,5302.0930,N,00852.3719,E,135256.29,A,A*69
$GPGGA,135302.29,5302.1368,N,00852.4931,E,1,08,1.00,7.93,M,46.52,M,,*58
$GPGLL,5302.1638,N,00852.5747,E,135306.29,A,A*66
$GPGGA,135312.29,5302.1983,N,00852.6973,E,1,08,1.00,2.65,M,46.52,M,,*5E
$GPGLL,5302.2187,N,00852.7762,E,135316.29,A,A*62
$GPGGA,135322.19,5302.2419,N,00852.8846,E,1,07,1.25,3.46,M,46.52,M,,*52
$GPGLL,5302.2550,N,00852.9583,E,135326.19,A,A*6F
$GPGGA,135332.29,5302.2741,N,00853.0676,E,1,06,5.00,6.96,M,46.52,M,,*50
$GPGLL,5302.2859,N,00853.1388,E,135336.29,A,A*6D
$GPGGA,135342.49,5302.3008,N,00853.2468,E,1,07,5.00,16.57,M,46.47,M,,*6C
$GPGLL,5302.3050,N,00853.3092,E,135346.49,A,A*66
$GPGGA,135352.49,5302.3032,N,00853.3718,E,1,07,1.00,2.06,M,46.47,M,,*54
$GPGLL,5302.2890,N,00853.3981,E,135356.49,A,A*69
$GPGGA,135402.49,5302.2580,N,00853.3886,E,1,08,0.75,3.42,M,46.47,M,,*5E
$GPGLL,5302.2479,N,00853.3530,E,135406.49,A,A*66
$GPGGA,135412.49,5302.2440,N,00853.2888,E,1,08,1.00,-0.69,M,46.47,M,,*79
$GPGLL,5302.2511,N,00853.2557,E,135416.49,A,A*68
$GPGGA,135422.49,5302.2790,N,00853.2306,E,1,08,1.00,-2.85,M,46.47,M,,*79
$GPGLL,5302.3094,N,00853.2123,E,135426.39,A,A*62
$GPGGA,135432.49,5302.3579,N,00853.1910,E,1,07,1.25,-1.94,M,46.47,M,,*79
$GPGLL,5302.3977,N,00853.1756,E,135436.49,A,A*67
$GPGGA,135442.49,5302.4559,N,00853.1553,E,1,08,1.00,5.90,M,46.47,M,,*55
$GPGLL,5302.4971,N,00853.1445,E,135446.49,A,A*60
$GPGGA,135452.49,5302.5585,N,00853.1325,E,1,08,1.25,5.09,M,46.47,M,,*54