$GPGLL,5224.175020,N,1333.954960,E,094429.000,V,N*76

$GPRMC,094429.000,V,5224.175020,N,01333.954960,E,0.000,0.00,221107,,,N*46

$GPVTG,0.00,T,,M,0.000,N,0.000,K,N*32

$GPZDA,094429.000,22,11,2007,,*51

$GPGLL,5224.667200,N,1331.104420,E,094450.000,V,N*7A

$GPRMC,094450.000,V,5224.667200,N,01331.104420,E,0.001,0.00,221107,,,N*4B

$GPVTG,0.00,T,,M,0.001,N,0.001,K,N*32

$GPZDA,094450.000,22,11,2007,,*5F

$GPGLL,5231.212480,N,1324.690780,E,094510.000,A,A*6C

$GPRMC,094510.000,A,5231.212480,N,01324.690780,E,0.000,0.00,221107,,,A*5C

$GPVTG,0.00,T,,M,0.000,N,0.000,K,A*3D

$GPZDA,094510.000,22,11,2007,,*5A

$GPGLL,5231.221300,N,1324.694560,E,094530.000,A,A*69

$GPRMC,094530.000,A,5231.221300,N,01324.694560,E,1.531,0.00,221107,,,A*5F

$GPVTG,0.00,T,,M,1.531,N,2.835,K,A*37

$GPZDA,094530.000,22,11,2007,,*58

$GPGLL,5231.237920,N,1324.718140,E,094550.000,A,A*63

$GPRMC,094550.000,A,5231.237920,N,01324.718140,E,0.061,0.00,221107,,,A*54

$GPVTG,0.00,T,,M,0.061,N,0.113,K,A*39

$GPZDA,094550.000,22,11,2007,,*5E

$GPGLL,5231.240800,N,1324.715500,E,094610.000,A,A*6A

$GPRMC,094610.000,A,5231.240800,N,01324.715500,E,0.215,0.00,221107,,,A*5C

$GPVTG,0.00,T,,M,0.215,N,0.399,K,A*38

$GPZDA,094610.000,22,11,2007,,*59

$GPGLL,5231.241280,N,1324.716520,E,094630.000,A,A*6A

$GPRMC,094630.000,A,5231.241280,N,01324.716520,E,0.210,0.00,221107,,,A*59

$GPVTG,0.00,T,,M,0.210,N,0.388,K,A*3D

$GPZDA,094630.000,22,11,2007,,*5B

$GPGLL,5231.241400,N,1324.717480,E,094650.000,A,A*68

$GPRMC,094650.000,A,5231.241400,N,01324.717480,E,0.013,0.00,221107,,,A*5A

$GPVTG,0.00,T,,M,0.013,N,0.024,K,A*39

$GPZDA,094650.000,22,11,2007,,*5D

$GPGLL,5231.242240,N,1324.721500,E,094710.000,A,A*60

$GPRMC,094710.000,A,5231.242240,N,01324.721500,E,0.177,0.00,221107,,,A*51

$GPVTG,0.00,T,,M,0.177,N,0.328,K,A*35

$GPZDA,094710.000,22,11,2007,,*58

$GPGLL,5231.242540,N,1324.721800,E,094730.000,A,A*68

$GPRMC,094730.000,A,5231.242540,N,01324.721800,E,0.213,0.00,221107,,,A*58

$GPVTG,0.00,T,,M,0.213,N,0.394,K,A*33

$GPZDA,094730.000,22,11,2007,,*5A

$GPGLL,5231.249320,N,1324.719880,E,094750.000,A,A*66

$GPRMC,094750.000,A,5231.249320,N,01324.719880,E,2.542,0.00,221107,,,A*57

$GPVTG,0.00,T,,M,2.542,N,4.708,K,A*37

$GPZDA,094750.000,22,11,2007,,*5C

$GPGLL,5231.244880,N,1324.735780,E,094810.000,A,A*60

$GPRMC,094810.000,A,5231.244880,N,01324.735780,E,1.090,0.00,221107,,,A*58

$GPVTG,0.00,T,,M,1.090,N,2.019,K,A*3F

$GPZDA,094810.000,22,11,2007,,*57

$GPGLL,5231.231500,N,1324.714720,E,094830.000,A,A*6C

$GPRMC,094830.000,A,5231.231500,N,01324.714720,E,2.739,0.00,221107,,,A*53

$GPVTG,0.00,T,,M,2.739,N,5.073,K,A*33

$GPZDA,094830.000,22,11,2007,,*55

$GPGLL,5231.217580,N,1324.696900,E,094850.000,A,A*61

$GPRMC,094850.000,A,5231.217580,N,01324.696900,E,2.503,0.00,221107,,,A*55

$GPVTG,0.00,T,,M,2.503,N,4.635,K,A*3D

$GPZDA,094850.000,22,11,2007,,*53

$GPGLL,5231.217700,N,1324.684780,E,094910.000,A,A*6B

$GPRMC,094910.000,A,5231.217700,N,01324.684780,E,0.045,0.00,221107,,,A*5A

$GPVTG,0.00,T,,M,0.045,N,0.083,K,A*37

$GPZDA,094910.000,22,11,2007,,*56

$GPGLL,5231.210320,N,1324.671160,E,094930.000,A,A*6A

$GPRMC,094930.000,A,5231.210320,N,01324.671160,E,1.565,0.00,221107,,,A*5D

$GPVTG,0.00,T,,M,1.565,N,2.898,K,A*31

$GPZDA,094930.000,22,11,2007,,*54

$GPGLL,5231.199280,N,1324.653820,E,094950.000,A,A*68

$GPRMC,094950.000,A,5231.199280,N,01324.653820,E,1.172,0.00,221107,,,A*5D

$GPVTG,0.00,T,,M,1.172,N,2.171,K,A*3D

$GPZDA,094950.000,22,11,2007,,*52

$GPGLL,5231.194300,N,1324.629220,E,095010.000,A,A*67

$GPRMC,095010.000,A,5231.194300,N,01324.629220,E,2.574,0.00,221107,,,A*53

$GPVTG,0.00,T,,M,2.574,N,4.767,K,A*3B

$GPZDA,095010.000,22,11,2007,,*5E

$GPGLL,5231.187520,N,1324.602340,E,095030.000,A,A*6D

$GPRMC,095030.000,A,5231.187520,N,01324.602340,E,2.844,0.00,221107,,,A*57

$GPVTG,0.00,T,,M,2.844,N,5.267,K,A*31

$GPZDA,095030.000,22,11,2007,,*5C

$GPGLL,5231.172700,N,1324.586980,E,095050.000,A,A*68

$GPRMC,095050.000,A,5231.172700,N,01324.586980,E,2.700,0.00,221107,,,A*5D

$GPVTG,0.00,T,,M,2.700,N,5.000,K,A*3D

$GPZDA,095050.000,22,11,2007,,*5A

$GPGLL,5231.159500,N,1324.564060,E,095110.000,A,A*6D

$GPRMC,095110.000,A,5231.159500,N,01324.564060,E,1.653,0.00,221107,,,A*5C

$GPVTG,0.00,T,,M,1.653,N,3.061,K,A*38

$GPZDA,095110.000,22,11,2007,,*5F

$GPGLL,5231.151640,N,1324.551280,E,095130.000,A,A*6A

$GPRMC,095130.000,A,5231.151640,N,01324.551280,E,2.236,0.00,221107,,,A*5F

$GPVTG,0.00,T,,M,2.236,N,4.141,K,A*38

$GPZDA,095130.000,22,11,2007,,*5D

$GPGLL,5231.147560,N,1324.521880,E,095150.000,A,A*67

$GPRMC,095150.000,A,5231.147560,N,01324.521880,E,1.743,0.00,221107,,,A*56

$GPVTG,0.00,T,,M,1.743,N,3.228,K,A*37

$GPZDA,095150.000,22,11,2007,,*5B

$GPGLL,5231.143120,N,1324.498180,E,095210.000,A,A*6E

$GPRMC,095210.000,A,5231.143120,N,01324.498180,E,2.560,0.00,221107,,,A*5F

$GPVTG,0.00,T,,M,2.560,N,4.741,K,A*3A

$GPZDA,095210.000,22,11,2007,,*5C

$GPGLL,5231.148400,N,1324.468000,E,095230.000,A,A*66

$GPRMC,095230.000,A,5231.148400,N,01324.468000,E,3.275,0.00,221107,,,A*55

$GPVTG,0.00,T,,M,3.275,N,6.065,K,A*3B

$GPZDA,095230.000,22,11,2007,,*5E

$GPGLL,5231.159560,N,1324.462000,E,095250.000,A,A*6D

$GPRMC,095250.000,A,5231.159560,N,01324.462000,E,2.084,0.00,221107,,,A*53

$GPVTG,0.00,T,,M,2.084,N,3.859,K,A*34

$GPZDA,095250.000,22,11,2007,,*58

$GPGLL,5231.163340,N,1324.440940,E,095310.000,A,A*68

$GPRMC,095310.000,A,5231.163340,N,01324.440940,E,2.259,0.00,221107,,,A*54

$GPVTG,0.00,T,,M,2.259,N,4.183,K,A*3F

$GPZDA,095310.000,22,11,2007,,*5D

$GPGLL,5231.162140,N,1324.408000,E,095330.000,A,A*68

$GPRMC,095330.000,A,5231.162140,N,01324.408000,E,2.708,0.00,221107,,,A*55

$GPVTG,0.00,T,,M,2.708,N,5.015,K,A*31

$GPZDA,095330.000,22,11,2007,,*5F

$GPGLL,5231.162920,N,1324.386760,E,095350.000,A,A*60

$GPRMC,095350.000,A,5231.162920,N,01324.386760,E,2.892,0.00,221107,,,A*51

$GPVTG,0.00,T,,M,2.892,N,5.356,K,A*39

$GPZDA,095350.000,22,11,2007,,*59

$GPGLL,5231.155120,N,1324.374880,E,095410.000,A,A*63

$GPRMC,095410.000,A,5231.155120,N,01324.374880,E,0.217,0.00,221107,,,A*57

$GPVTG,0.00,T,,M,0.217,N,0.401,K,A*3C

$GPZDA,095410.000,22,11,2007,,*5A

$GPGLL,5231.155060,N,1324.374700,E,095430.000,A,A*63

$GPRMC,095430.000,A,5231.155060,N,01324.374700,E,0.006,0.00,221107,,,A*55

$GPVTG,0.00,T,,M,0.006,N,0.012,K,A*38

$GPZDA,095430.000,22,11,2007,,*58

$GPGLL,5231.159680,N,1324.368220,E,095450.000,A,A*6B

$GPRMC,095450.000,A,5231.159680,N,01324.368220,E,1.576,0.00,221107,,,A*5E

$GPVTG,0.00,T,,M,1.576,N,2.918,K,A*3A

$GPZDA,095450.000,22,11,2007,,*5E

$GPGLL,5231.161900,N,1324.365220,E,095510.000,A,A*6F

$GPRMC,095510.000,A,5231.161900,N,01324.365220,E,3.741,0.00,221107,,,A*5E

$GPVTG,0.00,T,,M,3.741,N,6.929,K,A*38

$GPZDA,095510.000,22,11,2007,,*5B

$GPGLL,5231.176900,N,1324.343440,E,095530.000,A,A*6F

$GPRMC,095530.000,A,5231.176900,N,01324.343440,E,3.782,0.00,221107,,,A*51

$GPVTG,0.00,T,,M,3.782,N,7.005,K,A*31

$GPZDA,095530.000,22,11,2007,,*59

$GPGLL,5231.190520,N,1324.322740,E,095550.000,A,A*6B

$GPRMC,095550.000,A,5231.190520,N,01324.322740,E,3.121,0.00,221107,,,A*5A

$GPVTG,0.00,T,,M,3.121,N,5.780,K,A*36

$GPZDA,095550.000,22,11,2007,,*5F

$GPGLL,5231.205520,N,1324.312240,E,095610.000,A,A*65

$GPRMC,095610.000,A,5231.205520,N,01324.312240,E,0.504,0.00,221107,,,A*54

$GPVTG,0.00,T,,M,0.504,N,0.934,K,A*32

$GPZDA,095610.000,22,11,2007,,*58

$GPGLL,5231.203600,N,1324.315780,E,095630.000,A,A*6E

$GPRMC,095630.000,A,5231.203600,N,01324.315780,E,0.091,0.00,221107,,,A*56

$GPVTG,0.00,T,,M,0.091,N,0.168,K,A*3A

$GPZDA,095630.000,22,11,2007,,*5A

$GPGLL,5231.206180,N,1324.313380,E,095650.000,A,A*60

$GPRMC,095650.000,A,5231.206180,N,01324.313380,E,0.418,0.00,221107,,,A*5D

$GPVTG,0.00,T,,M,0.418,N,0.774,K,A*34

$GPZDA,095650.000,22,11,2007,,*5C

$GPGLL,5231.206060,N,1324.313320,E,095710.000,A,A*60

$GPRMC,095710.000,A,5231.206060,N,01324.313320,E,0.180,0.00,221107,,,A*59

$GPVTG,0.00,T,,M,0.180,N,0.333,K,A*37

$GPZDA,095710.000,22,11,2007,,*59

$GPGLL,5231.206540,N,1324.312660,E,095730.000,A,A*65

$GPRMC,095730.000,A,5231.206540,N,01324.312660,E,0.253,0.00,221107,,,A*51

$GPVTG,0.00,T,,M,0.253,N,0.469,K,A*32

$GPZDA,095730.000,22,11,2007,,*5B

$GPGLL,5231.216620,N,1324.301860,E,095750.000,A,A*6B

$GPRMC,095750.000,A,5231.216620,N,01324.301860,E,3.543,0.00,221107,,,A*5A

$GPVTG,0.00,T,,M,3.543,N,6.561,K,A*38

$GPZDA,095750.000,22,11,2007,,*5D

$GPGLL,5231.224480,N,1324.291420,E,095810.000,A,A*69

$GPRMC,095810.000,A,5231.224480,N,01324.291420,E,0.260,0.00,221107,,,A*5D

$GPVTG,0.00,T,,M,0.260,N,0.481,K,A*34

$GPZDA,095810.000,22,11,2007,,*56

$GPGLL,5231.226580,N,1324.296340,E,095830.000,A,A*6E

$GPRMC,095830.000,A,5231.226580,N,01324.296340,E,1.053,0.00,221107,,,A*59

$GPVTG,0.00,T,,M,1.053,N,1.951,K,A*36

$GPZDA,095830.000,22,11,2007,,*54

$GPGLL,5231.222920,N,1324.299580,E,095850.000,A,A*6F

$GPRMC,095850.000,A,5231.222920,N,01324.299580,E,0.651,0.00,221107,,,A*5D

$GPVTG,0.00,T,,M,0.651,N,1.205,K,A*39

$GPZDA,095850.000,22,11,2007,,*52

$GPGLL,5231.221480,N,1324.296820,E,095910.000,A,A*66

$GPRMC,095910.000,A,5231.221480,N,01324.296820,E,1.611,0.00,221107,,,A*51

$GPVTG,0.00,T,,M,1.611,N,2.984,K,A*3D

$GPZDA,095910.000,22,11,2007,,*57

$GPGLL,5231.216200,N,1324.279240,E,095930.000,A,A*63

$GPRMC,095930.000,A,5231.216200,N,01324.279240,E,1.231,0.00,221107,,,A*52

$GPVTG,0.00,T,,M,1.231,N,2.279,K,A*32

$GPZDA,095930.000,22,11,2007,,*55

$GPGLL,5231.205640,N,1324.267060,E,095950.000,A,A*68

$GPRMC,095950.000,A,5231.205640,N,01324.267060,E,1.144,0.00,221107,,,A*58

$GPVTG,0.00,T,,M,1.144,N,2.119,K,A*36

$GPZDA,095950.000,22,11,2007,,*53

$GPGLL,5231.195380,N,1324.247680,E,100010.000,A,A*61

$GPRMC,100010.000,A,5231.195380,N,01324.247680,E,2.299,0.00,221107,,,A*51

$GPVTG,0.00,T,,M,2.299,N,4.257,K,A*39

$GPZDA,100010.000,22,11,2007,,*53

$GPGLL,5231.183800,N,1324.226500,E,100030.000,A,A*6B

$GPRMC,100030.000,A,5231.183800,N,01324.226500,E,3.688,0.00,221107,,,A*5E

$GPVTG,0.00,T,,M,3.688,N,6.830,K,A*35

$GPZDA,100030.000,22,11,2007,,*51

$GPGLL,5231.163160,N,1324.208800,E,100050.000,A,A*6D

$GPRMC,100050.000,A,5231.163160,N,01324.208800,E,2.982,0.00,221107,,,A*5C

$GPVTG,0.00,T,,M,2.982,N,5.523,K,A*3D

$GPZDA,100050.000,22,11,2007,,*57

$GPGLL,5231.153200,N,1324.189180,E,100110.000,A,A*65

$GPRMC,100110.000,A,5231.153200,N,01324.189180,E,1.889,0.00,221107,,,A*5D

$GPVTG,0.00,T,,M,1.889,N,3.499,K,A*32

$GPZDA,100110.000,22,11,2007,,*52

$GPGLL,5231.153560,N,1324.169800,E,100130.000,A,A*69

$GPRMC,100130.000,A,5231.153560,N,01324.169800,E,2.022,0.00,221107,,,A*5B

$GPVTG,0.00,T,,M,2.022,N,3.745,K,A*3A

$GPZDA,100130.000,22,11,2007,,*50

$GPGLL,5231.142160,N,1324.152820,E,100150.000,A,A*61

$GPRMC,100150.000,A,5231.142160,N,01324.152820,E,2.947,0.00,221107,,,A*59

$GPVTG,0.00,T,,M,2.947,N,5.458,K,A*39

$GPZDA,100150.000,22,11,2007,,*56

$GPGLL,5231.132380,N,1324.131460,E,100210.000,A,A*60

$GPRMC,100210.000,A,5231.132380,N,01324.131460,E,2.355,0.00,221107,,,A*51

$GPVTG,0.00,T,,M,2.355,N,4.362,K,A*3F

$GPZDA,100210.000,22,11,2007,,*51

$GPGLL,5231.123020,N,1324.108360,E,100230.000,A,A*66

$GPRMC,100230.000,A,5231.123020,N,01324.108360,E,2.215,0.00,221107,,,A*52

$GPVTG,0.00,T,,M,2.215,N,4.103,K,A*3F

$GPZDA,100230.000,22,11,2007,,*53

$GPGLL,5231.121580,N,1324.093420,E,100250.000,A,A*6D

$GPRMC,100250.000,A,5231.121580,N,01324.093420,E,1.415,0.00,221107,,,A*5C

$GPVTG,0.00,T,,M,1.415,N,2.621,K,A*3B

$GPZDA,100250.000,22,11,2007,,*55

$GPGLL,5231.120020,N,1324.097380,E,100310.000,A,A*6F

$GPRMC,100310.000,A,5231.120020,N,01324.097380,E,0.308,0.00,221107,,,A*54

$GPVTG,0.00,T,,M,0.308,N,0.570,K,A*34

$GPZDA,100310.000,22,11,2007,,*50

$GPGLL,5231.105200,N,1324.082920,E,100330.000,A,A*6E

$GPRMC,100330.000,A,5231.105200,N,01324.082920,E,2.757,0.00,221107,,,A*59

$GPVTG,0.00,T,,M,2.757,N,5.106,K,A*38

$GPZDA,100330.000,22,11,2007,,*52

$GPGLL,5231.096020,N,1324.055980,E,100350.000,A,A*63

$GPRMC,100350.000,A,5231.096020,N,01324.055980,E,3.011,0.00,221107,,,A*50

$GPVTG,0.00,T,,M,3.011,N,5.577,K,A*3E

$GPZDA,100350.000,22,11,2007,,*54

$GPGLL,5231.098300,N,1324.032340,E,100410.000,A,A*68

$GPRMC,100410.000,A,5231.098300,N,01324.032340,E,0.264,0.00,221107,,,A*58

$GPVTG,0.00,T,,M,0.264,N,0.489,K,A*38

$GPZDA,100410.000,22,11,2007,,*57

$GPGLL,5231.098720,N,1324.032640,E,100430.000,A,A*69

$GPRMC,100430.000,A,5231.098720,N,01324.032640,E,0.015,0.00,221107,,,A*5D

$GPVTG,0.00,T,,M,0.015,N,0.027,K,A*3C

$GPZDA,100430.000,22,11,2007,,*55

$GPGLL,5231.098780,N,1324.032640,E,100450.000,A,A*65

$GPRMC,100450.000,A,5231.098780,N,01324.032640,E,0.009,0.00,221107,,,A*5C

$GPVTG,0.00,T,,M,0.009,N,0.016,K,A*33

$GPZDA,100450.000,22,11,2007,,*53

$GPGLL,5231.107900,N,1324.025560,E,100510.000,A,A*66

$GPRMC,100510.000,A,5231.107900,N,01324.025560,E,0.193,0.00,221107,,,A*5D

$GPVTG,0.00,T,,M,0.193,N,0.357,K,A*37

$GPZDA,100510.000,22,11,2007,,*56

$GPGLL,5231.108140,N,1324.025680,E,100530.000,A,A*6A

$GPRMC,100530.000,A,5231.108140,N,01324.025680,E,0.375,0.00,221107,,,A*5B

$GPVTG,0.00,T,,M,0.375,N,0.694,K,A*37

$GPZDA,100530.000,22,11,2007,,*54

$GPGLL,5231.109400,N,1324.023220,E,100550.000,A,A*64

$GPRMC,100550.000,A,5231.109400,N,01324.023220,E,0.232,0.00,221107,,,A*57

$GPVTG,0.00,T,,M,0.232,N,0.429,K,A*31

$GPZDA,100550.000,22,11,2007,,*52

$GPGLL,5231.108920,N,1324.017760,E,100610.000,A,A*6B

$GPRMC,100610.000,A,5231.108920,N,01324.017760,E,0.198,0.00,221107,,,A*5B

$GPVTG,0.00,T,,M,0.198,N,0.367,K,A*3F

$GPZDA,100610.000,22,11,2007,,*55

$GPGLL,5231.109640,N,1324.018480,E,100630.000,A,A*63

$GPRMC,100630.000,A,5231.109640,N,01324.018480,E,0.398,0.00,221107,,,A*51

$GPVTG,0.00,T,,M,0.398,N,0.738,K,A*33

$GPZDA,100630.000,22,11,2007,,*57

$GPGLL,5231.109580,N,1324.018120,E,100650.000,A,A*65

$GPRMC,100650.000,A,5231.109580,N,01324.018120,E,0.004,0.00,221107,,,A*51

$GPVTG,0.00,T,,M,0.004,N,0.007,K,A*3E

$GPZDA,100650.000,22,11,2007,,*51

$GPGLL,5231.109580,N,1324.018060,E,100710.000,A,A*65

$GPRMC,100710.000,A,5231.109580,N,01324.018060,E,0.002,0.00,221107,,,A*57

$GPVTG,0.00,T,,M,0.002,N,0.004,K,A*3B

$GPZDA,100710.000,22,11,2007,,*54

$GPGLL,5231.112100,N,1324.006120,E,100730.000,A,A*6B

$GPRMC,100730.000,A,5231.112100,N,01324.006120,E,2.490,0.00,221107,,,A*54

$GPVTG,0.00,T,,M,2.490,N,4.612,K,A*33

$GPZDA,100730.000,22,11,2007,,*56

$GPGLL,5231.115760,N,1324.002280,E,100750.000,A,A*67

$GPRMC,100750.000,A,5231.115760,N,01324.002280,E,0.207,0.00,221107,,,A*52

$GPVTG,0.00,T,,M,0.207,N,0.384,K,A*37

$GPZDA,100750.000,22,11,2007,,*50

$GPGLL,5231.111800,N,1323.998020,E,100810.000,A,A*64

$GPRMC,100810.000,A,5231.111800,N,01323.998020,E,2.620,0.00,221107,,,A*52

$GPVTG,0.00,T,,M,2.620,N,4.853,K,A*31

$GPZDA,100810.000,22,11,2007,,*5B

$GPGLL,5231.112760,N,1323.996340,E,100830.000,A,A*67

$GPRMC,100830.000,A,5231.112760,N,01323.996340,E,0.148,0.00,221107,,,A*5A

$GPVTG,0.00,T,,M,0.148,N,0.275,K,A*30

$GPZDA,100830.000,22,11,2007,,*59

$GPGLL,5231.113180,N,1323.996520,E,100850.000,A,A*68

$GPRMC,100850.000,A,5231.113180,N,01323.996520,E,0.079,0.00,221107,,,A*56

$GPVTG,0.00,T,,M,0.079,N,0.146,K,A*30

$GPZDA,100850.000,22,11,2007,,*5F

$GPGLL,5231.113240,N,1323.985780,E,100910.000,A,A*68

$GPRMC,100910.000,A,5231.113240,N,01323.985780,E,0.075,0.00,221107,,,A*5A

$GPVTG,0.00,T,,M,0.075,N,0.139,K,A*34

$GPZDA,100910.000,22,11,2007,,*5A

$GPGLL,5231.111260,N,1323.981100,E,100930.000,A,A*60

$GPRMC,100930.000,A,5231.111260,N,01323.981100,E,1.977,0.00,221107,,,A*58

$GPVTG,0.00,T,,M,1.977,N,3.662,K,A*34

$GPZDA,100930.000,22,11,2007,,*58

$GPGLL,5231.108680,N,1323.971260,E,100950.000,A,A*6E

$GPRMC,100950.000,A,5231.108680,N,01323.971260,E,0.578,0.00,221107,,,A*54

$GPVTG,0.00,T,,M,0.578,N,1.070,K,A*31

$GPZDA,100950.000,22,11,2007,,*5E

$GPGLL,5231.110600,N,1323.966400,E,101010.000,A,A*65

$GPRMC,101010.000,A,5231.110600,N,01323.966400,E,0.704,0.00,221107,,,A*56

$GPVTG,0.00,T,,M,0.704,N,1.304,K,A*38

$GPZDA,101010.000,22,11,2007,,*52

$GPGLL,5231.108560,N,1323.965140,E,101030.000,A,A*69

$GPRMC,101030.000,A,5231.108560,N,01323.965140,E,0.007,0.00,221107,,,A*5E

$GPVTG,0.00,T,,M,0.007,N,0.013,K,A*38

$GPZDA,101030.000,22,11,2007,,*50

$GPGLL,5231.108620,N,1323.964960,E,101050.000,A,A*63

$GPRMC,101050.000,A,5231.108620,N,01323.964960,E,0.001,0.00,221107,,,A*52

$GPVTG,0.00,T,,M,0.001,N,0.001,K,A*3D

$GPZDA,101050.000,22,11,2007,,*56

$GPGLL,5231.102740,N,1323.953980,E,101110.000,A,A*61

$GPRMC,101110.000,A,5231.102740,N,01323.953980,E,2.333,0.00,221107,,,A*50

$GPVTG,0.00,T,,M,2.333,N,4.320,K,A*39

$GPZDA,101110.000,22,11,2007,,*53

$GPGLL,5231.088100,N,1323.948520,E,101130.000,A,A*6E

$GPRMC,101130.000,A,5231.088100,N,01323.948520,E,2.755,0.00,221107,,,A*5B

$GPVTG,0.00,T,,M,2.755,N,5.103,K,A*3F

$GPZDA,101130.000,22,11,2007,,*51

$GPGLL,5231.072860,N,1323.944980,E,101150.000,A,A*68

$GPRMC,101150.000,A,5231.072860,N,01323.944980,E,2.529,0.00,221107,,,A*54

$GPVTG,0.00,T,,M,2.529,N,4.684,K,A*3F

$GPZDA,101150.000,22,11,2007,,*57

$GPGLL,5231.067400,N,1323.926560,E,101210.000,A,A*67

$GPRMC,101210.000,A,5231.067400,N,01323.926560,E,3.243,0.00,221107,,,A*51

$GPVTG,0.00,T,,M,3.243,N,6.006,K,A*3B

$GPZDA,101210.000,22,11,2007,,*50

$GPGLL,5231.066920,N,1323.904540,E,101230.000,A,A*69

$GPRMC,101230.000,A,5231.066920,N,01323.904540,E,2.791,0.00,221107,,,A*54

$GPVTG,0.00,T,,M,2.791,N,5.168,K,A*3A

$GPZDA,101230.000,22,11,2007,,*52

$GPGLL,5231.069680,N,1323.887380,E,101250.000,A,A*65

$GPRMC,101250.000,A,5231.069680,N,01323.887380,E,1.642,0.00,221107,,,A*54

$GPVTG,0.00,T,,M,1.642,N,3.041,K,A*3A

$GPZDA,101250.000,22,11,2007,,*54

$GPGLL,5231.081980,N,1323.881800,E,101310.000,A,A*6C

$GPRMC,101310.000,A,5231.081980,N,01323.881800,E,0.429,0.00,221107,,,A*53

$GPVTG,0.00,T,,M,0.429,N,0.794,K,A*38

$GPZDA,101310.000,22,11,2007,,*51

$GPGLL,5231.088160,N,1323.874240,E,101330.000,A,A*65

$GPRMC,101330.000,A,5231.088160,N,01323.874240,E,0.145,0.00,221107,,,A*55

$GPVTG,0.00,T,,M,0.145,N,0.268,K,A*31

$GPZDA,101330.000,22,11,2007,,*53

$GPGLL,5231.100820,N,1323.865420,E,101350.000,A,A*6F

$GPRMC,101350.000,A,5231.100820,N,01323.865420,E,2.398,0.00,221107,,,A*5F

$GPVTG,0.00,T,,M,2.398,N,4.441,K,A*38

$GPZDA,101350.000,22,11,2007,,*55

$GPGLL,5231.116240,N,1323.856780,E,101410.000,A,A*6E

$GPRMC,101410.000,A,5231.116240,N,01323.856780,E,1.909,0.00,221107,,,A*5F

$GPVTG,0.00,T,,M,1.909,N,3.535,K,A*3C

$GPZDA,101410.000,22,11,2007,,*56

$GPGLL,5231.133100,N,1323.850360,E,101430.000,A,A*60

$GPRMC,101430.000,A,5231.133100,N,01323.850360,E,2.349,0.00,221107,,,A*5C

$GPVTG,0.00,T,,M,2.349,N,4.350,K,A*33

$GPZDA,101430.000,22,11,2007,,*54

$GPGLL,5231.156740,N,1323.838840,E,101450.000,A,A*60

$GPRMC,101450.000,A,5231.156740,N,01323.838840,E,1.663,0.00,221107,,,A*52

$GPVTG,0.00,T,,M,1.663,N,3.079,K,A*32

$GPZDA,101450.000,22,11,2007,,*52

$GPGLL,5231.155360,N,1323.828820,E,101510.000,A,A*67

$GPRMC,101510.000,A,5231.155360,N,01323.828820,E,0.232,0.00,221107,,,A*54

$GPVTG,0.00,T,,M,0.232,N,0.429,K,A*31

$GPZDA,101510.000,22,11,2007,,*57

$GPGLL,5231.175340,N,1323.812020,E,101530.000,A,A*64

$GPRMC,101530.000,A,5231.175340,N,01323.812020,E,2.916,0.00,221107,,,A*58

$GPVTG,0.00,T,,M,2.916,N,5.401,K,A*31

$GPZDA,101530.000,22,11,2007,,*55

$GPGLL,5231.183320,N,1323.791920,E,101550.000,A,A*60

$GPRMC,101550.000,A,5231.183320,N,01323.791920,E,2.712,0.00,221107,,,A*56

$GPVTG,0.00,T,,M,2.712,N,5.022,K,A*3E

$GPZDA,101550.000,22,11,2007,,*53

$GPGLL,5231.190940,N,1323.771760,E,101610.000,A,A*6D

$GPRMC,101610.000,A,5231.190940,N,01323.771760,E,3.441,0.00,221107,,,A*5F

$GPVTG,0.00,T,,M,3.441,N,6.372,K,A*3F

$GPZDA,101610.000,22,11,2007,,*54

$GPGLL,5231.205640,N,1323.753760,E,101630.000,A,A*6F

$GPRMC,101630.000,A,5231.205640,N,01323.753760,E,2.393,0.00,221107,,,A*54

$GPVTG,0.00,T,,M,2.393,N,4.431,K,A*34

$GPZDA,101630.000,22,11,2007,,*56

$GPGLL,5231.217700,N,1323.739360,E,101650.000,A,A*67

$GPRMC,101650.000,A,5231.217700,N,01323.739360,E,2.669,0.00,221107,,,A*5C

$GPVTG,0.00,T,,M,2.669,N,4.943,K,A*3C

$GPZDA,101650.000,22,11,2007,,*50

$GPGLL,5231.226340,N,1323.730780,E,101710.000,A,A*63

$GPRMC,101710.000,A,5231.226340,N,01323.730780,E,0.098,0.00,221107,,,A*52

$GPVTG,0.00,T,,M,0.098,N,0.181,K,A*34

$GPZDA,101710.000,22,11,2007,,*55

$GPGLL,5231.226880,N,1323.731140,E,101730.000,A,A*6D

$GPRMC,101730.000,A,5231.226880,N,01323.731140,E,0.117,0.00,221107,,,A*5A

$GPVTG,0.00,T,,M,0.117,N,0.216,K,A*3F

$GPZDA,101730.000,22,11,2007,,*57

$GPGLL,5231.231200,N,1323.736900,E,101750.000,A,A*64

$GPRMC,101750.000,A,5231.231200,N,01323.736900,E,0.064,0.00,221107,,,A*56

$GPVTG,0.00,T,,M,0.064,N,0.119,K,A*36

$GPZDA,101750.000,22,11,2007,,*51

$GPGLL,5231.233780,N,1323.732760,E,101810.000,A,A*6C

$GPRMC,101810.000,A,5231.233780,N,01323.732760,E,0.707,0.00,221107,,,A*5C

$GPVTG,0.00,T,,M,0.707,N,1.309,K,A*36

$GPZDA,101810.000,22,11,2007,,*5A

$GPGLL,5231.230660,N,1323.729040,E,101830.000,A,A*6D

$GPRMC,101830.000,A,5231.230660,N,01323.729040,E,0.800,0.00,221107,,,A*55

$GPVTG,0.00,T,,M,0.800,N,1.481,K,A*39

$GPZDA,101830.000,22,11,2007,,*58

$GPGLL,5231.238520,N,1323.713500,E,101850.000,A,A*6C

$GPRMC,101850.000,A,5231.238520,N,01323.713500,E,1.414,0.00,221107,,,A*5C

$GPVTG,0.00,T,,M,1.414,N,2.619,K,A*31

$GPZDA,101850.000,22,11,2007,,*5E

$GPGLL,5231.250520,N,1323.698380,E,101910.000,A,A*6B

$GPRMC,101910.000,A,5231.250520,N,01323.698380,E,2.518,0.00,221107,,,A*55

$GPVTG,0.00,T,,M,2.518,N,4.664,K,A*33

$GPZDA,101910.000,22,11,2007,,*5B

$GPGLL,5231.258800,N,1323.675940,E,101930.000,A,A*6B

$GPRMC,101930.000,A,5231.258800,N,01323.675940,E,1.842,0.00,221107,,,A*54

$GPVTG,0.00,T,,M,1.842,N,3.411,K,A*35

$GPZDA,101930.000,22,11,2007,,*59

$GPGLL,5231.276380,N,1323.660880,E,101950.000,A,A*6B

$GPRMC,101950.000,A,5231.276380,N,01323.660880,E,3.341,0.00,221107,,,A*5E

$GPVTG,0.00,T,,M,3.341,N,6.187,K,A*30

$GPZDA,101950.000,22,11,2007,,*5F

$GPGLL,5231.289520,N,1323.640180,E,102010.000,A,A*62

$GPRMC,102010.000,A,5231.289520,N,01323.640180,E,2.523,0.00,221107,,,A*54

$GPVTG,0.00,T,,M,2.523,N,4.672,K,A*3C

$GPZDA,102010.000,22,11,2007,,*51

$GPGLL,5231.303560,N,1323.621040,E,102030.000,A,A*6D

$GPRMC,102030.000,A,5231.303560,N,01323.621040,E,2.727,0.00,221107,,,A*5D

$GPVTG,0.00,T,,M,2.727,N,5.050,K,A*3D

$GPZDA,102030.000,22,11,2007,,*53

$GPGLL,5231.314120,N,1323.602380,E,102050.000,A,A*63

$GPRMC,102050.000,A,5231.314120,N,01323.602380,E,2.828,0.00,221107,,,A*53

$GPVTG,0.00,T,,M,2.828,N,5.237,K,A*3E

$GPZDA,102050.000,22,11,2007,,*55

$GPGLL,5231.321860,N,1323.578020,E,102110.000,A,A*6A

$GPRMC,102110.000,A,5231.321860,N,01323.578020,E,2.460,0.00,221107,,,A*5A

$GPVTG,0.00,T,,M,2.460,N,4.555,K,A*3C

$GPZDA,102110.000,22,11,2007,,*50

$GPGLL,5231.325820,N,1323.566920,E,102130.000,A,A*6E

$GPRMC,102130.000,A,5231.325820,N,01323.566920,E,0.542,0.00,221107,,,A*5D

$GPVTG,0.00,T,,M,0.542,N,1.004,K,A*3B

$GPZDA,102130.000,22,11,2007,,*52

$GPGLL,5231.328400,N,1323.566140,E,102150.000,A,A*65

$GPRMC,102150.000,A,5231.328400,N,01323.566140,E,2.160,0.00,221107,,,A*50

$GPVTG,0.00,T,,M,2.160,N,4.001,K,A*3D

$GPZDA,102150.000,22,11,2007,,*54

$GPGLL,5231.331100,N,1323.541540,E,102210.000,A,A*6E

$GPRMC,102210.000,A,5231.331100,N,01323.541540,E,2.721,0.00,221107,,,A*58

$GPVTG,0.00,T,,M,2.721,N,5.039,K,A*34

$GPZDA,102210.000,22,11,2007,,*53

$GPGLL,5231.332720,N,1323.510820,E,102230.000,A,A*64

$GPRMC,102230.000,A,5231.332720,N,01323.510820,E,0.218,0.00,221107,,,A*5F

$GPVTG,0.00,T,,M,0.218,N,0.403,K,A*31

$GPZDA,102230.000,22,11,2007,,*51

$GPGLL,5231.324620,N,1323.505540,E,102250.000,A,A*6B

$GPRMC,102250.000,A,5231.324620,N,01323.505540,E,1.802,0.00,221107,,,A*50

$GPVTG,0.00,T,,M,1.802,N,3.338,K,A*3D

$GPZDA,102250.000,22,11,2007,,*57

$GPGLL,5231.309200,N,1323.504100,E,102310.000,A,A*66

$GPRMC,102310.000,A,5231.309200,N,01323.504100,E,2.247,0.00,221107,,,A*55

$GPVTG,0.00,T,,M,2.247,N,4.162,K,A*3F

$GPZDA,102310.000,22,11,2007,,*52

$GPGLL,5231.286280,N,1323.497260,E,102330.000,A,A*64

$GPRMC,102330.000,A,5231.286280,N,01323.497260,E,2.522,0.00,221107,,,A*53

$GPVTG,0.00,T,,M,2.522,N,4.671,K,A*3E

$GPZDA,102330.000,22,11,2007,,*50

$GPGLL,5231.261440,N,1323.519220,E,102350.000,A,A*62

$GPRMC,102350.000,A,5231.261440,N,01323.519220,E,2.933,0.00,221107,,,A*59

$GPVTG,0.00,T,,M,2.933,N,5.432,K,A*36

$GPZDA,102350.000,22,11,2007,,*56

$GPGLL,5231.244940,N,1323.521860,E,102410.000,A,A*6E

$GPRMC,102410.000,A,5231.244940,N,01323.521860,E,2.035,0.00,221107,,,A*5A

$GPVTG,0.00,T,,M,2.035,N,3.769,K,A*32

$GPZDA,102410.000,22,11,2007,,*55

$GPGLL,5231.227960,N,1323.523540,E,102430.000,A,A*66

$GPRMC,102430.000,A,5231.227960,N,01323.523540,E,2.718,0.00,221107,,,A*5A

$GPVTG,0.00,T,,M,2.718,N,5.034,K,A*33

$GPZDA,102430.000,22,11,2007,,*57

$GPGLL,5231.217340,N,1323.524860,E,102450.000,A,A*63

$GPRMC,102450.000,A,5231.217340,N,01323.524860,E,0.685,0.00,221107,,,A*58

$GPVTG,0.00,T,,M,0.685,N,1.269,K,A*3A

$GPZDA,102450.000,22,11,2007,,*51

$GPGLL,5231.205400,N,1323.524380,E,102510.000,A,A*63

$GPRMC,102510.000,A,5231.205400,N,01323.524380,E,1.965,0.00,221107,,,A*58

$GPVTG,0.00,T,,M,1.965,N,3.639,K,A*39

$GPZDA,102510.000,22,11,2007,,*54

$GPGLL,5231.187040,N,1323.513340,E,102530.000,A,A*60

$GPRMC,102530.000,A,5231.187040,N,01323.513340,E,2.298,0.00,221107,,,A*51

$GPVTG,0.00,T,,M,2.298,N,4.255,K,A*3A

$GPZDA,102530.000,22,11,2007,,*56

$GPGLL,5231.158300,N,1323.520840,E,102550.000,A,A*68

$GPRMC,102550.000,A,5231.158300,N,01323.520840,E,1.513,0.00,221107,,,A*5E

$GPVTG,0.00,T,,M,1.513,N,2.802,K,A*33

$GPZDA,102550.000,22,11,2007,,*50

$GPGLL,5231.146900,N,1323.544660,E,102610.000,A,A*64

$GPRMC,102610.000,A,5231.146900,N,01323.544660,E,2.076,0.00,221107,,,A*57

$GPVTG,0.00,T,,M,2.076,N,3.844,K,A*35

$GPZDA,102610.000,22,11,2007,,*57

$GPGLL,5231.122480,N,1323.552100,E,102630.000,A,A*67

$GPRMC,102630.000,A,5231.122480,N,01323.552100,E,3.394,0.00,221107,,,A*5A

$GPVTG,0.00,T,,M,3.394,N,6.286,K,A*3A

$GPZDA,102630.000,22,11,2007,,*55

$GPGLL,5231.102800,N,1323.553300,E,102650.000,A,A*64

$GPRMC,102650.000,A,5231.102800,N,01323.553300,E,2.857,0.00,221107,,,A*5C

$GPVTG,0.00,T,,M,2.857,N,5.292,K,A*39

$GPZDA,102650.000,22,11,2007,,*53

$GPGLL,5231.083660,N,1323.554200,E,102710.000,A,A*67

$GPRMC,102710.000,A,5231.083660,N,01323.554200,E,1.716,0.00,221107,,,A*56

$GPVTG,0.00,T,,M,1.716,N,3.178,K,A*31

$GPZDA,102710.000,22,11,2007,,*56

$GPGLL,5231.067520,N,1323.553240,E,102730.000,A,A*6B

$GPRMC,102730.000,A,5231.067520,N,01323.553240,E,2.704,0.00,221107,,,A*5A

$GPVTG,0.00,T,,M,2.704,N,5.007,K,A*3E

$GPZDA,102730.000,22,11,2007,,*54

$GPGLL,5231.044960,N,1323.567520,E,102750.000,A,A*62

$GPRMC,102750.000,A,5231.044960,N,01323.567520,E,2.745,0.00,221107,,,A*56

$GPVTG,0.00,T,,M,2.745,N,5.084,K,A*30

$GPZDA,102750.000,22,11,2007,,*52

$GPGLL,5231.052460,N,1323.594160,E,102810.000,A,A*6F

$GPRMC,102810.000,A,5231.052460,N,01323.594160,E,3.249,0.00,221107,,,A*53

$GPVTG,0.00,T,,M,3.249,N,6.017,K,A*31

$GPZDA,102810.000,22,11,2007,,*59

$GPGLL,5231.055340,N,1323.621520,E,102830.000,A,A*62

$GPRMC,102830.000,A,5231.055340,N,01323.621520,E,2.872,0.00,221107,,,A*5D

$GPVTG,0.00,T,,M,2.872,N,5.319,K,A*3C

$GPZDA,102830.000,22,11,2007,,*5B

$GPGLL,5231.053360,N,1323.627760,E,102850.000,A,A*60

$GPRMC,102850.000,A,5231.053360,N,01323.627760,E,0.397,0.00,221107,,,A*5D

$GPVTG,0.00,T,,M,0.397,N,0.735,K,A*31

$GPZDA,102850.000,22,11,2007,,*5D

$GPGLL,5231.051140,N,1323.629380,E,102910.000,A,A*63

$GPRMC,102910.000,A,5231.051140,N,01323.629380,E,0.160,0.00,221107,,,A*54

$GPVTG,0.00,T,,M,0.160,N,0.296,K,A*37

$GPZDA,102910.000,22,11,2007,,*58

$GPGLL,5231.052220,N,1323.637960,E,102930.000,A,A*6C

$GPRMC,102930.000,A,5231.052220,N,01323.637960,E,0.376,0.00,221107,,,A*5E

$GPVTG,0.00,T,,M,0.376,N,0.696,K,A*36

$GPZDA,102930.000,22,11,2007,,*5A

$GPGLL,5231.053060,N,1323.645100,E,102950.000,A,A*66

$GPRMC,102950.000,A,5231.053060,N,01323.645100,E,0.181,0.00,221107,,,A*5E

$GPVTG,0.00,T,,M,0.181,N,0.335,K,A*30

$GPZDA,102950.000,22,11,2007,,*5C

$GPGLL,5231.051860,N,1323.651460,E,103010.000,A,A*66

$GPRMC,103010.000,A,5231.051860,N,01323.651460,E,2.483,0.00,221107,,,A*5B

$GPVTG,0.00,T,,M,2.483,N,4.599,K,A*31

$GPZDA,103010.000,22,11,2007,,*50

$GPGLL,5231.052820,N,1323.662320,E,103030.000,A,A*60

$GPRMC,103030.000,A,5231.052820,N,01323.662320,E,0.161,0.00,221107,,,A*56

$GPVTG,0.00,T,,M,0.161,N,0.298,K,A*38

$GPZDA,103030.000,22,11,2007,,*52

$GPGLL,5231.057020,N,1323.683200,E,103050.000,A,A*67

$GPRMC,103050.000,A,5231.057020,N,01323.683200,E,2.587,0.00,221107,,,A*5F

$GPVTG,0.00,T,,M,2.587,N,4.791,K,A*3E

$GPZDA,103050.000,22,11,2007,,*54

$GPGLL,5231.054860,N,1323.709480,E,103110.000,A,A*60

$GPRMC,103110.000,A,5231.054860,N,01323.709480,E,2.225,0.00,221107,,,A*57

$GPVTG,0.00,T,,M,2.225,N,4.121,K,A*3C

$GPZDA,103110.000,22,11,2007,,*51

$GPGLL,5231.055220,N,1323.726700,E,103130.000,A,A*6B

$GPRMC,103130.000,A,5231.055220,N,01323.726700,E,0.794,0.00,221107,,,A*51

$GPVTG,0.00,T,,M,0.794,N,1.471,K,A*34

$GPZDA,103130.000,22,11,2007,,*53

$GPGLL,5231.055460,N,1323.735040,E,103150.000,A,A*6E

$GPRMC,103150.000,A,5231.055460,N,01323.735040,E,0.305,0.00,221107,,,A*58

$GPVTG,0.00,T,,M,0.305,N,0.564,K,A*3C

$GPZDA,103150.000,22,11,2007,,*55

$GPGLL,5231.060200,N,1323.733840,E,103210.000,A,A*61

$GPRMC,103210.000,A,5231.060200,N,01323.733840,E,0.174,0.00,221107,,,A*53

$GPVTG,0.00,T,,M,0.174,N,0.323,K,A*3D

$GPZDA,103210.000,22,11,2007,,*52

$GPGLL,5231.060620,N,1323.733600,E,103230.000,A,A*6F

$GPRMC,103230.000,A,5231.060620,N,01323.733600,E,0.154,0.00,221107,,,A*5F

$GPVTG,0.00,T,,M,0.154,N,0.286,K,A*31

$GPZDA,103230.000,22,11,2007,,*50

$GPGLL,5231.061100,N,1323.733300,E,103250.000,A,A*68

$GPRMC,103250.000,A,5231.061100,N,01323.733300,E,0.003,0.00,221107,,,A*5B

$GPVTG,0.00,T,,M,0.003,N,0.005,K,A*3B

$GPZDA,103250.000,22,11,2007,,*56

$GPGLL,5231.061220,N,1323.733180,E,103310.000,A,A*66

$GPRMC,103310.000,A,5231.061220,N,01323.733180,E,0.343,0.00,221107,,,A*52

$GPVTG,0.00,T,,M,0.343,N,0.636,K,A*3A

$GPZDA,103310.000,22,11,2007,,*53

$GPGLL,5231.056720,N,1323.714280,E,103330.000,A,A*63

$GPRMC,103330.000,A,5231.056720,N,01323.714280,E,2.834,0.00,221107,,,A*5E

$GPVTG,0.00,T,,M,2.834,N,5.248,K,A*3B

$GPZDA,103330.000,22,11,2007,,*51

$GPGLL,5231.053960,N,1323.692500,E,103350.000,A,A*6A

$GPRMC,103350.000,A,5231.053960,N,01323.692500,E,1.008,0.00,221107,,,A*53

$GPVTG,0.00,T,,M,1.008,N,1.866,K,A*3D

$GPZDA,103350.000,22,11,2007,,*57

$GPGLL,5231.053240,N,1323.690460,E,103410.000,A,A*65

$GPRMC,103410.000,A,5231.053240,N,01323.690460,E,0.037,0.00,221107,,,A*51

$GPVTG,0.00,T,,M,0.037,N,0.069,K,A*36

$GPZDA,103410.000,22,11,2007,,*54

$GPGLL,5231.053240,N,1323.690640,E,103430.000,A,A*67

$GPRMC,103430.000,A,5231.053240,N,01323.690640,E,0.004,0.00,221107,,,A*53

$GPVTG,0.00,T,,M,0.004,N,0.007,K,A*3E

$GPZDA,103430.000,22,11,2007,,*56

$GPGLL,5231.048860,N,1323.692980,E,103450.000,A,A*62

$GPRMC,103450.000,A,5231.048860,N,01323.692980,E,3.098,0.00,221107,,,A*50

$GPVTG,0.00,T,,M,3.098,N,5.737,K,A*39

$GPZDA,103450.000,22,11,2007,,*50

$GPGLL,5231.038300,N,1323.689980,E,103510.000,A,A*67

$GPRMC,103510.000,A,5231.038300,N,01323.689980,E,2.723,0.00,221107,,,A*53

$GPVTG,0.00,T,,M,2.723,N,5.043,K,A*3B

$GPZDA,103510.000,22,11,2007,,*55

$GPGLL,5231.037160,N,1323.664360,E,103530.000,A,A*69

$GPRMC,103530.000,A,5231.037160,N,01323.664360,E,2.925,0.00,221107,,,A*55

$GPVTG,0.00,T,,M,2.925,N,5.417,K,A*36

$GPZDA,103530.000,22,11,2007,,*57

$GPGLL,5231.031760,N,1323.636340,E,103550.000,A,A*6A

$GPRMC,103550.000,A,5231.031760,N,01323.636340,E,2.375,0.00,221107,,,A*59

$GPVTG,0.00,T,,M,2.375,N,4.399,K,A*39

$GPZDA,103550.000,22,11,2007,,*51

$GPGLL,5231.034760,N,1323.612460,E,103610.000,A,A*6B

$GPRMC,103610.000,A,5231.034760,N,01323.612460,E,2.737,0.00,221107,,,A*5A

$GPVTG,0.00,T,,M,2.737,N,5.069,K,A*36

$GPZDA,103610.000,22,11,2007,,*56

$GPGLL,5231.030200,N,1323.583480,E,103630.000,A,A*6B

$GPRMC,103630.000,A,5231.030200,N,01323.583480,E,2.884,0.00,221107,,,A*5D

$GPVTG,0.00,T,,M,2.884,N,5.341,K,A*38

$GPZDA,103630.000,22,11,2007,,*54

$GPGLL,5231.025040,N,1323.551260,E,103650.000,A,A*68

$GPRMC,103650.000,A,5231.025040,N,01323.551260,E,2.619,0.00,221107,,,A*54

$GPVTG,0.00,T,,M,2.619,N,4.851,K,A*39

$GPZDA,103650.000,22,11,2007,,*52

$GPGLL,5231.022040,N,1323.520660,E,103710.000,A,A*68

$GPRMC,103710.000,A,5231.022040,N,01323.520660,E,3.140,0.00,221107,,,A*5E

$GPVTG,0.00,T,,M,3.140,N,5.815,K,A*32

$GPZDA,103710.000,22,11,2007,,*57

$GPGLL,5231.021020,N,1323.492100,E,103730.000,A,A*66

$GPRMC,103730.000,A,5231.021020,N,01323.492100,E,2.573,0.00,221107,,,A*55

$GPVTG,0.00,T,,M,2.573,N,4.766,K,A*3D

$GPZDA,103730.000,22,11,2007,,*55

$GPGLL,5231.020000,N,1323.462400,E,103750.000,A,A*69

$GPRMC,103750.000,A,5231.020000,N,01323.462400,E,2.546,0.00,221107,,,A*5C

$GPVTG,0.00,T,,M,2.546,N,4.716,K,A*3C

$GPZDA,103750.000,22,11,2007,,*53

$GPGLL,5231.015680,N,1323.436660,E,103810.000,A,A*6F

$GPRMC,103810.000,A,5231.015680,N,01323.436660,E,0.828,0.00,221107,,,A*5D

$GPVTG,0.00,T,,M,0.828,N,1.533,K,A*3B

$GPZDA,103810.000,22,11,2007,,*58

$GPGLL,5231.013340,N,1323.414940,E,103830.000,A,A*6F

$GPRMC,103830.000,A,5231.013340,N,01323.414940,E,1.881,0.00,221107,,,A*5F

$GPVTG,0.00,T,,M,1.881,N,3.483,K,A*31

$GPZDA,103830.000,22,11,2007,,*5A

$GPGLL,5231.015440,N,1323.398140,E,103850.000,A,A*63

$GPRMC,103850.000,A,5231.015440,N,01323.398140,E,1.682,0.00,221107,,,A*5E

$GPVTG,0.00,T,,M,1.682,N,3.115,K,A*36

$GPZDA,103850.000,22,11,2007,,*5C

$GPGLL,5231.027800,N,1323.351640,E,103910.000,A,A*6D

$GPRMC,103910.000,A,5231.027800,N,01323.351640,E,1.698,0.00,221107,,,A*5B

$GPVTG,0.00,T,,M,1.698,N,3.145,K,A*38

$GPZDA,103910.000,22,11,2007,,*59

$GPGLL,5231.020060,N,1323.341800,E,103930.000,A,A*6D

$GPRMC,103930.000,A,5231.020060,N,01323.341800,E,1.956,0.00,221107,,,A*56

$GPVTG,0.00,T,,M,1.956,N,3.622,K,A*33

$GPZDA,103930.000,22,11,2007,,*5B

$GPGLL,5231.015260,N,1323.331420,E,103950.000,A,A*66

$GPRMC,103950.000,A,5231.015260,N,01323.331420,E,0.748,0.00,221107,,,A*5D

$GPVTG,0.00,T,,M,0.748,N,1.385,K,A*39

$GPZDA,103950.000,22,11,2007,,*5D

$GPGLL,5231.033800,N,1323.279460,E,104010.000,A,A*6D

$GPRMC,104010.000,A,5231.033800,N,01323.279460,E,2.753,0.00,221107,,,A*5E

$GPVTG,0.00,T,,M,2.753,N,5.099,K,A*3B

$GPZDA,104010.000,22,11,2007,,*57

$GPGLL,5231.020180,N,1323.240280,E,104030.000,A,A*6E

$GPRMC,104030.000,A,5231.020180,N,01323.240280,E,1.565,0.00,221107,,,A*59

$GPVTG,0.00,T,,M,1.565,N,2.899,K,A*30

$GPZDA,104030.000,22,11,2007,,*55

$GPGLL,5231.022640,N,1323.211420,E,104050.000,A,A*69

$GPRMC,104050.000,A,5231.022640,N,01323.211420,E,0.536,0.00,221107,,,A*59

$GPVTG,0.00,T,,M,0.536,N,0.992,K,A*3F

$GPZDA,104050.000,22,11,2007,,*53

$GPGLL,5231.036380,N,1323.186520,E,104110.000,A,A*6C

$GPRMC,104110.000,A,5231.036380,N,01323.186520,E,2.152,0.00,221107,,,A*58

$GPVTG,0.00,T,,M,2.152,N,3.986,K,A*3D

$GPZDA,104110.000,22,11,2007,,*56

$GPGLL,5231.036140,N,1323.165160,E,104130.000,A,A*6D

$GPRMC,104130.000,A,5231.036140,N,01323.165160,E,0.948,0.00,221107,,,A*58

$GPVTG,0.00,T,,M,0.948,N,1.756,K,A*3D

$GPZDA,104130.000,22,11,2007,,*54

$GPGLL,5231.018200,N,1323.161140,E,104150.000,A,A*66

$GPRMC,104150.000,A,5231.018200,N,01323.161140,E,0.339,0.00,221107,,,A*5F

$GPVTG,0.00,T,,M,0.339,N,0.627,K,A*37

$GPZDA,104150.000,22,11,2007,,*52

$GPGLL,5231.006080,N,1323.152560,E,104210.000,A,A*62

$GPRMC,104210.000,A,5231.006080,N,01323.152560,E,1.041,0.00,221107,,,A*56

$GPVTG,0.00,T,,M,1.041,N,1.927,K,A*34

$GPZDA,104210.000,22,11,2007,,*55

$GPGLL,5230.997080,N,1323.130180,E,104230.000,A,A*6E

$GPRMC,104230.000,A,5230.997080,N,01323.130180,E,2.199,0.00,221107,,,A*5D

$GPVTG,0.00,T,,M,2.199,N,4.072,K,A*3F

$GPZDA,104230.000,22,11,2007,,*57

$GPGLL,5230.992880,N,1323.101680,E,104250.000,A,A*60

$GPRMC,104250.000,A,5230.992880,N,01323.101680,E,1.825,0.00,221107,,,A*5E

$GPVTG,0.00,T,,M,1.825,N,3.380,K,A*3B

$GPZDA,104250.000,22,11,2007,,*51

$GPGLL,5230.996060,N,1323.070120,E,104310.000,A,A*6D

$GPRMC,104310.000,A,5230.996060,N,01323.070120,E,2.921,0.00,221107,,,A*55

$GPVTG,0.00,T,,M,2.921,N,5.409,K,A*3D

$GPZDA,104310.000,22,11,2007,,*54

$GPGLL,5230.994020,N,1323.036400,E,104330.000,A,A*6C

$GPRMC,104330.000,A,5230.994020,N,01323.036400,E,1.621,0.00,221107,,,A*58

$GPVTG,0.00,T,,M,1.621,N,3.002,K,A*38

$GPZDA,104330.000,22,11,2007,,*56

$GPGLL,5230.989400,N,1323.002440,E,104350.000,A,A*63

$GPRMC,104350.000,A,5230.989400,N,01323.002440,E,0.774,0.00,221107,,,A*57

$GPVTG,0.00,T,,M,0.774,N,1.433,K,A*3C

$GPZDA,104350.000,22,11,2007,,*50

$GPGLL,5230.992700,N,1322.978740,E,104410.000,A,A*6F

$GPRMC,104410.000,A,5230.992700,N,01322.978740,E,2.657,0.00,221107,,,A*59

$GPVTG,0.00,T,,M,2.657,N,4.921,K,A*35

$GPZDA,104410.000,22,11,2007,,*53

$GPGLL,5230.986400,N,1322.946400,E,104430.000,A,A*61

$GPRMC,104430.000,A,5230.986400,N,01322.946400,E,2.835,0.00,221107,,,A*5D

$GPVTG,0.00,T,,M,2.835,N,5.250,K,A*33

$GPZDA,104430.000,22,11,2007,,*51

$GPGLL,5230.992220,N,1322.925280,E,104450.000,A,A*6D

$GPRMC,104450.000,A,5230.992220,N,01322.925280,E,1.348,0.00,221107,,,A*53

$GPVTG,0.00,T,,M,1.348,N,2.496,K,A*3A

$GPZDA,104450.000,22,11,2007,,*57

$GPGLL,5230.991200,N,1322.898280,E,104510.000,A,A*6E

$GPRMC,104510.000,A,5230.991200,N,01322.898280,E,2.084,0.00,221107,,,A*50

$GPVTG,0.00,T,,M,2.084,N,3.860,K,A*3E

$GPZDA,104510.000,22,11,2007,,*52

$GPGLL,5230.992880,N,1322.873980,E,104530.000,A,A*63

$GPRMC,104530.000,A,5230.992880,N,01322.873980,E,2.486,0.00,221107,,,A*5B

$GPVTG,0.00,T,,M,2.486,N,4.604,K,A*33

$GPZDA,104530.000,22,11,2007,,*50

$GPGLL,5230.981120,N,1322.836240,E,104550.000,A,A*62

$GPRMC,104550.000,A,5230.981120,N,01322.836240,E,2.212,0.00,221107,,,A*51

$GPVTG,0.00,T,,M,2.212,N,4.097,K,A*34

$GPZDA,104550.000,22,11,2007,,*56

$GPGLL,5230.978300,N,1322.816740,E,104610.000,A,A*64

$GPRMC,104610.000,A,5230.978300,N,01322.816740,E,1.713,0.00,221107,,,A*50

$GPVTG,0.00,T,,M,1.713,N,3.172,K,A*3E

$GPZDA,104610.000,22,11,2007,,*51

$GPGLL,5230.980700,N,1322.799760,E,104630.000,A,A*6F

$GPRMC,104630.000,A,5230.980700,N,01322.799760,E,0.548,0.00,221107,,,A*56

$GPVTG,0.00,T,,M,0.548,N,1.014,K,A*30

$GPZDA,104630.000,22,11,2007,,*53

$GPGLL,5230.988740,N,1322.772700,E,104650.000,A,A*66

$GPRMC,104650.000,A,5230.988740,N,01322.772700,E,1.922,0.00,221107,,,A*5E

$GPVTG,0.00,T,,M,1.922,N,3.560,K,A*35

$GPZDA,104650.000,22,11,2007,,*55

$GPGLL,5230.990660,N,1322.765020,E,104710.000,A,A*6A

$GPRMC,104710.000,A,5230.990660,N,01322.765020,E,1.846,0.00,221107,,,A*51

$GPVTG,0.00,T,,M,1.846,N,3.419,K,A*39

$GPZDA,104710.000,22,11,2007,,*50

$GPGLL,5230.987120,N,1322.748100,E,104730.000,A,A*61

$GPRMC,104730.000,A,5230.987120,N,01322.748100,E,0.219,0.00,221107,,,A*5B

$GPVTG,0.00,T,,M,0.219,N,0.405,K,A*36

$GPZDA,104730.000,22,11,2007,,*52

$GPGLL,5230.987600,N,1322.725060,E,104750.000,A,A*6E

$GPRMC,104750.000,A,5230.987600,N,01322.725060,E,1.587,0.00,221107,,,A*55

$GPVTG,0.00,T,,M,1.587,N,2.939,K,A*37

$GPZDA,104750.000,22,11,2007,,*54

$GPGLL,5230.990540,N,1322.708740,E,104810.000,A,A*6E

$GPRMC,104810.000,A,5230.990540,N,01322.708740,E,0.197,0.00,221107,,,A*51

$GPVTG,0.00,T,,M,0.197,N,0.365,K,A*32

$GPZDA,104810.000,22,11,2007,,*5F

$GPGLL,5230.993540,N,1322.684680,E,104830.000,A,A*67

$GPRMC,104830.000,A,5230.993540,N,01322.684680,E,3.045,0.00,221107,,,A*55

$GPVTG,0.00,T,,M,3.045,N,5.639,K,A*36

$GPZDA,104830.000,22,11,2007,,*5D

$GPGLL,5230.995760,N,1322.663200,E,104850.000,A,A*62

$GPRMC,104850.000,A,5230.995760,N,01322.663200,E,1.052,0.00,221107,,,A*54

$GPVTG,0.00,T,,M,1.052,N,1.949,K,A*3E

$GPZDA,104850.000,22,11,2007,,*5B

$GPGLL,5230.990660,N,1322.637460,E,104910.000,A,A*62

$GPRMC,104910.000,A,5230.990660,N,01322.637460,E,2.450,0.00,221107,,,A*51

$GPVTG,0.00,T,,M,2.450,N,4.537,K,A*3B

$GPZDA,104910.000,22,11,2007,,*5E

$GPGLL,5230.987120,N,1322.610760,E,104930.000,A,A*63

$GPRMC,104930.000,A,5230.987120,N,01322.610760,E,0.133,0.00,221107,,,A*52

$GPVTG,0.00,T,,M,0.133,N,0.246,K,A*3C

$GPZDA,104930.000,22,11,2007,,*5C

$GPGLL,5230.987300,N,1322.610460,E,104950.000,A,A*66

$GPRMC,104950.000,A,5230.987300,N,01322.610460,E,0.379,0.00,221107,,,A*5B

$GPVTG,0.00,T,,M,0.379,N,0.702,K,A*35

$GPZDA,104950.000,22,11,2007,,*5A

$GPGLL,5230.987060,N,1322.610400,E,105010.000,A,A*69

$GPRMC,105010.000,A,5230.987060,N,01322.610400,E,0.245,0.00,221107,,,A*5A

$GPVTG,0.00,T,,M,0.245,N,0.454,K,A*3B

$GPZDA,105010.000,22,11,2007,,*56

$GPGLL,5230.991440,N,1322.596540,E,105030.000,A,A*62

$GPRMC,105030.000,A,5230.991440,N,01322.596540,E,0.833,0.00,221107,,,A*5A

$GPVTG,0.00,T,,M,0.833,N,1.543,K,A*36

$GPZDA,105030.000,22,11,2007,,*54

$GPGLL,5231.003200,N,1322.576200,E,105050.000,A,A*68

$GPRMC,105050.000,A,5231.003200,N,01322.576200,E,1.397,0.00,221107,,,A*54

$GPVTG,0.00,T,,M,1.397,N,2.588,K,A*36

$GPZDA,105050.000,22,11,2007,,*52

$GPGLL,5231.015200,N,1322.552140,E,105110.000,A,A*6B

$GPRMC,105110.000,A,5231.015200,N,01322.552140,E,2.198,0.00,221107,,,A*59

$GPVTG,0.00,T,,M,2.198,N,4.071,K,A*3D

$GPZDA,105110.000,22,11,2007,,*57

$GPGLL,5231.029780,N,1322.526100,E,105130.000,A,A*6C

$GPRMC,105130.000,A,5231.029780,N,01322.526100,E,1.804,0.00,221107,,,A*51

$GPVTG,0.00,T,,M,1.804,N,3.341,K,A*35

$GPZDA,105130.000,22,11,2007,,*55

$GPGLL,5231.035300,N,1322.501980,E,105150.000,A,A*6E

$GPRMC,105150.000,A,5231.035300,N,01322.501980,E,0.724,0.00,221107,,,A*5F

$GPVTG,0.00,T,,M,0.724,N,1.340,K,A*3A

$GPZDA,105150.000,22,11,2007,,*53

$GPGLL,5231.049460,N,1322.475760,E,105210.000,A,A*61

$GPRMC,105210.000,A,5231.049460,N,01322.475760,E,1.782,0.00,221107,,,A*5D

$GPVTG,0.00,T,,M,1.782,N,3.301,K,A*30

$GPZDA,105210.000,22,11,2007,,*54

$GPGLL,5231.061040,N,1322.453800,E,105230.000,A,A*62

$GPRMC,105230.000,A,5231.061040,N,01322.453800,E,1.299,0.00,221107,,,A*51

$GPVTG,0.00,T,,M,1.299,N,2.405,K,A*3D

$GPZDA,105230.000,22,11,2007,,*56

$GPGLL,5231.076880,N,1322.452180,E,105250.000,A,A*66

$GPRMC,105250.000,A,5231.076880,N,01322.452180,E,3.071,0.00,221107,,,A*53

$GPVTG,0.00,T,,M,3.071,N,5.688,K,A*3B

$GPZDA,105250.000,22,11,2007,,*50

$GPGLL,5231.086660,N,1322.452420,E,105310.000,A,A*63

$GPRMC,105310.000,A,5231.086660,N,01322.452420,E,0.092,0.00,221107,,,A*58

$GPVTG,0.00,T,,M,0.092,N,0.171,K,A*31

$GPZDA,105310.000,22,11,2007,,*55

$GPGLL,5231.095300,N,1322.449720,E,105330.000,A,A*69

$GPRMC,105330.000,A,5231.095300,N,01322.449720,E,2.124,0.00,221107,,,A*5C

$GPVTG,0.00,T,,M,2.124,N,3.933,K,A*32

$GPZDA,105330.000,22,11,2007,,*57

$GPGLL,5231.101060,N,1322.434900,E,105350.000,A,A*60

$GPRMC,105350.000,A,5231.101060,N,01322.434900,E,1.554,0.00,221107,,,A*55

$GPVTG,0.00,T,,M,1.554,N,2.878,K,A*3D

$GPZDA,105350.000,22,11,2007,,*51

$GPGLL,5231.111440,N,1322.415880,E,105410.000,A,A*6E

$GPRMC,105410.000,A,5231.111440,N,01322.415880,E,2.411,0.00,221107,,,A*58

$GPVTG,0.00,T,,M,2.411,N,4.465,K,A*38

$GPZDA,105410.000,22,11,2007,,*52

$GPGLL,5231.118520,N,1322.409160,E,105430.000,A,A*68

$GPRMC,105430.000,A,5231.118520,N,01322.409160,E,0.107,0.00,221107,,,A*5E

$GPVTG,0.00,T,,M,0.107,N,0.199,K,A*3A

$GPZDA,105430.000,22,11,2007,,*50

$GPGLL,5231.117200,N,1322.408920,E,105450.000,A,A*69

$GPRMC,105450.000,A,5231.117200,N,01322.408920,E,1.161,0.00,221107,,,A*5E

$GPVTG,0.00,T,,M,1.161,N,2.150,K,A*3C

$GPZDA,105450.000,22,11,2007,,*56

$GPGLL,5231.131780,N,1322.405860,E,105510.000,A,A*6D

$GPRMC,105510.000,A,5231.131780,N,01322.405860,E,3.372,0.00,221107,,,A*58

$GPVTG,0.00,T,,M,3.372,N,6.244,K,A*3C

$GPZDA,105510.000,22,11,2007,,*53

$GPGLL,5231.151820,N,1322.405140,E,105530.000,A,A*67

$GPRMC,105530.000,A,5231.151820,N,01322.405140,E,3.132,0.00,221107,,,A*54

$GPVTG,0.00,T,,M,3.132,N,5.801,K,A*32

$GPZDA,105530.000,22,11,2007,,*51

$GPGLL,5231.166040,N,1322.401000,E,105550.000,A,A*6A

$GPRMC,105550.000,A,5231.166040,N,01322.401000,E,1.357,0.00,221107,,,A*5A

$GPVTG,0.00,T,,M,1.357,N,2.513,K,A*38

$GPZDA,105550.000,22,11,2007,,*57

$GPGLL,5231.177980,N,1322.399560,E,105610.000,A,A*6D

$GPRMC,105610.000,A,5231.177980,N,01322.399560,E,0.055,0.00,221107,,,A*5D

$GPVTG,0.00,T,,M,0.055,N,0.102,K,A*3E

$GPZDA,105610.000,22,11,2007,,*50

$GPGLL,5231.178340,N,1322.399500,E,105630.000,A,A*60

$GPRMC,105630.000,A,5231.178340,N,01322.399500,E,0.253,0.00,221107,,,A*54

$GPVTG,0.00,T,,M,0.253,N,0.469,K,A*32

$GPZDA,105630.000,22,11,2007,,*52

$GPGLL,5231.183140,N,1322.389600,E,105650.000,A,A*62

$GPRMC,105650.000,A,5231.183140,N,01322.389600,E,1.319,0.00,221107,,,A*58

$GPVTG,0.00,T,,M,1.319,N,2.443,K,A*36

$GPZDA,105650.000,22,11,2007,,*54

$GPGLL,5231.198320,N,1322.375380,E,105710.000,A,A*67

$GPRMC,105710.000,A,5231.198320,N,01322.375380,E,1.996,0.00,221107,,,A*50

$GPVTG,0.00,T,,M,1.996,N,3.696,K,A*30

$GPZDA,105710.000,22,11,2007,,*51

$GPGLL,5231.207380,N,1322.358700,E,105730.000,A,A*69

$GPRMC,105730.000,A,5231.207380,N,01322.358700,E,2.608,0.00,221107,,,A*55

$GPVTG,0.00,T,,M,2.608,N,4.830,K,A*3E

$GPZDA,105730.000,22,11,2007,,*53

$GPGLL,5231.214160,N,1322.339020,E,105750.000,A,A*63

$GPRMC,105750.000,A,5231.214160,N,01322.339020,E,2.085,0.00,221107,,,A*5C

$GPVTG,0.00,T,,M,2.085,N,3.862,K,A*3D

$GPZDA,105750.000,22,11,2007,,*55

$GPGLL,5231.216020,N,1322.336800,E,105810.000,A,A*6A

$GPRMC,105810.000,A,5231.216020,N,01322.336800,E,0.756,0.00,221107,,,A*5E

$GPVTG,0.00,T,,M,0.756,N,1.401,K,A*3D

$GPZDA,105810.000,22,11,2007,,*5E

$GPGLL,5231.215180,N,1322.336440,E,105830.000,A,A*68

$GPRMC,105830.000,A,5231.215180,N,01322.336440,E,0.321,0.00,221107,,,A*58

$GPVTG,0.00,T,,M,0.321,N,0.595,K,A*34

$GPZDA,105830.000,22,11,2007,,*5C

$GPGLL,5231.211760,N,1322.337100,E,105850.000,A,A*62

$GPRMC,105850.000,A,5231.211760,N,01322.337100,E,2.386,0.00,221107,,,A*5D

$GPVTG,0.00,T,,M,2.386,N,4.419,K,A*3A

$GPZDA,105850.000,22,11,2007,,*5A

$GPGLL,5231.228380,N,1322.330200,E,105910.000,A,A*63

$GPRMC,105910.000,A,5231.228380,N,01322.330200,E,0.355,0.00,221107,,,A*50

$GPVTG,0.00,T,,M,0.355,N,0.657,K,A*3A

$GPZDA,105910.000,22,11,2007,,*5F

$GPGLL,5231.242960,N,1322.333800,E,105930.000,A,A*60

$GPRMC,105930.000,A,5231.242960,N,01322.333800,E,2.387,0.00,221107,,,A*5E

$GPVTG,0.00,T,,M,2.387,N,4.420,K,A*31

$GPZDA,105930.000,22,11,2007,,*5D

$GPGLL,5231.262400,N,1322.329240,E,105950.000,A,A*6A

$GPRMC,105950.000,A,5231.262400,N,01322.329240,E,2.867,0.00,221107,,,A*51

$GPVTG,0.00,T,,M,2.867,N,5.309,K,A*39

$GPZDA,105950.000,22,11,2007,,*5B

$GPGLL,5231.274100,N,1322.326660,E,110010.000,A,A*68

$GPRMC,110010.000,A,5231.274100,N,01322.326660,E,0.376,0.00,221107,,,A*5A

$GPVTG,0.00,T,,M,0.376,N,0.696,K,A*36

$GPZDA,110010.000,22,11,2007,,*52

$GPGLL,5231.292160,N,1322.325520,E,110030.000,A,A*60

$GPRMC,110030.000,A,5231.292160,N,01322.325520,E,3.164,0.00,221107,,,A*50

$GPVTG,0.00,T,,M,3.164,N,5.859,K,A*3C

$GPZDA,110030.000,22,11,2007,,*50

$GPGLL,5231.312800,N,1322.321500,E,110050.000,A,A*66

$GPRMC,110050.000,A,5231.312800,N,01322.321500,E,3.658,0.00,221107,,,A*5E

$GPVTG,0.00,T,,M,3.658,N,6.775,K,A*36

$GPZDA,110050.000,22,11,2007,,*56

$GPGLL,5231.329660,N,1322.321440,E,110110.000,A,A*66

$GPRMC,110110.000,A,5231.329660,N,01322.321440,E,2.291,0.00,221107,,,A*5E

$GPVTG,0.00,T,,M,2.291,N,4.242,K,A*35

$GPZDA,110110.000,22,11,2007,,*53

$GPGLL,5231.345800,N,1322.322400,E,110130.000,A,A*61

$GPRMC,110130.000,A,5231.345800,N,01322.322400,E,4.058,0.00,221107,,,A*58

$GPVTG,0.00,T,,M,4.058,N,7.515,K,A*32

$GPZDA,110130.000,22,11,2007,,*51

$GPGLL,5231.360020,N,1322.318440,E,110150.000,A,A*67

$GPRMC,110150.000,A,5231.360020,N,01322.318440,E,0.049,0.00,221107,,,A*5A

$GPVTG,0.00,T,,M,0.049,N,0.090,K,A*39

$GPZDA,110150.000,22,11,2007,,*57

$GPGLL,5231.359240,N,1322.318800,E,110210.000,A,A*66

$GPRMC,110210.000,A,5231.359240,N,01322.318800,E,0.189,0.00,221107,,,A*56

$GPVTG,0.00,T,,M,0.189,N,0.350,K,A*3B

$GPZDA,110210.000,22,11,2007,,*50

$GPGLL,5231.357260,N,1322.320180,E,110230.000,A,A*62

$GPRMC,110230.000,A,5231.357260,N,01322.320180,E,0.117,0.00,221107,,,A*55

$GPVTG,0.00,T,,M,0.117,N,0.216,K,A*3F

$GPZDA,110230.000,22,11,2007,,*52

$GPGLL,5231.357200,N,1322.320240,E,110250.000,A,A*6D

$GPRMC,110250.000,A,5231.357200,N,01322.320240,E,0.002,0.00,221107,,,A*5F

$GPVTG,0.00,T,,M,0.002,N,0.004,K,A*3B

$GPZDA,110250.000,22,11,2007,,*54

$GPGLL,5231.349280,N,1322.320780,E,110310.000,A,A*66

$GPRMC,110310.000,A,5231.349280,N,01322.320780,E,2.632,0.00,221107,,,A*53

$GPVTG,0.00,T,,M,2.632,N,4.875,K,A*36

$GPZDA,110310.000,22,11,2007,,*51

$GPGLL,5231.331640,N,1322.323540,E,110330.000,A,A*6E

$GPRMC,110330.000,A,5231.331640,N,01322.323540,E,3.274,0.00,221107,,,A*5C

$GPVTG,0.00,T,,M,3.274,N,6.063,K,A*3C

$GPZDA,110330.000,22,11,2007,,*53

$GPGLL,5231.314240,N,1322.324980,E,110350.000,A,A*6C

$GPRMC,110350.000,A,5231.314240,N,01322.324980,E,3.043,0.00,221107,,,A*58

$GPVTG,0.00,T,,M,3.043,N,5.636,K,A*3F

$GPZDA,110350.000,22,11,2007,,*55

$GPGLL,5231.295520,N,1322.330860,E,110410.000,A,A*6C

$GPRMC,110410.000,A,5231.295520,N,01322.330860,E,3.318,0.00,221107,,,A*55

$GPVTG,0.00,T,,M,3.318,N,6.145,K,A*32

$GPZDA,110410.000,22,11,2007,,*56

$GPGLL,5231.279380,N,1322.336800,E,110430.000,A,A*60

$GPRMC,110430.000,A,5231.279380,N,01322.336800,E,3.397,0.00,221107,,,A*5E

$GPVTG,0.00,T,,M,3.397,N,6.291,K,A*3F

$GPZDA,110430.000,22,11,2007,,*54

$GPGLL,5231.263720,N,1322.342020,E,110450.000,A,A*6A

$GPRMC,110450.000,A,5231.263720,N,01322.342020,E,2.726,0.00,221107,,,A*5B

$GPVTG,0.00,T,,M,2.726,N,5.048,K,A*35

$GPZDA,110450.000,22,11,2007,,*52

$GPGLL,5231.247640,N,1322.348560,E,110510.000,A,A*65

$GPRMC,110510.000,A,5231.247640,N,01322.348560,E,2.914,0.00,221107,,,A*5B

$GPVTG,0.00,T,,M,2.914,N,5.396,K,A*3A

$GPZDA,110510.000,22,11,2007,,*57

$GPGLL,5231.231740,N,1322.355400,E,110530.000,A,A*6C

$GPRMC,110530.000,A,5231.231740,N,01322.355400,E,1.667,0.00,221107,,,A*5A

$GPVTG,0.00,T,,M,1.667,N,3.087,K,A*37

$GPZDA,110530.000,22,11,2007,,*55

$GPGLL,5231.220700,N,1322.356480,E,110550.000,A,A*65

$GPRMC,110550.000,A,5231.220700,N,01322.356480,E,3.105,0.00,221107,,,A*52

$GPVTG,0.00,T,,M,3.105,N,5.750,K,A*3D

$GPZDA,110550.000,22,11,2007,,*53

$GPGLL,5231.203360,N,1322.356240,E,110610.000,A,A*6B

$GPRMC,110610.000,A,5231.203360,N,01322.356240,E,2.743,0.00,221107,,,A*59

$GPVTG,0.00,T,,M,2.743,N,5.080,K,A*32

$GPZDA,110610.000,22,11,2007,,*54

$GPGLL,5231.188120,N,1322.363320,E,110630.000,A,A*6E

$GPRMC,110630.000,A,5231.188120,N,01322.363320,E,2.561,0.00,221107,,,A*5E

$GPVTG,0.00,T,,M,2.561,N,4.743,K,A*39

$GPZDA,110630.000,22,11,2007,,*56

$GPGLL,5231.173960,N,1322.375440,E,110650.000,A,A*66

$GPRMC,110650.000,A,5231.173960,N,01322.375440,E,3.652,0.00,221107,,,A*54

$GPVTG,0.00,T,,M,3.652,N,6.764,K,A*3C

$GPZDA,110650.000,22,11,2007,,*50

$GPGLL,5231.157760,N,1322.378680,E,110710.000,A,A*68

$GPRMC,110710.000,A,5231.157760,N,01322.378680,E,2.816,0.00,221107,,,A*55

$GPVTG,0.00,T,,M,2.816,N,5.215,K,A*33

$GPZDA,110710.000,22,11,2007,,*55

$GPGLL,5231.141020,N,1322.386120,E,110730.000,A,A*62

$GPRMC,110730.000,A,5231.141020,N,01322.386120,E,2.972,0.00,221107,,,A*5C

$GPVTG,0.00,T,,M,2.972,N,5.504,K,A*37

$GPZDA,110730.000,22,11,2007,,*57

$GPGLL,5231.124520,N,1322.393260,E,110750.000,A,A*61

$GPRMC,110750.000,A,5231.124520,N,01322.393260,E,3.522,0.00,221107,,,A*57

$GPVTG,0.00,T,,M,3.522,N,6.522,K,A*38

$GPZDA,110750.000,22,11,2007,,*51

$GPGLL,5231.107900,N,1322.403580,E,110810.000,A,A*62

$GPRMC,110810.000,A,5231.107900,N,01322.403580,E,2.719,0.00,221107,,,A*5F

$GPVTG,0.00,T,,M,2.719,N,5.036,K,A*30

$GPZDA,110810.000,22,11,2007,,*5A

$GPGLL,5231.091940,N,1322.416060,E,110830.000,A,A*65

$GPRMC,110830.000,A,5231.091940,N,01322.416060,E,2.998,0.00,221107,,,A*5F

$GPVTG,0.00,T,,M,2.998,N,5.552,K,A*30

$GPZDA,110830.000,22,11,2007,,*58

$GPGLL,5231.084620,N,1322.420200,E,110850.000,A,A*6F

$GPRMC,110850.000,A,5231.084620,N,01322.420200,E,2.807,0.00,221107,,,A*52

$GPVTG,0.00,T,,M,2.807,N,5.199,K,A*34

$GPZDA,110850.000,22,11,2007,,*5E

$GPGLL,5231.070100,N,1322.429200,E,110910.000,A,A*6D

$GPRMC,110910.000,A,5231.070100,N,01322.429200,E,3.354,0.00,221107,,,A*5C

$GPVTG,0.00,T,,M,3.354,N,6.212,K,A*3B

$GPZDA,110910.000,22,11,2007,,*5B

$GPGLL,5231.061400,N,1322.449840,E,110930.000,A,A*62

$GPRMC,110930.000,A,5231.061400,N,01322.449840,E,2.884,0.00,221107,,,A*54

$GPVTG,0.00,T,,M,2.884,N,5.341,K,A*38

$GPZDA,110930.000,22,11,2007,,*59

$GPGLL,5231.051140,N,1322.475100,E,110950.000,A,A*64

$GPRMC,110950.000,A,5231.051140,N,01322.475100,E,2.388,0.00,221107,,,A*55

$GPVTG,0.00,T,,M,2.388,N,4.422,K,A*3C

$GPZDA,110950.000,22,11,2007,,*5F

$GPGLL,5231.033620,N,1322.477560,E,111010.000,A,A*6D

$GPRMC,111010.000,A,5231.033620,N,01322.477560,E,2.958,0.00,221107,,,A*5B

$GPVTG,0.00,T,,M,2.958,N,5.479,K,A*34

$GPZDA,111010.000,22,11,2007,,*53

$GPGLL,5231.016460,N,1322.469160,E,111030.000,A,A*65

$GPRMC,111030.000,A,5231.016460,N,01322.469160,E,2.397,0.00,221107,,,A*5A

$GPVTG,0.00,T,,M,2.397,N,4.439,K,A*38

$GPZDA,111030.000,22,11,2007,,*51

$GPGLL,5230.999540,N,1322.458840,E,111050.000,A,A*66

$GPRMC,111050.000,A,5230.999540,N,01322.458840,E,2.983,0.00,221107,,,A*56

$GPVTG,0.00,T,,M,2.983,N,5.524,K,A*3B

$GPZDA,111050.000,22,11,2007,,*57

$GPGLL,5230.983280,N,1322.448520,E,111110.000,A,A*69

$GPRMC,111110.000,A,5230.983280,N,01322.448520,E,1.891,0.00,221107,,,A*58

$GPVTG,0.00,T,,M,1.891,N,3.503,K,A*39

$GPZDA,111110.000,22,11,2007,,*52

$GPGLL,5230.968940,N,1322.442580,E,111130.000,A,A*69

$GPRMC,111130.000,A,5230.968940,N,01322.442580,E,2.458,0.00,221107,,,A*52

$GPVTG,0.00,T,,M,2.458,N,4.552,K,A*30

$GPZDA,111130.000,22,11,2007,,*50

$GPGLL,5230.962460,N,1322.438020,E,111150.000,A,A*68

$GPRMC,111150.000,A,5230.962460,N,01322.438020,E,0.352,0.00,221107,,,A*5C

$GPVTG,0.00,T,,M,0.352,N,0.652,K,A*38

$GPZDA,111150.000,22,11,2007,,*56

$GPGLL,5230.962220,N,1322.438740,E,111210.000,A,A*6C

$GPRMC,111210.000,A,5230.962220,N,01322.438740,E,0.013,0.00,221107,,,A*5E

$GPVTG,0.00,T,,M,0.013,N,0.025,K,A*38

$GPZDA,111210.000,22,11,2007,,*51

$GPGLL,5230.956160,N,1322.430340,E,111230.000,A,A*62

$GPRMC,111230.000,A,5230.956160,N,01322.430340,E,2.147,0.00,221107,,,A*52

$GPVTG,0.00,T,,M,2.147,N,3.976,K,A*36

$GPZDA,111230.000,22,11,2007,,*53

$GPGLL,5230.939060,N,1322.420260,E,111250.000,A,A*6E

$GPRMC,111250.000,A,5230.939060,N,01322.420260,E,2.626,0.00,221107,,,A*5E

$GPVTG,0.00,T,,M,2.626,N,4.864,K,A*33

$GPZDA,111250.000,22,11,2007,,*55

$GPGLL,5230.919740,N,1322.412940,E,111310.000,A,A*64

$GPRMC,111310.000,A,5230.919740,N,01322.412940,E,3.345,0.00,221107,,,A*55

$GPVTG,0.00,T,,M,3.345,N,6.194,K,A*36

$GPZDA,111310.000,22,11,2007,,*50

$GPGLL,5230.903120,N,1322.402920,E,111330.000,A,A*6A

$GPRMC,111330.000,A,5230.903120,N,01322.402920,E,2.976,0.00,221107,,,A*50

$GPVTG,0.00,T,,M,2.976,N,5.511,K,A*37

$GPZDA,111330.000,22,11,2007,,*52

$GPGLL,5230.885000,N,1322.391940,E,111350.000,A,A*6B

$GPRMC,111350.000,A,5230.885000,N,01322.391940,E,2.849,0.00,221107,,,A*5C

$GPVTG,0.00,T,,M,2.849,N,5.277,K,A*3D

$GPZDA,111350.000,22,11,2007,,*54

$GPGLL,5230.866280,N,1322.385820,E,111410.000,A,A*6D

$GPRMC,111410.000,A,5230.866280,N,01322.385820,E,2.216,0.00,221107,,,A*5A

$GPVTG,0.00,T,,M,2.216,N,4.104,K,A*3B

$GPZDA,111410.000,22,11,2007,,*57

$GPGLL,5230.849960,N,1322.375620,E,111430.000,A,A*66

$GPRMC,111430.000,A,5230.849960,N,01322.375620,E,2.462,0.00,221107,,,A*54

$GPVTG,0.00,T,,M,2.462,N,4.560,K,A*38

$GPZDA,111430.000,22,11,2007,,*55

$GPGLL,5230.833100,N,1322.369620,E,111450.000,A,A*6E

$GPRMC,111450.000,A,5230.833100,N,01322.369620,E,2.613,0.00,221107,,,A*58

$GPVTG,0.00,T,,M,2.613,N,4.839,K,A*3D

$GPZDA,111450.000,22,11,2007,,*53

$GPGLL,5230.823920,N,1322.374480,E,111510.000,A,A*64

$GPRMC,111510.000,A,5230.823920,N,01322.374480,E,0.442,0.00,221107,,,A*56

$GPVTG,0.00,T,,M,0.442,N,0.819,K,A*3F

$GPZDA,111510.000,22,11,2007,,*56

$GPGLL,5230.822720,N,1322.374240,E,111530.000,A,A*63

$GPRMC,111530.000,A,5230.822720,N,01322.374240,E,0.421,0.00,221107,,,A*54

$GPVTG,0.00,T,,M,0.421,N,0.780,K,A*35

$GPZDA,111530.000,22,11,2007,,*54

$GPGLL,5230.822180,N,1322.374180,E,111550.000,A,A*66

$GPRMC,111550.000,A,5230.822180,N,01322.374180,E,0.533,0.00,221107,,,A*53

$GPVTG,0.00,T,,M,0.533,N,0.988,K,A*31

$GPZDA,111550.000,22,11,2007,,*52

$GPGLL,5230.810240,N,1322.359240,E,111610.000,A,A*6F

$GPRMC,111610.000,A,5230.810240,N,01322.359240,E,2.339,0.00,221107,,,A*54

$GPVTG,0.00,T,,M,2.339,N,4.331,K,A*33

$GPZDA,111610.000,22,11,2007,,*55

$GPGLL,5230.792660,N,1322.347960,E,111630.000,A,A*68

$GPRMC,111630.000,A,5230.792660,N,01322.347960,E,3.093,0.00,221107,,,A*51

$GPVTG,0.00,T,,M,3.093,N,5.728,K,A*3C

$GPZDA,111630.000,22,11,2007,,*57

$GPGLL,5230.772440,N,1322.341300,E,111650.000,A,A*6A

$GPRMC,111650.000,A,5230.772440,N,01322.341300,E,2.318,0.00,221107,,,A*52

$GPVTG,0.00,T,,M,2.318,N,4.292,K,A*38

$GPZDA,111650.000,22,11,2007,,*51

$GPGLL,5230.756000,N,1322.328160,E,111710.000,A,A*62

$GPRMC,111710.000,A,5230.756000,N,01322.328160,E,3.195,0.00,221107,,,A*5C

$GPVTG,0.00,T,,M,3.195,N,5.917,K,A*39

$GPZDA,111710.000,22,11,2007,,*54

$GPGLL,5230.739260,N,1322.316400,E,111730.000,A,A*63

$GPRMC,111730.000,A,5230.739260,N,01322.316400,E,3.142,0.00,221107,,,A*57

$GPVTG,0.00,T,,M,3.142,N,5.819,K,A*3C

$GPZDA,111730.000,22,11,2007,,*56

$GPGLL,5230.728340,N,1322.306260,E,111750.000,A,A*67

$GPRMC,111750.000,A,5230.728340,N,01322.306260,E,1.359,0.00,221107,,,A*59

$GPVTG,0.00,T,,M,1.359,N,2.517,K,A*32

$GPZDA,111750.000,22,11,2007,,*50

$GPGLL,5230.721740,N,1322.305180,E,111810.000,A,A*6F

$GPRMC,111810.000,A,5230.721740,N,01322.305180,E,2.719,0.00,221107,,,A*52

$GPVTG,0.00,T,,M,2.719,N,5.036,K,A*30

$GPZDA,111810.000,22,11,2007,,*5B

$GPGLL,5230.706920,N,1322.304760,E,111830.000,A,A*69

$GPRMC,111830.000,A,5230.706920,N,01322.304760,E,1.141,0.00,221107,,,A*5C

$GPVTG,0.00,T,,M,1.141,N,2.114,K,A*3E

$GPZDA,111830.000,22,11,2007,,*59

$GPGLL,5230.700200,N,1322.303320,E,111850.000,A,A*67

$GPRMC,111850.000,A,5230.700200,N,01322.303320,E,0.809,0.00,221107,,,A*56

$GPVTG,0.00,T,,M,0.809,N,1.499,K,A*39

$GPZDA,111850.000,22,11,2007,,*5F

$GPGLL,5230.688740,N,1322.282800,E,111910.000,A,A*63

