$Glopus,  42.4,0:56:01,,,                                                                                                                                                                                                                                               
$PSRFTXTVersion GSW3.1.1HTC_3.1.00.07-C23P1.00a *0F
$GPGGA,113009.641,,,,,0,00,,,M,0.0,M,,0000*5F
$GPGSA,A,1,,,,,,,,,,,,,,,*1E
$GPRMC,113009.641,V,,,,,,,021107,,,N*41
$GPGSV,3,1,11,30,86,045,,05,68,102,,14,17,242,,04,11,034,*7B
$GPGGA,113050.586,5045.3396,N,01345.7644,E,1,04,4.3,742.4,M,45.9,M,,0000*56
$GPGSA,A,3,14,05,30,04,,,,,,,,,5.0,4.3,2.6*33
$GPRMC,113050.586,A,5045.3396,N,01345.7644,E,0.00,,021107,,,A*71
$GPGSV,3,1,12,30,86,050,22,05,67,103,26,14,17,242,26,04,11,034,19*7A
$GPGGA,113120.585,5045.3457,N,01345.7514,E,1,04,4.3,760.4,M,45.9,M,,0000*5F
$GPGSA,A,3,30,14,05,04,09,,,,,,,,1.8,1.3,1.2*34
$GPRMC,113121.585,A,5045.3549,N,01345.7445,E,19.17,331.89,021107,,,A*52
$GPGSV,3,1,12,30,86,054,22,05,67,103,24,14,17,241,28,04,10,034,31*7A
$GPGGA,113150.000,5045.3561,N,01345.7469,E,1,08,1.1,778.9,M,45.9,M,,0000*50
$GPRMC,113151.000,A,5045.3561,N,01345.7469,E,0.00,,021107,,,A*79
$GPGSA,A,3,06,07,30,02,14,05,04,09,,,,,1.6,1.1,1.1*38
$GPGSV,3,1,12,30,86,057,30,05,67,103,26,06,56,228,36,07,48,232,31*74
$GPGGA,113220.000,5045.3561,N,01345.7469,E,1,11,0.8,778.9,M,45.9,M,,0000*54
$GPRMC,113221.000,A,5045.3561,N,01345.7469,E,0.00,,021107,,,A*7D
$GPGSA,A,3,01,06,07,30,02,14,24,05,31,04,09,,1.3,0.8,1.1*30
$GPGSV,3,1,12,30,86,060,29,05,67,103,27,06,56,228,36,07,48,232,30*78
$GPGGA,113250.000,5045.3912,N,01345.7736,E,1,10,0.8,767.6,M,45.9,M,,0000*52
$GPRMC,113251.000,A,5045.3967,N,01345.7808,E,25.09,39.38,021107,,,A*6A
$GPGSA,A,3,01,06,07,30,02,14,24,05,31,04,09,,1.3,0.8,1.1*30
$GPGSV,3,1,12,30,86,063,17,05,67,103,30,06,56,228,25,07,49,232,20*72
$GPGGA,113320.000,5045.6192,N,01345.9109,E,1,10,0.9,751.1,M,45.9,M,,0000*56
$GPRMC,113321.000,A,5045.6285,N,01345.9133,E,34.36,10.22,021107,,,A*6D
$GPGSA,A,3,01,06,07,30,02,14,24,05,31,04,,,1.5,0.9,1.2*3D
$GPGSV,3,1,12,30,85,066,32,05,66,104,19,06,56,228,30,07,49,232,25*7F
$GPGGA,113350.000,5045.7907,N,01345.6974,E,1,10,0.9,731.1,M,45.9,M,,0000*5F
$GPRMC,113351.000,A,5045.7945,N,01345.6872,E,28.38,299.89,021107,,,A*5E
$GPGSA,A,3,01,06,07,30,02,05,31,04,,,,,2.9,1.8,2.2*32
$GPGSV,3,1,12,30,85,068,31,05,66,104,30,06,57,228,29,07,49,233,26*72
$GPGGA,113420.000,5045.8876,N,01345.3620,E,1,10,1.0,747.7,M,45.9,M,,0000*53
$GPRMC,113421.000,A,5045.8908,N,01345.3509,E,27.75,293.99,021107,,,A*51
$GPGSA,A,3,01,06,07,30,02,24,05,31,09,14,,,1.7,1.0,1.3*3B
$GPGSV,3,1,12,30,85,070,25,05,66,104,19,06,57,229,23,07,49,233,26*7E
$GPGGA,113450.000,5045.8270,N,01345.1227,E,1,10,0.9,753.6,M,45.9,M,,0000*55
$GPRMC,113451.000,A,5045.8198,N,01345.1158,E,29.60,212.51,021107,,,A*52
$GPGSA,A,3,01,06,07,30,02,04,24,31,14,,,,1.6,0.9,1.3*3A
$GPGSV,3,1,12,30,85,073,27,05,66,104,19,06,57,229,25,07,49,233,29*76
$GPGGA,113520.000,5045.6555,N,01344.9565,E,1,10,1.0,784.1,M,45.9,M,,0000*50
$GPRMC,113521.000,A,5045.6539,N,01344.9513,E,13.08,243.20,021107,,,A*52
$GPGSA,A,3,01,06,07,30,02,09,24,05,31,14,12,,1.6,1.0,1.3*39
$GPGSV,3,1,12,30,85,074,27,05,65,104,24,06,57,229,29,07,50,233,31*71
$GPGGA,113550.000,5045.6586,N,01344.9133,E,1,12,0.8,786.0,M,45.9,M,,0000*56
$GPRMC,113551.000,A,5045.6586,N,01344.9133,E,0.00,,021107,,,A*74
$GPGSA,A,3,01,06,07,30,02,09,24,05,31,14,04,12,1.3,0.8,1.0*32
$GPGSV,3,1,12,30,85,076,15,05,65,105,36,06,58,229,36,07,50,233,35*75
$GPGGA,113620.000,5045.6586,N,01344.9133,E,1,12,0.8,786.0,M,45.9,M,,0000*52
$GPRMC,113621.000,A,5045.6586,N,01344.9133,E,0.00,,021107,,,A*70
$GPGSA,A,3,01,06,07,30,02,09,24,05,31,14,04,12,1.3,0.8,1.0*32
$GPGSV,3,1,12,30,84,078,19,05,65,105,36,06,58,229,34,07,50,233,35*74
$GPGGA,113650.000,5045.6586,N,01344.9133,E,1,11,0.9,786.0,M,45.9,M,,0000*57
$GPRMC,113651.000,A,5045.6586,N,01344.9133,E,0.00,,021107,,,A*77
$GPGSA,A,3,01,06,07,30,02,24,05,31,14,04,12,,1.5,0.9,1.2*3E
$GPGSV,3,1,12,30,84,079,23,05,65,105,36,06,58,229,38,07,50,233,36*73
$GPGGA,113720.000,5045.6690,N,01344.9235,E,1,10,0.9,787.0,M,45.9,M,,0000*50
$GPRMC,113721.000,A,5045.6697,N,01344.9258,E,5.22,66.49,021107,,,A*5A
$GPGSA,A,3,01,06,07,30,02,24,05,14,04,12,,,1.6,1.0,1.2*37
$GPGSV,3,1,12,30,84,081,24,05,65,105,36,06,58,229,25,07,51,233,24*7D
$GPGGA,113750.000,5045.6989,N,01345.0210,E,1,10,0.9,774.5,M,45.9,M,,0000*56
$GPRMC,113751.000,A,5045.7074,N,01345.0279,E,33.68,26.88,021107,,,A*6E
$GPGSA,A,3,01,06,07,30,02,04,24,05,31,12,,,1.7,0.9,1.4*3F
$GPGSV,3,1,12,30,84,082,27,05,64,105,18,06,58,229,25,07,51,233,20*74
$GPGGA,113820.000,5045.8980,N,01345.2011,E,1,11,0.9,751.7,M,45.9,M,,0000*5C
$GPRMC,113821.000,A,5045.8987,N,01345.2021,E,3.24,37.24,021107,,,A*5C
$GPGSA,A,3,01,06,07,30,02,04,24,05,31,14,12,,1.5,0.9,1.2*3E
$GPGSV,3,1,12,30,84,084,19,05,64,106,32,06,59,229,23,07,51,234,23*77
$GPGGA,113850.000,5045.9190,N,01345.2347,E,1,11,0.9,751.5,M,45.9,M,,0000*51
$GPRMC,113851.000,A,5045.9220,N,01345.2354,E,10.51,2.28,021107,,,A*57
$GPGSA,A,3,01,06,07,30,02,04,24,05,31,12,,,1.7,1.0,1.4*37
$GPGSV,3,1,12,30,83,085,30,05,64,106,33,06,59,230,28,07,51,234,28*73
$GPGGA,113920.000,5046.0275,N,01344.8648,E,1,11,0.9,763.5,M,45.9,M,,0000*55
$GPRMC,113921.000,A,5046.0320,N,01344.8490,E,39.71,292.71,021107,,,A*50
$GPGSA,A,3,01,06,07,30,02,04,24,05,31,14,12,,1.5,0.9,1.2*3E
$GPGSV,3,1,12,30,83,086,30,05,64,106,29,06,59,230,31,07,51,234,30*7A
$GPGGA,113950.000,5046.1775,N,01344.3875,E,1,11,0.9,776.2,M,45.9,M,,0000*5E
$GPRMC,113951.000,A,5046.1815,N,01344.3692,E,44.53,288.85,021107,,,A*5A
$GPGSA,A,3,01,06,07,30,02,04,24,05,31,14,,,1.5,0.9,1.2*3D
$GPGSV,3,1,12,30,83,086,28,05,64,106,26,06,59,230,31,07,51,234,30*7C
$GPGGA,114020.000,5046.1714,N,01343.8298,E,1,10,1.0,772.8,M,45.9,M,,0000*52
$GPRMC,114021.000,A,5046.1708,N,01343.8106,E,43.80,267.42,021107,,,A*55
$GPGSA,A,3,01,06,07,30,02,24,05,31,14,12,,,1.8,1.0,1.5*38
$GPGSV,3,1,12,30,83,088,27,05,63,106,23,06,60,230,31,07,52,234,31*77
$GPGGA,114050.000,5046.3174,N,01343.4109,E,1,11,0.9,777.6,M,45.9,M,,0000*52
$GPRMC,114051.000,A,5046.3286,N,01343.4157,E,40.17,14.26,021107,,,A*62
$GPGSA,A,3,01,06,07,30,02,24,05,31,04,12,,,1.7,1.0,1.4*37
$GPGSV,3,1,12,30,82,089,25,05,63,107,22,06,60,230,23,07,52,234,30*77
$GPGGA,114120.000,5046.6629,N,01343.3078,E,1,09,1.1,772.8,M,45.9,M,,0000*55
$GPRMC,114121.000,A,5046.6710,N,01343.2954,E,41.32,315.41,021107,,,A*53
$GPGSA,A,3,01,06,07,30,02,14,24,05,31,12,,,1.8,1.0,1.5*38
$GPGSV,3,1,12,30,82,090,27,05,63,107,31,06,60,230,26,07,52,234,31*7B
$GPGGA,114150.000,5046.8868,N,01342.8650,E,1,10,1.1,752.8,M,45.9,M,,0000*5B
$GPRMC,114151.000,A,5046.8965,N,01342.8532,E,44.44,322.32,021107,,,A*55
$GPGSA,A,3,01,06,07,30,24,05,31,14,12,,,,2.3,1.4,1.8*3B
$GPGSV,3,1,12,30,82,091,32,05,62,107,31,06,60,230,28,07,53,234,30*71
$GPGGA,114220.000,5047.1995,N,01342.7025,E,1,09,1.3,703.5,M,45.9,M,,0000*5C
$GPRMC,114221.000,A,5047.2078,N,01342.7109,E,34.64,23.16,021107,,,A*6D
$GPGSA,A,3,06,07,30,02,04,05,31,,,,,,3.5,2.1,2.8*3E
$GPGSV,3,1,12,30,82,091,29,05,62,107,26,06,60,230,24,07,53,234,22*72
$GPGGA,114250.000,5047.1937,N,01342.5776,E,1,10,1.1,691.9,M,45.9,M,,0000*5C
$GPRMC,114251.000,A,5047.1901,N,01342.5645,E,32.00,244.60,021107,,,A*55
$GPGSA,A,3,01,06,07,30,02,05,31,24,14,12,,,1.8,1.1,1.5*39
$GPGSV,3,1,12,30,82,092,22,05,62,107,27,06,61,230,35,07,53,235,34*7C
$GPGGA,114320.000,5047.2639,N,01342.5793,E,1,09,1.3,670.0,M,45.9,M,,0000*5F
$GPRMC,114321.000,A,5047.2716,N,01342.5885,E,33.99,37.59,021107,,,A*67
$GPGSA,A,3,01,06,07,30,02,12,05,31,14,,,,2.1,1.3,1.6*34
$GPGSV,3,1,12,30,82,092,27,05,62,107,29,06,61,230,27,07,53,235,22*73
$GPGGA,114350.000,5047.2551,N,01342.2657,E,1,09,1.2,645.7,M,45.9,M,,0000*5B
$GPRMC,114351.000,A,5047.2541,N,01342.2472,E,42.52,262.93,021107,,,A*56
$GPGSA,A,3,01,06,07,30,02,05,12,24,31,14,,,1.8,1.1,1.5*39
$GPGSV,3,1,12,30,81,094,24,05,62,108,23,06,61,230,35,07,53,235,32*72
$GPGGA,114420.000,5047.3181,N,01341.8553,E,1,09,1.1,621.3,M,45.9,M,,0000*58
$GPRMC,114421.000,A,5047.3218,N,01341.8445,E,27.96,299.88,021107,,,A*54
$GPGSA,A,3,01,06,07,30,05,12,24,31,02,,,,2.1,1.1,1.7*34
$GPGSV,3,1,12,30,81,094,26,06,61,231,31,05,61,108,31,07,54,235,30*70
$GPGGA,114450.000,5047.5259,N,01341.6750,E,1,09,1.1,609.0,M,45.9,M,,0000*59
$GPRMC,114451.000,A,5047.5346,N,01341.6699,E,33.50,340.77,021107,,,A*58
$GPGSA,A,3,01,06,07,30,05,12,24,31,02,,,,2.1,1.1,1.7*34
$GPGSV,3,1,12,30,81,095,29,06,62,231,29,05,61,108,30,07,54,235,33*76
$GPGGA,114520.000,5047.6917,N,01341.2932,E,1,09,1.1,585.1,M,45.9,M,,0000*55
$GPRMC,114521.000,A,5047.6965,N,01341.2777,E,39.49,294.41,021107,,,A*5C
$GPGSA,A,3,01,06,07,30,02,05,12,24,31,,,,2.1,1.1,1.7*34
$GPGSV,3,1,12,30,80,096,26,06,62,231,34,05,61,108,30,07,54,235,30*74
$GPGGA,114550.000,5047.7700,N,01340.7975,E,1,09,1.1,571.8,M,45.9,M,,0000*5E
$GPRMC,114551.000,A,5047.7754,N,01340.7836,E,37.80,303.08,021107,,,A*51
$GPGSA,A,3,01,06,07,30,02,05,12,31,,,,,2.8,1.7,2.3*3A
$GPGSV,3,1,12,30,80,096,25,06,62,231,30,05,61,108,29,07,54,235,30*7B
$GPGGA,114620.000,5048.0351,N,01340.5804,E,1,08,1.2,557.7,M,45.9,M,,0000*5E
$GPRMC,114621.000,A,5048.0448,N,01340.5812,E,34.18,3.66,021107,,,A*5E
$GPGSA,A,3,06,07,30,02,05,12,31,,,,,,4.2,1.9,3.7*3C
$GPGSV,3,1,12,30,80,096,29,06,62,231,29,05,61,108,18,07,54,235,32*7F
$GPGGA,114650.000,5048.2254,N,01340.5130,E,1,08,1.2,535.1,M,45.9,M,,0000*53
$GPRMC,114651.000,A,5048.2265,N,01340.5124,E,5.40,345.09,021107,,,A*69
$GPGSA,A,3,12,06,07,30,02,05,24,31,,,,,2.6,1.2,2.3*36
$GPGSV,3,1,12,30,80,097,30,06,63,231,29,05,60,109,33,07,55,235,34*79
$GPGGA,114720.000,5048.4149,N,01340.6133,E,1,08,1.7,536.7,M,45.9,M,,0000*5C
$GPRMC,114721.000,A,5048.4230,N,01340.6165,E,30.24,14.08,021107,,,A*6D
$GPGSA,A,3,12,06,07,30,02,05,24,31,01,,,,2.1,1.1,1.7*34
$GPGSV,3,1,12,30,80,098,26,06,63,231,23,05,60,109,22,07,55,236,31*7D
$GPGGA,114750.000,5048.6479,N,01340.7048,E,1,07,1.9,526.4,M,45.9,M,,0000*50
$GPRMC,114751.000,A,5048.6557,N,01340.7107,E,31.45,25.42,021107,,,A*61
$GPGSA,A,3,12,06,07,30,02,05,31,,,,,,4.2,1.9,3.7*3C
$GPGSV,3,1,12,30,80,098,26,06,63,231,23,05,60,109,27,07,55,236,31*78
$GPGGA,114820.000,5048.8905,N,01340.9240,E,1,10,1.0,500.3,M,45.9,M,,0000*58
$GPRMC,114821.000,A,5048.8987,N,01340.9373,E,41.81,45.72,021107,,,A*63
$GPGSA,A,3,12,06,07,30,02,05,24,31,01,04,,,1.7,1.0,1.4*37
$GPGSV,3,1,12,30,80,098,20,06,63,231,28,05,60,109,33,07,55,236,26*76
$GPGGA,114850.000,5049.1252,N,01341.3108,E,1,10,0.9,486.6,M,45.9,M,,0000*58
$GPRMC,114851.000,A,5049.1330,N,01341.3236,E,40.80,46.92,021107,,,A*6C
$GPGSA,A,3,12,06,07,30,02,05,24,14,31,01,04,,1.4,0.9,1.1*3C
$GPGSV,3,1,12,30,79,099,18,06,64,231,27,05,59,109,36,07,56,236,26*7E
$GPGGA,114920.000,5049.3959,N,01341.5725,E,1,07,1.9,471.7,M,45.9,M,,0000*5D
$GPRMC,114921.000,A,5049.4061,N,01341.5678,E,39.27,347.65,021107,,,A*59
$GPGSA,A,3,12,06,07,30,05,31,01,,,,,,3.1,2.1,2.3*35
$GPGSV,3,1,12,30,79,099,32,06,64,231,27,05,59,109,24,07,56,236,31*73
$GPGGA,114950.000,5049.6086,N,01341.3905,E,1,09,1.1,467.2,M,45.9,M,,0000*5A
$GPRMC,114951.000,A,5049.6160,N,01341.3870,E,27.55,342.40,021107,,,A*54
$GPGSA,A,3,12,06,07,30,02,05,24,31,01,,,,2.0,1.1,1.7*35
$GPGSV,3,1,12,30,78,100,32,06,64,232,24,05,59,110,34,07,56,236,33*78
$GPGGA,115020.000,5049.7842,N,01341.1515,E,1,08,1.6,458.4,M,45.9,M,,0000*57
$GPRMC,115021.000,A,5049.7905,N,01341.1424,E,31.34,319.33,021107,,,A*54
$GPGSA,A,3,12,06,07,30,05,24,31,01,,,,,2.5,1.6,2.0*31
$GPGSV,3,1,12,30,78,101,29,06,64,232,29,05,59,110,33,07,56,236,31*7B
$GPGGA,115050.000,5049.9777,N,01340.8852,E,1,09,1.1,449.2,M,45.9,M,,0000*51
$GPRMC,115051.000,A,5049.9845,N,01340.8762,E,31.42,318.71,021107,,,A*57
$GPGSA,A,3,12,06,07,30,02,05,24,31,01,,,,2.0,1.1,1.7*35
$GPGSV,3,1,12,30,78,101,29,06,64,232,28,05,58,110,32,07,57,236,32*78
$GPGGA,115120.000,5050.1555,N,01340.5871,E,1,09,1.2,437.0,M,45.9,M,,0000*51
$GPRMC,115121.000,A,5050.1604,N,01340.5772,E,28.57,309.73,021107,,,A*58
$GPGSA,A,3,12,06,07,30,02,05,24,14,31,01,,,1.8,1.1,1.4*38
$GPGSV,3,1,12,30,78,102,30,06,65,232,29,05,58,110,32,07,57,237,32*72
$GPGGA,115150.000,5050.3616,N,01340.4335,E,1,09,1.1,433.5,M,45.9,M,,0000*58
$GPRMC,115151.000,A,5050.3686,N,01340.4251,E,31.52,322.49,021107,,,A*5F
$GPGSA,A,3,12,06,07,30,02,05,24,31,01,,,,2.0,1.1,1.7*35
$GPGSV,3,1,12,30,77,102,30,06,65,232,27,05,58,110,32,07,57,237,32*73
$GPGGA,115220.000,5050.6082,N,01340.2336,E,1,09,1.5,419.7,M,45.9,M,,0000*59
$GPRMC,115221.000,A,5050.6154,N,01340.2243,E,34.14,322.20,021107,,,A*5B
$GPGSA,A,3,12,06,07,30,02,05,24,14,31,01,,,1.7,1.1,1.4*37
$GPGSV,3,1,12,30,77,102,32,06,65,232,29,05,58,110,30,07,57,237,30*7F
$GPGGA,115250.000,5050.8512,N,01340.0448,E,1,09,1.1,417.5,M,45.9,M,,0000*58
$GPRMC,115251.000,A,5050.8604,N,01340.0411,E,34.16,345.73,021107,,,A*56
$GPGSA,A,3,12,06,07,30,02,05,24,31,01,,,,2.0,1.1,1.7*35
$GPGSV,3,1,12,30,77,103,33,06,65,232,17,07,58,237,33,05,57,111,34*74
$GPGGA,115320.000,5051.1348,N,01339.9494,E,1,10,1.1,409.0,M,45.9,M,,0000*5B
$GPRMC,115321.000,A,5051.1446,N,01339.9478,E,35.86,354.13,021107,,,A*5A
$GPGSA,A,3,12,06,07,30,02,05,24,31,01,14,,,1.7,1.1,1.4*37
$GPGSV,3,1,12,30,77,103,33,06,66,232,28,07,58,237,32,05,57,111,29*76
$GPGGA,115350.000,5051.4316,N,01339.9166,E,1,10,1.1,401.3,M,45.9,M,,0000*51
$GPRMC,115351.000,A,5051.4409,N,01339.9160,E,33.49,357.63,021107,,,A*5E
$GPGSA,A,3,12,06,07,30,02,05,24,31,01,14,,,1.7,1.1,1.4*37
$GPGSV,3,1,12,30,77,104,32,06,66,232,29,07,58,237,29,05,57,111,26*74
$GPGGA,115420.000,5051.7039,N,01339.9466,E,1,10,1.1,393.6,M,45.9,M,,0000*50
$GPRMC,115421.000,A,5051.7124,N,01339.9490,E,31.21,9.69,021107,,,A*53
$GPGSA,A,3,12,06,07,30,02,05,24,31,01,14,,,1.7,1.1,1.4*37
$GPGSV,3,1,12,30,76,104,27,06,66,233,23,07,58,237,33,05,57,111,25*72
$GPGGA,115450.000,5051.9201,N,01340.0960,E,1,10,1.1,385.7,M,45.9,M,,0000*5A
$GPRMC,115451.000,A,5051.9296,N,01340.1011,E,35.79,18.66,021107,,,A*6D
$GPGSA,A,3,12,06,07,30,02,05,24,31,01,14,,,1.7,1.1,1.4*37
$GPGSV,3,1,12,30,76,104,23,06,66,233,23,07,58,237,29,05,57,111,35*7C
$GPGGA,115520.000,5052.1886,N,01340.2270,E,1,10,1.1,383.7,M,45.9,M,,0000*5C
$GPRMC,115521.000,A,5052.1943,N,01340.2251,E,21.99,348.22,021107,,,A*5B
$GPGSA,A,3,12,06,07,30,02,05,24,31,01,14,,,1.7,1.1,1.4*37
$GPGSV,3,1,12,30,76,105,32,06,67,233,19,07,59,238,33,05,56,112,30*77
$GPGGA,115550.000,5052.3846,N,01340.2308,E,1,09,1.1,373.9,M,45.9,M,,0000*52
$GPRMC,115551.000,A,5052.3901,N,01340.2384,E,26.82,41.18,021107,,,A*6F
$GPGSA,A,3,12,06,07,30,02,05,24,31,01,,,,2.0,1.1,1.7*35
$GPGSV,3,1,12,30,76,105,25,06,67,233,30,07,59,238,23,05,56,112,36*7D
$GPGGA,115620.000,5052.5723,N,01340.4375,E,1,09,1.1,371.6,M,45.9,M,,0000*5D
$GPRMC,115621.000,A,5052.5786,N,01340.4465,E,30.65,41.39,021107,,,A*6F
$GPGSA,A,3,12,06,07,30,02,05,24,31,01,,,,2.0,1.1,1.7*35
$GPGSV,3,1,12,30,75,105,20,06,67,233,30,07,59,238,25,05,56,112,37*7C
$GPGGA,115650.000,5052.7695,N,01340.6415,E,1,08,1.3,371.0,M,45.9,M,,0000*52
$GPRMC,115651.000,A,5052.7779,N,01340.6392,E,30.17,351.82,021107,,,A*50
$GPGSA,A,3,12,06,07,30,02,05,24,31,,,,,2.8,1.3,2.5*3F
$GPGSV,3,1,12,30,75,106,33,06,67,233,22,07,59,238,31,05,56,112,30*7C
$GPGGA,115720.000,5052.9982,N,01340.4806,E,1,09,1.1,370.9,M,45.9,M,,0000*54
$GPRMC,115721.000,A,5053.0054,N,01340.4765,E,27.98,339.03,021107,,,A*50
$GPGSA,A,3,12,06,07,30,02,05,24,31,,,,,2.8,1.3,2.5*3F
$GPGSV,3,1,12,30,75,106,34,06,67,233,22,07,60,238,31,05,55,112,31*73
$GPGGA,115750.000,5053.2177,N,01340.2903,E,1,10,1.1,361.5,M,45.9,M,,0000*5D
$GPRMC,115751.000,A,5053.2246,N,01340.2837,E,28.55,328.80,021107,,,A*5F
$GPGSA,A,3,12,06,07,30,02,05,24,14,31,01,,,1.7,1.1,1.3*30
$GPGSV,3,1,12,30,75,106,35,06,68,233,27,07,60,238,26,05,55,112,27*79
$GPGGA,115820.000,5053.3915,N,01340.1089,E,1,09,1.1,351.9,M,45.9,M,,0000*57
$GPRMC,115821.000,A,5053.3990,N,01340.1065,E,27.42,348.09,021107,,,A*54
$GPGSA,A,3,12,07,30,02,05,24,14,31,01,,,,1.8,1.1,1.5*3F
$GPGSV,3,1,12,30,74,107,34,06,68,233,16,07,60,238,31,05,55,113,31*7A
$GPGGA,115850.000,5053.6551,N,01340.1877,E,1,10,1.1,368.3,M,45.9,M,,0000*58
$GPRMC,115851.000,A,5053.6624,N,01340.1937,E,29.13,26.89,021107,,,A*61
$GPGSA,A,3,12,07,30,02,05,24,14,31,01,06,,,1.7,1.1,1.3*30
$GPGSV,3,1,12,30,74,107,21,06,68,234,23,07,60,238,27,05,55,113,37*7E
$GPGGA,115920.000,5053.7206,N,01340.2618,E,1,10,1.1,365.5,M,45.9,M,,0000*55
$GPRMC,115921.000,A,5053.7206,N,01340.2618,E,0.00,,021107,,,A*71
$GPGSA,A,3,12,07,30,02,05,24,14,31,01,06,,,1.7,1.1,1.3*30
$GPGSV,3,1,12,30,74,107,21,06,68,234,32,07,60,239,30,05,55,113,40*79
$GPGGA,115950.000,5053.7596,N,01340.3118,E,1,09,1.1,364.9,M,45.9,M,,0000*5F
$GPRMC,115951.000,A,5053.7649,N,01340.3186,E,24.18,38.79,021107,,,A*6C
$GPGSA,A,3,12,07,30,02,05,24,14,31,01,06,,,1.7,1.1,1.3*30
$GPGSV,3,1,12,30,74,107,23,06,69,234,29,07,61,239,29,05,54,113,39*76
$GPGGA,120020.000,5054.0058,N,01340.5495,E,1,10,1.1,385.5,M,45.9,M,,0000*5D
$GPRMC,120021.000,A,5054.0142,N,01340.5656,E,47.67,50.51,021107,,,A*6D
$GPGSA,A,3,12,07,30,02,05,24,14,31,01,06,,,1.7,1.1,1.3*30
$GPGSV,3,1,12,30,73,108,36,06,69,234,28,07,61,239,28,05,54,113,31*72
$GPGGA,120050.000,5054.2755,N,01341.1219,E,1,10,1.1,410.6,M,45.9,M,,0000*5D
$GPRMC,120051.000,A,5054.2834,N,01341.1393,E,47.91,54.18,021107,,,A*69
$GPGSA,A,3,12,07,30,02,05,24,14,31,01,06,,,1.7,1.1,1.3*30
$GPGSV,3,1,12,30,73,108,33,06,69,234,28,07,61,239,34,05,54,113,34*7F
$GPGGA,120120.000,5054.4775,N,01341.5621,E,1,10,1.1,396.0,M,45.9,M,,0000*5B
$GPRMC,120121.000,A,5054.4819,N,01341.5735,E,30.59,58.01,021107,,,A*6A
$GPGSA,A,3,12,07,30,02,05,24,14,31,01,06,,,1.7,1.1,1.3*30
$GPGSV,3,1,12,30,73,108,30,06,69,234,26,07,61,239,32,05,54,114,31*76
$GPGGA,120150.000,5054.5940,N,01341.8787,E,1,10,1.1,378.5,M,45.9,M,,0000*50
$GPRMC,120151.000,A,5054.5966,N,01341.8861,E,19.63,60.90,021107,,,A*67
$GPGSA,A,3,12,07,30,02,05,24,14,31,01,06,,,1.7,1.1,1.3*30
$GPGSV,3,1,12,30,73,109,31,06,70,234,28,07,62,239,31,05,53,114,31*77
$GPGGA,120220.000,5054.8164,N,01341.9817,E,1,10,1.1,361.6,M,45.9,M,,0000*5B
$GPRMC,120221.000,A,5054.8296,N,01341.9848,E,48.29,8.83,021107,,,A*56
$GPGSA,A,3,12,07,30,02,05,24,31,01,14,,,,1.8,1.1,1.4*3E
$GPGSV,3,1,12,30,73,109,34,06,70,234,09,07,62,239,34,05,53,114,21*75
$GPGGA,120250.000,5055.2087,N,01342.0776,E,1,08,1.3,341.7,M,45.9,M,,0000*51
$GPRMC,120251.000,A,5055.2205,N,01342.0806,E,43.36,9.01,021107,,,A*5E
$GPGSA,A,3,12,07,30,02,05,24,31,01,06,,,,2.0,1.2,1.6*37
$GPGSV,3,1,12,30,72,109,34,06,70,234,21,07,62,239,33,05,53,114,22*7A
$GPGGA,120320.000,5055.5131,N,01342.2619,E,1,09,1.2,337.8,M,45.9,M,,0000*58
$GPRMC,120321.000,A,5055.5221,N,01342.2692,E,36.96,25.51,021107,,,A*6B
$GPGSA,A,3,12,07,30,02,05,24,14,31,01,06,,,1.7,1.1,1.3*30
$GPGSV,3,1,12,30,72,109,24,06,70,235,25,07,62,240,25,05,53,114,37*73
$GPGGA,120350.000,5055.8210,N,01342.3570,E,1,09,1.2,365.8,M,45.9,M,,0000*58
$GPRMC,120351.000,A,5055.8331,N,01342.3559,E,44.10,355.00,021107,,,A*5F
$GPGSA,A,3,12,07,30,02,05,24,14,31,01,06,,,1.6,1.1,1.3*31
$GPGSV,3,1,12,30,72,110,33,06,70,235,26,07,62,240,22,05,53,114,23*7C
$GPGGA,120420.000,5056.1668,N,01342.2063,E,1,10,1.1,374.1,M,45.9,M,,0000*5D
$GPRMC,120421.000,A,5056.1772,N,01342.2015,E,38.94,343.74,021107,,,A*59
$GPGSA,A,3,12,07,30,02,05,24,14,31,01,06,,,1.6,1.1,1.2*30
$GPGSV,3,1,12,30,72,110,33,06,71,235,21,07,63,240,26,05,52,114,33*7F
$GPGGA,120450.000,5056.4761,N,01342.0614,E,1,10,1.1,385.0,M,45.9,M,,0000*5C
$GPRMC,120451.000,A,5056.4846,N,01342.0574,E,31.69,343.20,021107,,,A*59
$GPGSA,A,3,12,07,30,02,05,24,14,31,01,06,,,1.6,1.1,1.2*30
$GPGSV,3,1,12,30,72,110,34,06,71,235,17,07,63,240,31,05,52,114,32*7A
$GPGGA,120520.000,5056.7036,N,01342.0654,E,1,10,1.1,408.6,M,45.9,M,,0000*5C
$GPRMC,120521.000,A,5056.7122,N,01342.0647,E,30.54,358.02,021107,,,A*51
$GPGSA,A,3,12,07,30,02,05,24,14,31,01,06,,,1.6,1.1,1.2*30
$GPGSV,3,1,12,30,72,110,33,06,71,235,24,07,63,240,25,05,52,114,18*70
$GPGGA,120550.000,5056.9963,N,01341.9911,E,1,10,1.1,398.8,M,45.9,M,,0000*58
$GPRMC,120551.000,A,5057.0064,N,01341.9875,E,37.05,347.27,021107,,,A*5C
$GPGSA,A,3,12,07,30,02,05,24,14,31,01,06,,,1.6,1.1,1.2*30
$GPGSV,3,1,12,06,71,235,21,30,71,111,34,07,63,240,25,05,52,115,31*7A
$GPGGA,120620.000,5057.2570,N,01342.0060,E,1,09,1.2,398.8,M,45.9,M,,0000*56
$GPRMC,120621.000,A,5057.2640,N,01342.0094,E,25.97,16.92,021107,,,A*66
$GPGSA,A,3,12,07,30,02,05,24,31,01,06,,,,2.0,1.2,1.6*37
$GPGSV,3,1,12,06,72,235,19,30,71,111,33,07,63,240,33,05,51,115,35*75
$GPGGA,120650.000,5057.4829,N,01342.1250,E,1,09,1.2,394.3,M,45.9,M,,0000*51
$GPRMC,120651.000,A,5057.4906,N,01342.1284,E,29.45,15.37,021107,,,A*67
$GPGSA,A,3,12,07,30,02,05,24,31,01,06,,,,1.9,1.2,1.6*3D
$GPGSV,3,1,12,06,72,235,23,30,70,111,27,07,64,241,25,05,51,115,36*7A
$GPGGA,120720.000,5057.6844,N,01342.2713,E,1,09,1.2,363.4,M,45.9,M,,0000*50
$GPRMC,120721.000,A,5057.6866,N,01342.2834,E,28.68,71.72,021107,,,A*6B
$GPGSA,A,3,12,07,30,02,05,24,31,01,06,,,,1.9,1.2,1.6*3D
$GPGSV,3,1,12,06,72,235,30,30,70,111,32,07,64,241,29,05,51,115,26*71
$GPGGA,120750.000,5057.7810,N,01342.5695,E,1,09,1.2,329.3,M,45.9,M,,0000*56
$GPRMC,120751.000,A,5057.7849,N,01342.5755,E,20.25,45.44,021107,,,A*6C
$GPGSA,A,3,12,07,30,02,05,24,31,01,06,,,,1.9,1.2,1.5*3E
$GPGSV,3,1,12,06,72,236,28,30,70,112,28,07,64,241,30,05,51,115,36*7A
$GPGGA,120820.000,5057.9264,N,01342.7100,E,1,09,1.2,300.8,M,45.9,M,,0000*50
$GPRMC,120821.000,A,5057.9311,N,01342.7167,E,22.92,42.58,021107,,,A*6D
$GPGSA,A,3,12,07,30,02,05,24,31,01,06,,,,1.9,1.2,1.5*3E
$GPGSV,3,1,12,06,72,236,24,30,70,112,28,07,64,241,31,05,51,115,36*77
$GPGGA,120850.000,5058.0936,N,01342.7494,E,1,08,1.4,292.9,M,45.9,M,,0000*59
$GPRMC,120851.000,A,5058.0968,N,01342.7491,E,11.61,357.41,021107,,,A*57
$GPGSA,A,3,12,07,30,02,05,24,31,01,06,,,,1.9,1.2,1.5*3E
$GPGSV,3,1,12,06,73,236,28,30,69,112,34,07,65,241,30,05,50,116,23*79
$GPGGA,120920.000,5058.1106,N,01342.7475,E,1,09,1.2,290.1,M,45.9,M,,0000*57
$GPRMC,120921.000,A,5058.1106,N,01342.7475,E,0.00,,021107,,,A*77
$GPGSA,A,3,12,07,30,02,05,24,31,01,06,,,,1.9,1.2,1.5*3E
$GPGSV,3,1,12,06,73,236,26,30,69,112,35,07,65,241,29,05,50,116,24*79
$GPGGA,120950.000,5058.2079,N,01342.7346,E,1,09,1.2,296.8,M,45.9,M,,0000*52
$GPRMC,120951.000,A,5058.2157,N,01342.7297,E,31.37,338.55,021107,,,A*5D
$GPGSA,A,3,12,07,30,02,05,24,31,01,06,,,,1.9,1.2,1.5*3E
$GPGSV,3,1,12,06,73,236,25,30,69,112,35,07,65,241,31,05,50,116,27*70
$GPGGA,121020.000,5058.4489,N,01342.7260,E,1,09,1.2,322.8,M,45.9,M,,0000*5B
$GPRMC,121021.000,A,5058.4501,N,01342.7411,E,34.10,76.89,021107,,,A*63
$GPGSA,A,3,12,07,30,02,05,24,31,06,,,,,3.2,1.5,2.8*3F
$GPGSV,3,1,12,06,73,236,31,30,69,112,38,07,65,241,30,05,50,116,27*79
$GPGGA,121050.000,5058.6153,N,01342.9700,E,1,09,1.2,311.8,M,45.9,M,,0000*51
$GPRMC,121051.000,A,5058.6225,N,01342.9757,E,28.83,26.44,021107,,,A*6B
$GPGSA,A,3,12,07,30,02,05,24,31,01,06,,,,1.9,1.2,1.5*3E
$GPGSV,3,1,12,06,74,236,23,30,69,113,27,07,66,242,17,05,49,116,35*7C
$GPGGA,121120.000,5058.7216,N,01343.0520,E,1,09,1.2,315.2,M,45.9,M,,0000*52
$GPRMC,121121.000,A,5058.7216,N,01343.0520,E,0.00,,021107,,,A*7D
$GPGSA,A,3,12,07,30,02,05,24,31,01,06,,,,1.9,1.2,1.5*3E
$GPGSV,3,1,12,06,74,236,14,30,68,113,22,07,66,242,22,05,49,116,32*7D
$GPGGA,121150.000,5058.8735,N,01342.9754,E,1,09,1.2,311.7,M,45.9,M,,0000*56
$GPRMC,121151.000,A,5058.8799,N,01342.9654,E,31.79,316.02,021107,,,A*5B
$GPGSA,A,3,12,07,24,30,02,05,31,01,06,,,,1.9,1.2,1.5*3E
$GPGSV,3,1,12,06,74,236,31,30,68,113,33,07,66,242,37,05,49,116,28*75
$GPGGA,121220.000,5059.1242,N,01342.8690,E,1,09,1.2,310.2,M,45.9,M,,0000*53
$GPRMC,121221.000,A,5059.1342,N,01342.8719,E,36.48,9.66,021107,,,A*56
$GPGSA,A,3,12,07,24,30,02,05,31,01,06,,,,1.9,1.2,1.5*3E
$GPGSV,3,1,12,06,74,237,22,30,68,113,24,07,66,242,28,31,49,286,31*7B
$GPGGA,121250.000,5059.4500,N,01342.9143,E,1,09,1.2,281.2,M,45.9,M,,0000*51
$GPRMC,121251.000,A,5059.4621,N,01342.9231,E,48.92,25.62,021107,,,A*6E
$GPGSA,A,3,12,07,24,30,02,05,31,01,06,,,,1.9,1.2,1.5*3E
$GPGSV,3,1,12,06,75,237,21,30,68,114,27,07,66,242,16,31,49,286,30*71
$GPGGA,121320.000,5059.5970,N,01343.0455,E,1,09,1.2,276.1,M,45.9,M,,0000*5C
$GPRMC,121321.000,A,5059.6013,N,01343.0472,E,9.36,10.54,021107,,,A*5C
$GPGSA,A,3,12,07,24,30,02,05,31,01,06,,,,1.9,1.2,1.5*3E
$GPGSV,3,1,12,06,75,237,23,30,68,114,19,07,66,242,24,31,49,286,31*7E
$GPGGA,121350.000,5059.8231,N,01343.1233,E,1,09,1.2,264.4,M,45.9,M,,0000*59
$GPRMC,121351.000,A,5059.8284,N,01343.1261,E,19.89,19.54,021107,,,A*60
$GPGSA,A,3,12,07,24,30,02,05,31,01,06,,,,1.9,1.2,1.5*3E
$GPGSV,3,1,12,06,75,237,23,30,68,114,27,07,66,242,20,31,49,286,31*77
$GPGGA,121420.000,5059.8560,N,01343.1448,E,1,09,1.2,261.5,M,45.9,M,,0000*54
$GPRMC,121421.000,A,5059.8573,N,01343.1458,E,6.01,27.18,021107,,,A*58
$GPGSA,A,3,12,07,24,30,02,05,31,01,06,,,,1.9,1.2,1.5*3E
$GPGSV,3,1,12,06,75,237,20,07,67,243,22,30,67,114,29,31,50,285,35*78
$GPGGA,121450.000,5100.0366,N,01343.3532,E,1,09,1.2,247.9,M,45.9,M,,0000*50
$GPRMC,121451.000,A,5100.0449,N,01343.3620,E,36.25,33.54,021107,,,A*65
$GPGSA,A,3,12,07,24,30,02,05,31,01,06,,,,1.9,1.2,1.5*3E
$GPGSV,3,1,12,06,76,237,16,07,67,243,27,30,67,114,20,31,50,284,33*75
$GPGGA,121520.000,5100.2286,N,01343.6117,E,1,09,1.2,223.7,M,45.9,M,,0000*51
$GPRMC,121521.000,A,5100.2310,N,01343.6181,E,17.09,58.01,021107,,,A*63
$GPGSA,A,3,12,07,24,30,02,05,31,01,06,,,,1.9,1.2,1.4*3F
$GPGSV,3,1,12,06,76,237,25,07,68,243,29,30,66,115,35,31,50,284,23*71
$GPGGA,121550.000,5100.3088,N,01343.7455,E,1,09,1.2,217.5,M,45.9,M,,0000*5C
$GPRMC,121551.000,A,5100.3161,N,01343.7523,E,29.86,30.11,021107,,,A*69
$GPGSA,A,3,12,07,24,30,02,05,31,01,06,,,,1.9,1.2,1.4*3F
$GPGSV,3,1,12,06,76,237,17,07,68,243,24,30,66,115,27,31,50,284,34*78
$GPGGA,121620.000,5100.5854,N,01343.8070,E,1,09,1.1,205.7,M,45.9,M,,0000*59
$GPRMC,121621.000,A,5100.5941,N,01343.8017,E,33.39,337.48,021107,,,A*5B
$GPGSA,A,3,12,07,24,30,02,05,23,31,01,06,,,1.7,1.0,1.3*35
$GPGSV,3,1,12,06,76,238,21,07,68,243,21,30,66,115,34,31,50,283,29*7E
$GPGGA,121650.000,5100.7446,N,01343.4299,E,1,10,1.0,179.4,M,45.9,M,,0000*58
$GPRMC,121651.000,A,5100.7545,N,01343.4221,E,38.69,330.79,021107,,,A*56
$GPGSA,A,3,12,07,24,30,02,05,23,31,01,06,,,1.7,1.0,1.3*35
$GPGSV,3,1,12,06,76,238,24,07,68,244,28,30,66,115,35,31,50,283,29*74
$GPGGA,121720.000,5100.9447,N,01343.5889,E,1,09,1.2,179.7,M,45.9,M,,0000*52
$GPRMC,121721.000,A,5100.9467,N,01343.6051,E,37.11,76.54,021107,,,A*66
$GPGSA,A,3,12,07,24,30,02,05,31,01,06,,,,1.8,1.2,1.4*3E
$GPGSV,3,1,12,06,76,238,28,07,68,244,31,30,66,115,37,31,50,283,24*7F
$GPGGA,121750.000,5101.2157,N,01343.7703,E,1,08,1.0,196.7,M,45.9,M,,0000*56
$GPRMC,121751.000,A,5101.2261,N,01343.7750,E,39.11,15.23,021107,,,A*67
$GPGSA,A,3,12,07,24,02,05,23,31,01,06,,,,1.7,1.0,1.4*31
$GPGSV,3,1,12,06,76,238,21,07,68,244,24,30,66,115,14,31,50,283,28*7F
$GPGGA,121820.000,5101.4639,N,01343.8489,E,1,10,1.0,166.8,M,45.9,M,,0000*50
$GPRMC,121821.000,A,5101.4683,N,01343.8507,E,16.71,15.71,021107,,,A*62
$GPGSA,A,3,12,07,24,02,05,23,31,30,01,06,,,1.6,1.0,1.3*34
$GPGSV,3,1,12,06,77,238,18,07,69,244,20,30,65,116,28,31,50,282,31*77
$GPGGA,121850.000,5101.4779,N,01343.8568,E,1,09,1.0,162.4,M,45.9,M,,0000*5C
$GPRMC,121851.000,A,5101.4779,N,01343.8568,E,0.00,,021107,,,A*75
$GPGSA,A,3,12,24,02,05,23,31,30,01,06,,,,1.7,1.0,1.4*35
$GPGSV,3,1,12,06,77,238,24,07,69,244,15,30,65,116,13,31,50,282,33*74
$GPGGA,121920.000,5101.4779,N,01343.8568,E,1,09,0.9,162.4,M,45.9,M,,0000*52
$GPRMC,121921.000,A,5101.4779,N,01343.8568,E,0.00,,021107,,,A*73
$GPGSA,A,3,12,24,02,05,23,21,31,01,30,,,,1.7,0.9,1.5*39
$GPGSV,3,1,12,06,78,238,,07,69,244,13,30,65,116,16,31,50,281,34*7A
$GPGGA,121950.000,5101.4976,N,01343.8027,E,1,11,0.8,170.9,M,45.9,M,,0000*5C
$GPRMC,121951.000,A,5101.4986,N,01343.7910,E,25.80,280.28,021107,,,A*57
$GPGSA,A,3,12,06,24,02,05,21,31,16,01,30,,,1.5,0.9,1.2*3C
$GPGSV,3,1,12,06,78,238,34,07,69,244,,30,64,116,27,31,50,281,32*7A
$GPGGA,122020.000,5101.5533,N,01343.4245,E,1,09,1.4,160.2,M,45.9,M,,0000*59
$GPRMC,122021.000,A,5101.5559,N,01343.4115,E,30.36,284.85,021107,,,A*51
$GPGSA,A,3,12,06,24,07,21,31,16,30,,,,,1.9,1.5,1.2*3C
$GPGSV,3,1,12,06,78,239,35,07,70,245,38,30,64,116,28,31,50,281,27*73
$GPGGA,122050.000,5101.6186,N,01343.0361,E,1,11,0.9,158.2,M,45.9,M,,0000*5A
$GPRMC,122051.000,A,5101.6205,N,01343.0262,E,22.55,285.57,021107,,,A*54
$GPGSA,A,3,12,06,24,02,01,05,07,31,16,21,30,,1.4,0.9,1.1*39
$GPGSV,3,1,12,06,78,239,36,07,70,245,39,30,64,117,30,31,51,280,28*76
$GPGGA,122120.000,5101.6818,N,01342.7413,E,1,10,1.0,149.7,M,45.9,M,,0000*5A
$GPRMC,122121.000,A,5101.6848,N,01342.7294,E,28.61,289.92,021107,,,A*56
$GPGSA,A,3,12,06,24,02,30,05,07,31,16,01,21,,1.4,0.9,1.1*39
$GPGSV,3,1,12,06,79,239,34,07,70,245,38,30,64,117,30,31,51,280,21*7D
$GPGGA,122150.000,5101.7409,N,01342.4804,E,1,11,0.9,142.6,M,45.9,M,,0000*5A
$GPRMC,122151.000,A,5101.7427,N,01342.4730,E,17.84,290.25,021107,,,A*5E
$GPGSA,A,3,12,06,24,30,05,07,31,16,21,,,,1.9,1.4,1.3*39
$GPGSV,3,1,12,06,79,239,28,07,70,245,37,30,63,117,30,31,51,280,22*7B
$GPGGA,122220.000,5101.7799,N,01342.2301,E,1,07,2.9,139.6,M,45.9,M,,0000*55
$GPRMC,122221.000,A,5101.7836,N,01342.2219,E,21.92,303.45,021107,,,A*51
$GPGSA,A,3,12,06,24,02,30,05,07,31,16,,,,1.9,1.3,1.4*38
$GPGSV,3,1,12,06,79,239,18,07,71,245,33,30,63,117,29,31,51,279,29*78
$GPGGA,122250.000,5101.8371,N,01342.1089,E,1,10,1.0,134.1,M,45.9,M,,0000*59
$GPRMC,122251.000,A,5101.8371,N,01342.1089,E,0.00,,021107,,,A*7E
$GPGSA,A,3,12,06,24,02,30,05,07,21,31,16,,,1.5,1.0,1.2*32
$GPGSV,3,1,12,06,79,239,21,07,71,245,27,30,63,117,37,31,51,279,31*71
$GPGGA,122320.000,5101.8371,N,01342.1089,E,1,10,1.0,134.1,M,45.9,M,,0000*5F
$GPRMC,122321.000,A,5101.8371,N,01342.1089,E,0.00,,021107,,,A*78
$GPGSA,A,3,12,06,24,02,30,05,07,21,31,,,,2.1,1.2,1.7*35
$GPGSV,3,1,12,06,79,239,23,07,71,246,20,30,63,117,38,31,51,279,32*7B
$GPGGA,122350.000,5101.9136,N,01342.1118,E,1,09,1.2,133.8,M,45.9,M,,0000*55
$GPRMC,122351.000,A,5101.9168,N,01342.1124,E,10.92,7.36,021107,,,A*54
$GPGSA,A,3,12,06,24,02,30,05,07,21,31,,,,2.1,1.2,1.7*35
$GPGSV,3,1,12,06,79,239,20,07,71,246,20,30,63,117,30,31,51,279,28*7B
$GPGGA,122420.000,5101.9216,N,01342.1141,E,1,09,1.0,129.4,M,45.9,M,,0000*5D
$GPRMC,122421.000,A,5101.9216,N,01342.1141,E,0.00,,021107,,,A*7B
$GPGSA,A,3,12,06,24,02,30,05,21,31,01,,,,1.7,1.0,1.3*30
$GPGSV,3,1,12,06,80,240,25,07,72,246,,30,62,118,30,31,51,278,31*70
$GPGGA,122450.000,5101.9315,N,01342.1165,E,1,11,0.9,133.1,M,45.9,M,,0000*51
$GPRMC,122451.000,A,5101.9323,N,01342.1167,E,2.89,3.54,021107,,,A*60
$GPGSA,A,3,12,06,24,30,05,07,21,31,01,16,,,1.8,1.3,1.2*3F
$GPGSV,3,1,12,06,80,240,27,07,72,246,23,30,62,118,32,31,51,277,31*7E
$GPGGA,122520.000,5101.9031,N,01341.9058,E,1,09,1.0,139.1,M,45.9,M,,0000*5D
$GPRMC,122521.000,A,5101.9002,N,01341.8974,E,21.35,240.47,021107,,,A*57
$GPGSA,A,3,31,06,24,02,30,05,07,21,12,01,,,1.6,1.0,1.2*37
$GPGSV,3,1,12,06,80,240,36,07,72,246,38,30,62,118,28,31,51,277,26*79
$GPGGA,122550.000,5101.6982,N,01341.8095,E,1,09,1.2,168.2,M,45.9,M,,0000*51
$GPRMC,122551.000,A,5101.6934,N,01341.7980,E,30.50,236.03,021107,,,A*55
$GPGSA,A,3,31,06,24,02,30,05,07,21,12,,,,2.1,1.2,1.7*35
$GPGSV,3,1,12,06,81,240,35,07,72,247,37,30,61,118,26,31,51,277,31*7E
$GPGGA,122620.000,5101.5910,N,01341.5483,E,1,10,1.0,191.3,M,45.9,M,,0000*5E
$GPRMC,122621.000,A,5101.5910,N,01341.5483,E,0.00,,021107,,,A*74
$GPGSA,A,3,31,06,24,02,30,05,07,21,12,16,,,1.5,1.0,1.2*32
$GPGSV,3,1,12,06,81,240,37,07,72,247,39,30,61,118,27,31,51,276,32*71
$GPGGA,122650.000,5101.5323,N,01341.4954,E,1,08,1.7,205.0,M,45.9,M,,0000*56
$GPRMC,122651.000,A,5101.5309,N,01341.4992,E,8.27,116.40,021107,,,A*6C
$GPGSA,A,3,31,06,24,02,30,05,07,12,,,,,3.3,1.7,2.8*3C
$GPGSV,3,1,12,06,81,240,31,07,72,247,33,30,61,118,36,31,51,276,27*79
