$ADVER,3080,2.0
$GPRMC,163628.194,A,5023.4167,N,00734.8775,E,0.08,61.70,180408,,,A*5A
$GPGGA,163629.194,5023.4166,N,00734.8774,E,1,07,1.2,68.5,M,47.8,M,,0000*60
$GPGSA,A,3,08,07,27,10,28,26,15,,,,,,2.6,1.2,2.3*35
$GPRMC,163629.194,A,5023.4166,N,00734.8774,E,0.09,50.21,180408,,,A*5C
$GPVTG,50.21,T,,M,0.09,N,0.2,K,A*30
$GPGGA,163630.000,5023.4166,N,00734.8774,E,1,07,1.2,68.5,M,47.8,M,,0000*64
$GPGSA,A,3,08,07,27,10,28,26,15,,,,,,2.6,1.2,2.3*35
$GPGSV,3,1,12,08,70,064,42,10,64,221,39,26,40,290,44,27,38,061,44*79
$GPGSV,3,2,12,28,37,147,44,15,28,288,41,07,27,059,45,24,21,285,27*7E
$GPGSV,3,3,12,25,10,061,,17,10,134,,21,10,325,29,13,06,101,*73
$GPRMC,163630.000,A,5023.4166,N,00734.8774,E,0.10,41.79,180408,,,A*5D
$GPVTG,41.79,T,,M,0.10,N,0.2,K,A*35
$GPGGA,163631.000,5023.4165,N,00734.8774,E,1,07,1.2,68.6,M,47.8,M,,0000*65
$GPGSA,A,3,08,07,27,10,28,26,15,,,,,,2.6,1.2,2.3*35
$GPRMC,163631.000,A,5023.4165,N,00734.8774,E,0.00,41.79,180408,,,A*5E
$GPVTG,41.79,T,,M,0.00,N,0.0,K,A*36
$GPGGA,163632.000,5023.4165,N,00734.8774,E,1,07,1.2,68.6,M,47.8,M,,0000*66
$GPGSA,A,3,08,07,27,10,28,26,15,,,,,,2.6,1.2,2.3*35
$GPRMC,163632.000,A,5023.4165,N,00734.8774,E,0.00,41.79,180408,,,A*5D
$GPVTG,41.79,T,,M,0.00,N,0.0,K,A*36
$GPGGA,163633.000,5023.4165,N,00734.8774,E,1,07,1.2,68.6,M,47.8,M,,0000*67
$GPGSA,A,3,08,07,27,10,28,26,15,,,,,,2.6,1.2,2.3*35
$GPRMC,163633.000,A,5023.4165,N,00734.8774,E,0.00,41.79,180408,,,A*5C
$GPVTG,41.79,T,,M,0.00,N,0.0,K,A*36
$GPGGA,163634.000,5023.4165,N,00734.8774,E,1,07,1.2,68.6,M,47.8,M,,0000*60
$GPGSA,A,3,08,07,27,10,28,26,15,,,,,,2.6,1.2,2.3*35
$GPRMC,163634.000,A,5023.4165,N,00734.8774,E,0.00,41.79,180408,,,A*5B
$GPVTG,41.79,T,,M,0.00,N,0.0,K,A*36
$GPGGA,163635.000,5023.4165,N,00734.8774,E,1,07,1.2,68.6,M,47.8,M,,0000*61
$GPGSA,A,3,08,07,27,10,28,26,15,,,,,,2.6,1.2,2.3*35
$GPGSV,3,1,12,08,70,064,42,10,64,221,39,26,40,290,44,27,38,061,44*79
$GPGSV,3,2,12,28,37,147,39,15,28,288,41,07,27,059,45,24,21,285,30*72
$GPGSV,3,3,12,25,10,061,,17,10,134,,21,10,325,27,13,06,101,*7D
$GPRMC,163635.000,A,5023.4165,N,00734.8774,E,0.00,41.79,180408,,,A*5A
$GPVTG,41.79,T,,M,0.00,N,0.0,K,A*36
$GPGGA,163636.000,5023.4165,N,00734.8774,E,1,07,1.2,68.6,M,47.8,M,,0000*62
$GPGSA,A,3,08,07,27,10,28,26,15,,,,,,2.6,1.2,2.3*35
$GPRMC,163636.000,A,5023.4165,N,00734.8774,E,0.00,41.79,180408,,,A*59
$GPVTG,41.79,T,,M,0.00,N,0.0,K,A*36
$GPGGA,163637.000,5023.4165,N,00734.8774,E,1,07,1.2,68.6,M,47.8,M,,0000*63
$GPGSA,A,3,08,07,27,10,28,26,15,,,,,,2.6,1.2,2.3*35
$GPRMC,163637.000,A,5023.4165,N,00734.8774,E,0.00,41.79,180408,,,A*58
$GPVTG,41.79,T,,M,0.00,N,0.0,K,A*36
$GPGGA,163638.000,5023.4165,N,00734.8774,E,1,07,1.2,68.6,M,47.8,M,,0000*6C
$GPGSA,A,3,08,07,27,10,28,26,15,,,,,,2.6,1.2,2.3*35
$GPRMC,163638.000,A,5023.4165,N,00734.8774,E,0.00,41.79,180408,,,A*57
$GPVTG,41.79,T,,M,0.00,N,0.0,K,A*36
$GPGGA,163639.000,5023.4165,N,00734.8774,E,1,07,1.2,68.6,M,47.8,M,,0000*6D
$GPGSA,A,3,08,07,27,10,28,26,15,,,,,,2.6,1.2,2.3*35
$GPRMC,163639.000,A,5023.4165,N,00734.8774,E,0.00,41.79,180408,,,A*56
$GPVTG,41.79,T,,M,0.00,N,0.0,K,A*36
$GPGGA,163640.000,5023.4165,N,00734.8774,E,1,07,1.2,68.6,M,47.8,M,,0000*63
$GPGSA,A,3,08,07,27,10,28,26,15,,,,,,2.6,1.2,2.3*35
$GPGSV,3,1,12,08,70,064,42,10,64,221,38,26,40,290,43,27,38,061,45*7E
$GPGSV,3,2,12,28,37,147,44,15,28,288,41,07,27,059,45,24,21,285,31*79
$GPGSV,3,3,12,25,10,061,,17,10,134,,21,10,325,24,13,06,101,*7E
$GPRMC,163640.000,A,5023.4165,N,00734.8774,E,0.00,41.79,180408,,,A*58
$GPVTG,41.79,T,,M,0.00,N,0.0,K,A*36
$GPGGA,163641.000,5023.4165,N,00734.8774,E,1,07,1.2,68.6,M,47.8,M,,0000*62
$GPGSA,A,3,08,07,27,10,28,26,15,,,,,,2.6,1.2,2.3*35
$GPRMC,163641.000,A,5023.4165,N,00734.8774,E,0.00,41.79,180408,,,A*59
$GPVTG,41.79,T,,M,0.00,N,0.0,K,A*36
$GPGGA,163642.000,5023.4165,N,00734.8774,E,1,07,1.2,68.6,M,47.8,M,,0000*61
$GPGSA,A,3,08,07,27,10,28,26,15,,,,,,2.6,1.2,2.3*35
$GPRMC,163642.000,A,5023.4165,N,00734.8774,E,0.00,41.79,180408,,,A*5A
$GPVTG,41.79,T,,M,0.00,N,0.0,K,A*36
$GPGGA,163643.000,5023.4165,N,00734.8774,E,1,07,1.2,68.6,M,47.8,M,,0000*60
$GPGSA,A,3,08,07,27,10,28,26,15,,,,,,2.6,1.2,2.3*35
$GPRMC,163643.000,A,5023.4165,N,00734.8774,E,0.00,41.79,180408,,,A*5B
$GPVTG,41.79,T,,M,0.00,N,0.0,K,A*36
$GPGGA,163644.000,5023.4165,N,00734.8774,E,1,07,1.2,68.6,M,47.8,M,,0000*67
$GPGSA,A,3,08,07,27,10,28,26,15,,,,,,2.6,1.2,2.3*35
$GPRMC,163644.000,A,5023.4165,N,00734.8774,E,0.00,41.79,180408,,,A*5C
$GPVTG,41.79,T,,M,0.00,N,0.0,K,A*36
$GPGGA,163645.000,5023.4165,N,00734.8774,E,1,07,1.2,68.6,M,47.8,M,,0000*66
$GPGSA,A,3,08,07,27,10,28,26,15,,,,,,2.6,1.2,2.3*35
$GPGSV,3,1,12,08,70,064,42,10,64,221,33,26,40,290,43,27,38,061,45*75
$GPGSV,3,2,12,28,37,147,45,15,28,288,41,07,27,059,45,24,21,285,38*71
$GPGSV,3,3,12,25,10,061,,17,10,134,,21,10,325,27,13,06,101,*7D
$GPRMC,163645.000,A,5023.4165,N,00734.8774,E,0.00,41.79,180408,,,A*5D
$GPVTG,41.79,T,,M,0.00,N,0.0,K,A*36
$GPGGA,163646.000,5023.4165,N,00734.8774,E,1,07,1.2,68.6,M,47.8,M,,0000*65
$GPGSA,A,3,08,07,27,10,28,26,15,,,,,,2.6,1.2,2.3*35
$GPRMC,163646.000,A,5023.4165,N,00734.8774,E,0.00,41.79,180408,,,A*5E
$GPVTG,41.79,T,,M,0.00,N,0.0,K,A*36
$GPGGA,163647.000,5023.4165,N,00734.8774,E,1,07,1.2,68.6,M,47.8,M,,0000*64
$GPGSA,A,3,08,07,27,10,28,26,15,,,,,,2.6,1.2,2.3*35
$GPRMC,163647.000,A,5023.4165,N,00734.8774,E,0.00,41.79,180408,,,A*5F
$GPVTG,41.79,T,,M,0.00,N,0.0,K,A*36
$GPGGA,163648.000,5023.4165,N,00734.8775,E,2,07,1.2,70.0,M,47.8,M,,0000*66
$GPGSA,A,3,08,07,27,10,28,26,15,,,,,,2.6,1.2,2.3*35
$GPRMC,163648.000,A,5023.4165,N,00734.8775,E,0.14,80.25,180408,,,D*55
$GPVTG,80.25,T,,M,0.14,N,0.3,K,D*31
$GPGGA,163649.000,5023.4164,N,00734.8775,E,2,07,1.2,70.1,M,47.8,M,,0000*67
$GPGSA,A,3,08,07,27,10,28,26,15,,,,,,2.6,1.2,2.3*35
$GPRMC,163649.000,A,5023.4164,N,00734.8775,E,0.11,28.19,180408,,,D*5D
$GPVTG,28.19,T,,M,0.11,N,0.2,K,D*38
$GPGGA,163650.000,5023.4164,N,00734.8775,E,2,07,1.2,70.2,M,47.8,M,2.8,0000*48
$GPGSA,A,3,08,07,27,10,28,26,15,,,,,,2.6,1.2,2.3*35
$GPGSV,3,1,12,08,70,064,42,10,64,221,35,26,40,290,37,27,38,061,45*70
$GPGSV,3,2,12,28,37,146,45,15,28,288,38,07,27,059,45,24,21,285,38*7E
$GPGSV,3,3,12,25,10,061,,17,10,134,,21,10,325,28,13,05,101,*71
$GPRMC,163650.000,A,5023.4164,N,00734.8775,E,0.10,47.11,180408,,,D*55
$GPVTG,47.11,T,,M,0.10,N,0.2,K,D*38
$GPGGA,163651.000,5023.4164,N,00734.8775,E,2,07,1.2,70.4,M,47.8,M,,0000*6B
$GPGSA,A,3,08,07,27,10,28,26,15,,,,,,2.6,1.2,2.3*35
$GPRMC,163651.000,A,5023.4164,N,00734.8775,E,0.08,47.52,180408,,,D*5A
$GPVTG,47.52,T,,M,0.08,N,0.2,K,D*36
$GPGGA,163652.000,5023.4163,N,00734.8775,E,2,07,1.2,70.5,M,47.8,M,2.8,0000*4A
$GPGSA,A,3,08,07,27,10,28,26,15,,,,,,2.6,1.2,2.3*35
$GPRMC,163652.000,A,5023.4163,N,00734.8775,E,0.10,46.82,180408,,,D*5B
$GPVTG,46.82,T,,M,0.10,N,0.2,K,D*33
$GPGGA,163653.000,5023.4163,N,00734.8775,E,2,07,1.2,70.6,M,47.8,M,,0000*6C
$GPGSA,A,3,08,07,27,10,28,26,15,,,,,,2.6,1.2,2.3*35
$GPRMC,163653.000,A,5023.4163,N,00734.8775,E,0.09,36.59,180408,,,D*53
$GPVTG,36.59,T,,M,0.09,N,0.2,K,D*3A
$GPGGA,163654.000,5023.4163,N,00734.8775,E,2,07,1.2,70.7,M,47.8,M,,0000*6A
$GPGSA,A,3,08,07,27,10,28,26,15,,,,,,2.6,1.2,2.3*35
$GPRMC,163654.000,A,5023.4163,N,00734.8775,E,0.10,58.95,180408,,,D*54
$GPVTG,58.95,T,,M,0.10,N,0.2,K,D*3A
$GPGGA,163655.000,5023.4163,N,00734.8775,E,2,07,1.2,70.8,M,47.8,M,,0000*64
$GPGSA,A,3,08,07,27,10,28,26,15,,,,,,2.6,1.2,2.3*35
$GPGSV,3,1,12,08,70,064,42,10,64,221,35,26,40,290,37,27,38,061,44*71
$GPGSV,3,2,12,28,37,146,45,15,28,288,38,07,27,059,45,24,21,285,38*7E
$GPGSV,3,3,12,25,10,061,,17,10,134,,21,10,325,30,13,05,101,*78
$GPRMC,163655.000,A,5023.4163,N,00734.8775,E,0.09,44.02,180408,,,D*5E
$GPVTG,44.02,T,,M,0.09,N,0.2,K,D*31
$GPGGA,163656.000,5023.4162,N,00734.8775,E,2,07,1.2,70.9,M,47.8,M,2.8,0000*43
$GPGSA,A,3,08,07,27,10,28,26,15,,,,,,2.6,1.2,2.3*35
$GPRMC,163656.000,A,5023.4162,N,00734.8775,E,0.10,42.21,180408,,,D*53
$GPVTG,42.21,T,,M,0.10,N,0.2,K,D*3E
$GPGGA,163657.000,5023.4162,N,00734.8774,E,2,07,1.2,71.0,M,47.8,M,,0000*6F
$GPGSA,A,3,08,07,27,10,28,26,15,,,,,,2.6,1.2,2.3*35
$GPRMC,163657.000,A,5023.4162,N,00734.8774,E,0.11,45.79,180408,,,D*58
$GPVTG,45.79,T,,M,0.11,N,0.2,K,D*35
$GPGGA,163658.000,5023.4162,N,00734.8774,E,2,07,1.2,71.1,M,47.8,M,,0000*61
$GPGSA,A,3,08,07,27,10,28,26,15,,,,,,2.6,1.2,2.3*35
$GPRMC,163658.000,A,5023.4162,N,00734.8774,E,0.09,33.12,180408,,,D*52
$GPVTG,33.12,T,,M,0.09,N,0.2,K,D*30
$GPGGA,163659.000,5023.4162,N,00734.8774,E,2,07,1.2,71.2,M,47.8,M,,0000*63
$GPGSA,A,3,08,07,27,10,28,26,15,,,,,,2.6,1.2,2.3*35
$GPRMC,163659.000,A,5023.4162,N,00734.8774,E,0.10,56.42,180408,,,D*5D
$GPVTG,56.42,T,,M,0.10,N,0.2,K,D*3E
$GPGGA,163700.000,5023.4162,N,00734.8774,E,2,07,1.2,71.3,M,47.8,M,,0000*6F
$GPGSA,A,3,08,07,27,10,28,26,15,,,,,,2.6,1.2,2.3*35
$GPGSV,3,1,12,08,70,064,43,10,64,221,34,26,40,290,36,27,38,061,44*70
$GPGSV,3,2,12,28,37,146,45,15,28,288,39,07,27,059,45,24,21,285,37*70
$GPGSV,3,3,12,25,10,061,,17,10,134,,21,10,325,35,13,05,101,*7D
$GPRMC,163700.000,A,5023.4162,N,00734.8774,E,0.09,50.32,180408,,,D*59
$GPVTG,50.32,T,,M,0.09,N,0.2,K,D*37
$GPGGA,163701.000,5023.4162,N,00734.8775,E,2,07,1.2,71.4,M,47.8,M,,0000*68
$GPGSA,A,3,08,07,27,10,28,26,15,,,,,,2.6,1.2,2.3*35
$GPRMC,163701.000,A,5023.4162,N,00734.8775,E,0.15,26.02,180408,,,D*56
$GPVTG,26.02,T,,M,0.15,N,0.3,K,D*39
$GPGGA,163702.000,5023.4163,N,00734.8775,E,2,07,1.2,71.6,M,47.8,M,,0000*68
$GPGSA,A,3,08,07,27,10,28,26,15,,,,,,2.6,1.2,2.3*35
$GPRMC,163702.000,A,5023.4163,N,00734.8775,E,0.14,25.92,180408,,,D*5F
$GPVTG,25.92,T,,M,0.14,N,0.3,K,D*32
$GPGGA,163703.000,5023.4163,N,00734.8775,E,2,07,1.2,71.7,M,47.8,M,,0000*68
$GPGSA,A,3,08,07,27,10,28,26,15,,,,,,2.6,1.2,2.3*35
$GPRMC,163703.000,A,5023.4163,N,00734.8775,E,0.15,23.94,180408,,,D*5F
$GPVTG,23.94,T,,M,0.15,N,0.3,K,D*33
$GPGGA,163704.000,5023.4163,N,00734.8775,E,2,07,1.2,71.8,M,47.8,M,2.8,0000*44
$GPGSA,A,3,08,07,27,10,28,26,15,,,,,,2.6,1.2,2.3*35
$GPRMC,163704.000,A,5023.4163,N,00734.8775,E,0.14,23.56,180408,,,D*57
$GPVTG,23.56,T,,M,0.14,N,0.3,K,D*3C
$GPGGA,163705.000,5023.4163,N,00734.8775,E,2,07,1.2,72.0,M,47.8,M,,0000*6A
$GPGSA,A,3,08,07,27,10,28,26,15,,,,,,2.6,1.2,2.3*35
$GPGSV,3,1,12,08,70,064,42,10,64,221,34,26,40,290,37,27,38,061,44*70
$GPGSV,3,2,12,28,37,146,45,15,28,288,40,07,27,059,46,24,21,285,37*7D
$GPGSV,3,3,12,25,10,061,,17,10,134,,21,10,325,27,13,05,101,*7E
$GPRMC,163705.000,A,5023.4163,N,00734.8775,E,0.10,52.65,180408,,,D*54
$GPVTG,52.65,T,,M,0.10,N,0.2,K,D*3F
$GPGGA,163706.000,5023.4163,N,00734.8776,E,2,07,1.2,72.2,M,47.8,M,,0000*68
$GPGSA,A,3,08,07,27,10,28,26,15,,,,,,2.6,1.2,2.3*35
$GPRMC,163706.000,A,5023.4163,N,00734.8776,E,0.10,45.05,180408,,,D*54
$GPVTG,45.05,T,,M,0.10,N,0.2,K,D*3F
$GPGGA,163707.000,5023.4163,N,00734.8776,E,2,07,1.2,72.4,M,47.8,M,,0000*6F
$GPGSA,A,3,08,07,27,10,28,26,15,,,,,,2.6,1.2,2.3*35
$GPRMC,163707.000,A,5023.4163,N,00734.8776,E,0.10,47.05,180408,,,D*57
$GPVTG,47.05,T,,M,0.10,N,0.2,K,D*3D
$GPGGA,163708.000,5023.4163,N,00734.8776,E,2,07,1.2,72.6,M,47.8,M,2.8,0000*46
$GPGSA,A,3,08,07,27,10,28,26,15,,,,,,2.6,1.2,2.3*35
$GPRMC,163708.000,A,5023.4163,N,00734.8776,E,0.11,45.77,180408,,,D*5E
$GPVTG,45.77,T,,M,0.11,N,0.2,K,D*3B
$GPGGA,163709.000,5023.4163,N,00734.8776,E,2,07,1.2,72.8,M,47.8,M,,0000*6D
$GPGSA,A,3,08,07,27,10,28,26,15,,,,,,2.6,1.2,2.3*35
$GPRMC,163709.000,A,5023.4163,N,00734.8776,E,0.10,48.98,180408,,,D*52
$GPVTG,48.98,T,,M,0.10,N,0.2,K,D*36
$GPGGA,163710.000,5023.4163,N,00734.8776,E,2,07,1.2,72.9,M,47.8,M,,0000*64
$GPGSA,A,3,08,07,27,10,28,26,15,,,,,,2.6,1.2,2.3*35
$GPGSV,3,1,12,08,70,064,43,10,64,221,35,26,40,290,39,27,38,061,45*7F
$GPGSV,3,2,12,28,37,146,45,15,28,288,41,07,27,059,45,24,21,285,37*7F
$GPGSV,3,3,12,25,10,061,,17,10,134,,21,10,325,26,13,05,101,*7F
$GPRMC,163710.000,A,5023.4163,N,00734.8776,E,0.10,48.49,180408,,,D*56
$GPVTG,48.49,T,,M,0.10,N,0.2,K,D*3A
$GPGGA,163711.000,5023.4163,N,00734.8776,E,2,07,1.2,73.1,M,47.8,M,,0000*6C
$GPGSA,A,3,08,07,27,10,28,26,15,,,,,,2.6,1.2,2.3*35
$GPRMC,163711.000,A,5023.4163,N,00734.8776,E,0.10,44.98,180408,,,D*57
$GPVTG,44.98,T,,M,0.10,N,0.2,K,D*3A
$GPGGA,163712.000,5023.4163,N,00734.8777,E,2,07,1.2,73.3,M,47.8,M,2.8,0000*48
$GPGSA,A,3,08,07,27,10,28,26,15,,,,,,2.6,1.2,2.3*35
$GPRMC,163712.000,A,5023.4163,N,00734.8777,E,0.11,46.60,180408,,,D*51
$GPVTG,46.60,T,,M,0.11,N,0.2,K,D*3E
$GPGGA,163713.000,5023.4163,N,00734.8777,E,2,07,1.2,73.4,M,47.8,M,,0000*6A
$GPGSA,A,3,08,07,27,10,28,26,15,,,,,,2.6,1.2,2.3*35
$GPRMC,163713.000,A,5023.4163,N,00734.8777,E,0.10,45.19,180408,,,D*5C
$GPVTG,45.19,T,,M,0.10,N,0.2,K,D*32
$GPGGA,163714.000,5023.4163,N,00734.8777,E,2,07,1.2,73.6,M,47.8,M,,0000*6F
$GPGSA,A,3,08,07,27,10,28,26,15,,,,,,2.6,1.2,2.3*35
$GPRMC,163714.000,A,5023.4163,N,00734.8777,E,0.11,42.30,180408,,,D*56
$GPVTG,42.30,T,,M,0.11,N,0.2,K,D*3F
$GPGGA,163715.000,5023.4163,N,00734.8777,E,2,07,1.2,73.8,M,47.8,M,,0000*60
$GPGSA,A,3,08,07,27,10,28,26,15,,,,,,2.6,1.2,2.3*35
$GPGSV,3,1,12,08,70,064,43,10,64,221,35,26,40,290,40,27,38,061,45*71
$GPGSV,3,2,12,28,37,146,45,15,28,288,42,07,27,059,45,24,21,285,36*7D
$GPGSV,3,3,12,25,10,061,,17,10,134,,21,10,325,26,13,05,101,*7F
$GPRMC,163715.000,A,5023.4163,N,00734.8777,E,0.11,50.09,180408,,,D*5E
$GPVTG,50.09,T,,M,0.11,N,0.2,K,D*36
$GPGGA,163716.000,5023.4163,N,00734.8777,E,2,07,1.2,73.9,M,47.8,M,2.8,0000*46
$GPGSA,A,3,08,07,27,10,28,26,15,,,,,,2.6,1.2,2.3*35
$GPRMC,163716.000,A,5023.4163,N,00734.8777,E,0.10,50.06,180408,,,D*53
$GPVTG,50.06,T,,M,0.10,N,0.2,K,D*38
$GPGGA,163717.000,5023.4163,N,00734.8778,E,2,07,1.2,74.0,M,47.8,M,,0000*62
$GPGSA,A,3,08,07,27,10,28,26,15,,,,,,2.6,1.2,2.3*35
$GPRMC,163717.000,A,5023.4163,N,00734.8778,E,0.11,44.23,180408,,,D*5E
$GPVTG,44.23,T,,M,0.11,N,0.2,K,D*3B
$GPGGA,163718.000,5023.4163,N,00734.8778,E,2,07,1.2,74.2,M,47.8,M,,0000*6F
$GPGSA,A,3,08,07,27,10,28,26,15,,,,,,2.6,1.2,2.3*35
$GPRMC,163718.000,A,5023.4163,N,00734.8778,E,0.12,41.75,180408,,,D*54
$GPVTG,41.75,T,,M,0.12,N,0.2,K,D*3E
$GPGGA,163719.000,5023.4164,N,00734.8778,E,2,07,1.2,74.2,M,47.8,M,,0000*69
$GPGSA,A,3,08,07,27,10,28,26,15,,,,,,2.6,1.2,2.3*35
$GPRMC,163719.000,A,5023.4164,N,00734.8778,E,0.09,53.15,180408,,,D*5D
$GPVTG,53.15,T,,M,0.09,N,0.2,K,D*31
$GPGGA,163720.000,5023.4163,N,00734.8778,E,2,07,1.2,74.3,M,47.8,M,2.8,0000*41
$GPGSA,A,3,08,07,27,10,28,26,15,,,,,,2.6,1.2,2.3*35
$GPGSV,3,1,12,08,69,063,32,10,64,221,21,26,40,290,26,27,38,061,29*77
$GPGSV,3,2,12,28,38,146,30,15,28,288,25,07,27,059,28,24,21,285,36*7A
$GPGSV,3,3,12,17,10,134,,25,10,061,,21,10,325,23,13,05,101,*7A
$GPRMC,163720.000,A,5023.4163,N,00734.8778,E,0.76,210.62,180408,,,D*6D
$GPVTG,210.62,T,,M,0.76,N,1.4,K,D*0B
$GPGGA,163721.000,5023.4164,N,00734.8773,E,2,07,1.2,74.5,M,47.8,M,3.8,0000*4B
$GPGSA,A,3,08,07,27,10,28,26,15,,,,,,2.6,1.2,2.3*35
$GPRMC,163721.000,A,5023.4164,N,00734.8773,E,1.20,276.74,180408,,,D*65
$GPVTG,276.74,T,,M,1.20,N,2.2,K,D*0B
$GPGGA,163722.000,5023.4164,N,00734.8767,E,2,08,1.2,74.3,M,47.8,M,4.8,0000*43
$GPGSA,A,3,08,07,27,10,28,26,15,24,,,,,2.4,1.2,2.1*33
$GPRMC,163722.000,A,5023.4164,N,00734.8767,E,1.03,268.55,180408,,,D*6E
$GPVTG,268.55,T,,M,1.03,N,1.9,K,D*0E
$GPGGA,163723.000,5023.4162,N,00734.8762,E,2,08,1.2,74.5,M,47.8,M,5.8,0000*46
$GPGSA,A,3,08,07,27,10,28,26,15,24,,,,,2.4,1.2,2.1*33
$GPRMC,163723.000,A,5023.4162,N,00734.8762,E,1.49,237.26,180408,,,D*6C
$GPVTG,237.26,T,,M,1.49,N,2.8,K,D*0C
$GPGGA,163724.000,5023.4160,N,00734.8755,E,2,08,1.2,74.7,M,47.8,M,6.8,0000*46
$GPGSA,A,3,08,07,27,10,28,26,15,24,,,,,2.4,1.2,2.1*33
$GPRMC,163724.000,A,5023.4160,N,00734.8755,E,1.27,231.98,180408,,,D*66
$GPVTG,231.98,T,,M,1.27,N,2.4,K,D*0B
$GPGGA,163725.000,5023.4160,N,00734.8748,E,2,08,1.2,74.8,M,47.8,M,7.8,0000*45
$GPGSA,A,3,08,07,27,10,28,26,15,24,,,,,2.4,1.2,2.1*33
$GPGSV,3,1,12,08,69,063,28,10,64,221,32,26,40,290,31,27,38,061,34*74
$GPGSV,3,2,12,28,38,146,27,15,28,288,32,07,27,059,35,24,21,285,31*71
$GPGSV,3,3,12,17,10,134,,25,10,061,,21,10,325,23,13,05,101,*7A
$GPRMC,163725.000,A,5023.4160,N,00734.8748,E,1.74,279.71,180408,,,D*66
$GPVTG,279.71,T,,M,1.74,N,3.2,K,D*01
$GPGGA,163726.000,5023.4160,N,00734.8740,E,2,08,1.2,74.6,M,47.8,M,8.8,0000*4F
$GPGSA,A,3,08,07,27,10,28,26,15,24,,,,,2.4,1.2,2.1*33
$GPRMC,163726.000,A,5023.4160,N,00734.8740,E,1.31,274.26,180408,,,D*63
$GPVTG,274.26,T,,M,1.31,N,2.4,K,D*08
$GPGGA,163727.000,5023.4160,N,00734.8735,E,2,08,1.2,74.3,M,47.8,M,9.8,0000*48
$GPGSA,A,3,08,07,27,10,28,26,15,24,,,,,2.4,1.2,2.1*33
$GPRMC,163727.000,A,5023.4160,N,00734.8735,E,1.35,288.21,180408,,,D*60
$GPVTG,288.21,T,,M,1.35,N,2.5,K,D*09
$GPGGA,163728.000,5023.4162,N,00734.8726,E,2,08,1.2,74.5,M,47.8,M,10.8,0000*79
$GPGSA,A,3,08,07,27,10,28,26,15,24,,,,,2.4,1.2,2.1*33
$GPRMC,163728.000,A,5023.4162,N,00734.8726,E,1.87,298.97,180408,,,D*6A
$GPVTG,298.97,T,,M,1.87,N,3.5,K,D*0D
$GPGGA,163729.000,5023.4164,N,00734.8718,E,2,08,1.2,74.6,M,47.8,M,11.8,0000*71
$GPGSA,A,3,08,07,27,10,28,26,15,24,,,,,2.4,1.2,2.1*33
$GPRMC,163729.000,A,5023.4164,N,00734.8718,E,1.93,299.85,180408,,,D*67
$GPVTG,299.85,T,,M,1.93,N,3.6,K,D*09
$GPGGA,163730.000,5023.4163,N,00734.8711,E,2,08,1.2,74.7,M,47.8,M,12.8,0000*75
$GPGSA,A,3,08,07,27,10,28,26,15,24,,,,,2.4,1.2,2.1*33
$GPGSV,3,1,12,08,69,063,32,10,64,221,27,26,40,290,34,27,38,061,28*73
$GPGSV,3,2,12,28,38,146,26,15,28,288,31,07,27,059,27,24,21,285,32*73
$GPGSV,3,3,12,17,10,134,,25,10,061,,21,10,325,28,13,05,101,*71
$GPRMC,163730.000,A,5023.4163,N,00734.8711,E,1.58,314.34,180408,,,D*68
$GPVTG,314.34,T,,M,1.58,N,2.9,K,D*0E
$GPGGA,163731.000,5023.4158,N,00734.8706,E,2,08,1.2,74.5,M,47.8,M,13.8,0000*79
$GPGSA,A,3,08,07,27,10,28,26,15,24,,,,,2.4,1.2,2.1*33
$GPRMC,163731.000,A,5023.4158,N,00734.8706,E,1.31,189.79,180408,,,D*67
$GPVTG,189.79,T,,M,1.31,N,2.4,K,D*03
$GPGGA,163732.000,5023.4154,N,00734.8698,E,2,08,1.2,74.2,M,47.8,M,14.8,0000*70
$GPGSA,A,3,08,07,27,10,28,26,15,24,,,,,2.4,1.2,2.1*33
$GPRMC,163732.000,A,5023.4154,N,00734.8698,E,1.72,250.35,180408,,,D*66
$GPVTG,250.35,T,,M,1.72,N,3.2,K,D*0C
$GPGGA,163733.000,5023.4148,N,00734.8690,E,2,08,1.2,74.1,M,47.8,M,15.8,0000*76
$GPGSA,A,3,08,07,27,10,28,26,15,24,,,,,2.4,1.2,2.1*33
$GPRMC,163733.000,A,5023.4148,N,00734.8690,E,1.95,231.23,180408,,,D*6B
$GPVTG,231.23,T,,M,1.95,N,3.6,K,D*01
$GPGGA,163734.000,5023.4141,N,00734.8682,E,2,08,1.2,73.6,M,47.8,M,16.8,0000*78
$GPGSA,A,3,08,07,27,10,28,26,15,24,,,,,2.4,1.2,2.1*33
$GPRMC,163734.000,A,5023.4141,N,00734.8682,E,2.05,213.37,180408,,,D*69
$GPVTG,213.37,T,,M,2.05,N,3.8,K,D*00
$GPGGA,163735.000,5023.4132,N,00734.8677,E,2,08,1.2,72.8,M,47.8,M,17.8,0000*79
$GPGSA,A,3,08,07,27,10,28,26,15,24,,,,,2.4,1.2,2.1*33
$GPGSV,3,1,12,08,69,063,32,10,64,221,32,26,40,290,28,27,38,061,30*73
$GPGSV,3,2,12,28,38,146,24,15,28,288,31,07,27,059,28,24,21,285,28*75
$GPGSV,3,3,12,17,10,134,,25,10,061,,21,10,325,,13,05,101,*7B
$GPRMC,163735.000,A,5023.4132,N,00734.8677,E,1.55,199.31,180408,,,D*67
$GPVTG,199.31,T,,M,1.55,N,2.9,K,D*01
$GPGGA,163736.000,5023.4125,N,00734.8668,E,1,08,1.2,72.7,M,47.8,M,,0000*6E
$GPGSA,A,3,08,07,27,10,28,26,15,24,,,,,2.4,1.2,2.1*33
$GPRMC,163736.000,A,5023.4125,N,00734.8668,E,2.38,211.47,180408,,,A*63
$GPVTG,211.47,T,,M,2.38,N,4.4,K,A*05
$GPGGA,163737.000,5023.4116,N,00734.8666,E,1,08,1.2,71.4,M,47.8,M,,0000*61
$GPGSA,A,3,08,07,27,10,28,26,15,24,,,,,2.4,1.2,2.1*33
$GPRMC,163737.000,A,5023.4116,N,00734.8666,E,1.56,215.90,180408,,,A*69
$GPVTG,215.90,T,,M,1.56,N,2.9,K,A*0B
$GPGGA,163738.000,5023.4113,N,00734.8661,E,1,08,1.2,71.0,M,47.8,M,,0000*68
$GPGSA,A,3,08,07,27,10,28,26,15,24,,,,,2.4,1.2,2.1*33
$GPRMC,163738.000,A,5023.4113,N,00734.8661,E,2.07,215.48,180408,,,A*66
$GPVTG,215.48,T,,M,2.07,N,3.8,K,A*09
$GPGGA,163739.000,5023.4106,N,00734.8654,E,1,08,1.2,70.3,M,47.8,M,,0000*69
$GPGSA,A,3,08,07,27,10,28,26,15,24,,,,,2.4,1.2,2.1*33
$GPRMC,163739.000,A,5023.4106,N,00734.8654,E,2.44,203.25,180408,,,A*6E
$GPVTG,203.25,T,,M,2.44,N,4.5,K,A*08
$GPGGA,163740.000,5023.4103,N,00734.8645,E,1,08,1.2,70.3,M,47.8,M,,0000*62
$GPGSA,A,3,08,07,27,10,28,26,15,24,,,,,2.4,1.2,2.1*33
$GPGSV,3,1,12,08,69,063,32,10,64,221,32,26,40,290,28,27,38,061,31*72
$GPGSV,3,2,12,28,38,146,29,15,28,288,29,07,27,059,34,24,21,285,30*75
$GPGSV,3,3,12,17,10,134,,25,10,061,,21,10,325,34,13,05,101,*7C
$GPRMC,163740.000,A,5023.4103,N,00734.8645,E,2.19,227.77,180408,,,A*6C
$GPVTG,227.77,T,,M,2.19,N,4.1,K,A*05
$GPGGA,163741.000,5023.4101,N,00734.8638,E,1,08,1.2,70.8,M,47.8,M,,0000*60
$GPGSA,A,3,08,07,27,10,28,26,15,24,,,,,2.4,1.2,2.1*33
$GPRMC,163741.000,A,5023.4101,N,00734.8638,E,1.64,228.54,180408,,,A*62
$GPVTG,228.54,T,,M,1.64,N,3.0,K,A*04
$GPGGA,163742.000,5023.4096,N,00734.8637,E,1,08,1.2,70.6,M,47.8,M,,0000*6D
$GPGSA,A,3,08,07,27,10,28,26,15,24,,,,,2.4,1.2,2.1*33
$GPRMC,163742.000,A,5023.4096,N,00734.8637,E,0.00,228.54,180408,,,A*62
$GPVTG,228.54,T,,M,0.00,N,0.0,K,A*04
$GPGGA,163743.000,5023.4096,N,00734.8637,E,1,08,1.2,70.6,M,47.8,M,,0000*6C
$GPGSA,A,3,08,07,27,10,28,26,15,24,,,,,2.4,1.2,2.1*33
$GPRMC,163743.000,A,5023.4096,N,00734.8637,E,0.00,228.54,180408,,,A*63
$GPVTG,228.54,T,,M,0.00,N,0.0,K,A*04
$GPGGA,163744.000,5023.4096,N,00734.8637,E,1,08,1.2,70.6,M,47.8,M,,0000*6B
$GPGSA,A,3,08,07,27,10,28,26,15,24,,,,,2.4,1.2,2.1*33
$GPRMC,163744.000,A,5023.4096,N,00734.8637,E,0.00,228.54,180408,,,A*64
$GPVTG,228.54,T,,M,0.00,N,0.0,K,A*04
$GPGGA,163745.000,5023.4096,N,00734.8637,E,1,08,1.2,70.6,M,47.8,M,,0000*6A
$GPGSA,A,3,08,07,27,10,28,26,15,24,,,,,2.4,1.2,2.1*33
$GPGSV,3,1,12,08,69,063,37,10,64,221,32,26,40,290,28,27,38,061,29*7E
$GPGSV,3,2,12,28,38,146,32,15,28,288,29,07,27,059,23,24,21,285,24*7C
$GPGSV,3,3,12,17,10,134,,25,10,061,,21,10,325,27,13,05,101,*7E
$GPRMC,163745.000,A,5023.4096,N,00734.8637,E,0.00,228.54,180408,,,A*65
$GPVTG,228.54,T,,M,0.00,N,0.0,K,A*04
$GPGGA,163746.000,5023.4096,N,00734.8637,E,1,08,1.2,70.6,M,47.8,M,,0000*69
$GPGSA,A,3,08,07,27,10,28,26,15,24,,,,,2.4,1.2,2.1*33
$GPRMC,163746.000,A,5023.4096,N,00734.8637,E,0.00,228.54,180408,,,A*66
$GPVTG,228.54,T,,M,0.00,N,0.0,K,A*04
$GPGGA,163747.000,5023.4096,N,00734.8637,E,1,08,1.2,70.6,M,47.8,M,,0000*68
$GPGSA,A,3,08,07,27,10,28,26,15,24,,,,,2.4,1.2,2.1*33
$GPRMC,163747.000,A,5023.4096,N,00734.8637,E,0.00,228.54,180408,,,A*67
$GPVTG,228.54,T,,M,0.00,N,0.0,K,A*04
$GPGGA,163748.000,5023.4096,N,00734.8637,E,1,08,1.2,70.6,M,47.8,M,,0000*67
$GPGSA,A,3,08,07,27,10,28,26,15,24,,,,,2.4,1.2,2.1*33
$GPRMC,163748.000,A,5023.4096,N,00734.8637,E,0.00,228.54,180408,,,A*68
$GPVTG,228.54,T,,M,0.00,N,0.0,K,A*04
$GPGGA,163749.000,5023.4096,N,00734.8637,E,1,08,1.2,70.6,M,47.8,M,,0000*66
$GPGSA,A,3,08,07,27,10,28,26,15,24,,,,,2.4,1.2,2.1*33
$GPRMC,163749.000,A,5023.4096,N,00734.8637,E,0.00,228.54,180408,,,A*69
$GPVTG,228.54,T,,M,0.00,N,0.0,K,A*04
$GPGGA,163750.000,5023.4096,N,00734.8637,E,1,08,1.2,70.6,M,47.8,M,,0000*6E
$GPGSA,A,3,08,07,27,10,28,26,15,24,,,,,2.4,1.2,2.1*33
$GPGSV,3,1,12,08,69,063,35,10,64,221,41,26,40,290,36,27,38,061,27*79
$GPGSV,3,2,12,28,38,146,31,15,28,288,28,07,27,059,28,24,21,285,23*72
$GPGSV,3,3,12,17,10,134,,25,10,061,,21,10,325,,13,05,101,*7B
$GPRMC,163750.000,A,5023.4096,N,00734.8637,E,0.00,228.54,180408,,,A*61
$GPVTG,228.54,T,,M,0.00,N,0.0,K,A*04
$GPGGA,163751.000,5023.4096,N,00734.8637,E,1,08,1.2,70.6,M,47.8,M,,0000*6F
$GPGSA,A,3,08,07,27,10,28,26,15,24,,,,,2.4,1.2,2.1*33
$GPRMC,163751.000,A,5023.4096,N,00734.8637,E,0.00,228.54,180408,,,A*60
$GPVTG,228.54,T,,M,0.00,N,0.0,K,A*04
$GPGGA,163752.000,5023.4096,N,00734.8637,E,1,08,1.2,70.6,M,47.8,M,,0000*6C
$GPGSA,A,3,08,07,27,10,28,26,15,24,,,,,2.4,1.2,2.1*33
$GPRMC,163752.000,A,5023.4096,N,00734.8637,E,0.00,228.54,180408,,,A*63
$GPVTG,228.54,T,,M,0.00,N,0.0,K,A*04
$GPGGA,163753.000,5023.4096,N,00734.8637,E,1,08,1.2,70.6,M,47.8,M,,0000*6D
$GPGSA,A,3,08,07,27,10,28,26,15,24,,,,,2.4,1.2,2.1*33
$GPRMC,163753.000,A,5023.4096,N,00734.8637,E,0.00,228.54,180408,,,A*62
$GPVTG,228.54,T,,M,0.00,N,0.0,K,A*04
$GPGGA,163754.000,5023.4096,N,00734.8637,E,1,08,1.2,70.6,M,47.8,M,,0000*6A
$GPGSA,A,3,08,07,27,10,28,26,15,24,,,,,2.4,1.2,2.1*33
$GPRMC,163754.000,A,5023.4096,N,00734.8637,E,0.00,228.54,180408,,,A*65
$GPVTG,228.54,T,,M,0.00,N,0.0,K,A*04
$GPGGA,163755.000,5023.4096,N,00734.8637,E,1,08,1.2,70.6,M,47.8,M,,0000*6B
$GPGSA,A,3,08,07,27,10,28,26,15,24,,,,,2.4,1.2,2.1*33
$GPGSV,3,1,12,08,69,063,31,10,64,221,39,26,40,290,35,27,38,061,27*71
$GPGSV,3,2,12,28,38,146,32,15,28,288,28,07,27,059,28,24,21,285,23*71
$GPGSV,3,3,12,17,10,134,,25,10,061,,21,10,325,22,13,05,101,*7B
$GPRMC,163755.000,A,5023.4096,N,00734.8637,E,0.00,228.54,180408,,,A*64
$GPVTG,228.54,T,,M,0.00,N,0.0,K,A*04
$GPGGA,163756.000,5023.4096,N,00734.8637,E,1,08,1.2,70.6,M,47.8,M,,0000*68
$GPGSA,A,3,08,07,27,10,28,26,15,24,,,,,2.4,1.2,2.1*33
$GPRMC,163756.000,A,5023.4096,N,00734.8637,E,0.00,228.54,180408,,,A*67
$GPVTG,228.54,T,,M,0.00,N,0.0,K,A*04
$GPGGA,163757.000,5023.4096,N,00734.8637,E,1,08,1.2,70.6,M,47.8,M,,0000*69
$GPGSA,A,3,08,07,27,10,28,26,15,24,,,,,2.4,1.2,2.1*33
$GPRMC,163757.000,A,5023.4096,N,00734.8637,E,0.00,228.54,180408,,,A*66
$GPVTG,228.54,T,,M,0.00,N,0.0,K,A*04
$GPGGA,163758.000,5023.4096,N,00734.8637,E,1,08,1.2,70.6,M,47.8,M,,0000*66
$GPGSA,A,3,08,07,27,10,28,26,15,24,,,,,2.4,1.2,2.1*33
$GPRMC,163758.000,A,5023.4096,N,00734.8637,E,0.00,228.54,180408,,,A*69
$GPVTG,228.54,T,,M,0.00,N,0.0,K,A*04
$GPGGA,163759.000,5023.4096,N,00734.8637,E,1,08,1.2,70.6,M,47.8,M,,0000*67
$GPGSA,A,3,08,07,27,10,28,26,15,24,,,,,2.4,1.2,2.1*33
$GPRMC,163759.000,A,5023.4096,N,00734.8637,E,0.00,228.54,180408,,,A*68
$GPVTG,228.54,T,,M,0.00,N,0.0,K,A*04
$GPGGA,163800.000,5023.4096,N,00734.8637,E,1,08,1.2,70.6,M,47.8,M,,0000*64
$GPGSA,A,3,08,07,27,10,28,26,15,24,,,,,2.4,1.2,2.1*33
$GPGSV,3,1,12,08,69,063,31,10,64,221,37,26,40,290,32,27,38,061,27*78
$GPGSV,3,2,12,28,38,146,33,15,28,288,27,07,27,059,28,24,21,285,23*7F
$GPGSV,3,3,12,17,10,134,,25,10,061,,21,10,325,22,13,05,101,*7B
$GPRMC,163800.000,A,5023.4096,N,00734.8637,E,0.00,228.54,180408,,,A*6B
$GPVTG,228.54,T,,M,0.00,N,0.0,K,A*04
$GPGGA,163801.000,5023.4096,N,00734.8637,E,1,08,1.2,70.6,M,47.8,M,,0000*65
$GPGSA,A,3,08,07,27,10,28,26,15,24,,,,,2.4,1.2,2.1*33
$GPRMC,163801.000,A,5023.4096,N,00734.8637,E,0.00,228.54,180408,,,A*6A
$GPVTG,228.54,T,,M,0.00,N,0.0,K,A*04
$GPGGA,163802.000,5023.4096,N,00734.8637,E,1,08,1.2,70.6,M,47.8,M,,0000*66
$GPGSA,A,3,08,07,27,10,28,26,15,24,,,,,2.4,1.2,2.1*33
$GPRMC,163802.000,A,5023.4096,N,00734.8637,E,0.00,228.54,180408,,,A*69
$GPVTG,228.54,T,,M,0.00,N,0.0,K,A*04
$GPGGA,163803.000,5023.4096,N,00734.8637,E,1,08,1.2,70.6,M,47.8,M,,0000*67
$GPGSA,A,3,08,07,27,10,28,26,15,24,,,,,2.4,1.2,2.1*33
$GPRMC,163803.000,A,5023.4096,N,00734.8637,E,0.00,228.54,180408,,,A*68
$GPVTG,228.54,T,,M,0.00,N,0.0,K,A*04
$GPGGA,163804.000,5023.4096,N,00734.8637,E,1,08,1.2,70.6,M,47.8,M,,0000*60
$GPGSA,A,3,08,07,27,10,28,26,15,24,,,,,2.4,1.2,2.1*33
$GPRMC,163804.000,A,5023.4096,N,00734.8637,E,0.00,228.54,180408,,,A*6F
$GPVTG,228.54,T,,M,0.00,N,0.0,K,A*04
$GPGGA,163805.000,5023.4036,N,00734.8495,E,1,08,1.2,82.1,M,47.8,M,,0000*6B
$GPGSA,A,3,08,07,27,10,28,26,15,24,,,,,2.4,1.2,2.1*33
$GPGSV,3,1,12,08,69,063,30,10,64,221,37,26,40,290,33,27,38,061,26*79
$GPGSV,3,2,12,28,38,146,32,15,28,288,28,07,27,059,24,24,21,285,23*7D
$GPGSV,3,3,12,17,10,134,,25,10,061,14,21,10,325,21,13,05,101,*7D
$GPRMC,163805.000,A,5023.4036,N,00734.8495,E,3.21,222.37,180408,,,A*61
$GPVTG,222.37,T,,M,3.21,N,5.9,K,A*07
$GPGGA,163806.000,5023.4030,N,00734.8485,E,1,08,1.2,82.3,M,47.8,M,,0000*6D
$GPGSA,A,3,08,07,27,10,28,26,15,24,,,,,2.4,1.2,2.1*33
$GPRMC,163806.000,A,5023.4030,N,00734.8485,E,2.42,221.30,180408,,,A*65
$GPVTG,221.30,T,,M,2.42,N,4.5,K,A*0A
$GPGGA,163807.000,5023.4024,N,00734.8479,E,1,08,1.2,82.2,M,47.8,M,,0000*6B
$GPGSA,A,3,08,07,27,10,28,26,15,24,,,,,2.4,1.2,2.1*33
$GPRMC,163807.000,A,5023.4024,N,00734.8479,E,2.08,208.52,180408,,,A*63
$GPVTG,208.52,T,,M,2.08,N,3.8,K,A*01
$GPGGA,163808.000,5023.4017,N,00734.8475,E,1,08,1.2,81.6,M,47.8,M,,0000*6F
$GPGSA,A,3,08,07,27,10,28,26,15,24,,,,,2.4,1.2,2.1*33
$GPRMC,163808.000,A,5023.4017,N,00734.8475,E,1.62,204.87,180408,,,A*6B
$GPVTG,204.87,T,,M,1.62,N,3.0,K,A*02
$GPGGA,163809.000,5023.4011,N,00734.8470,E,1,08,1.2,80.8,M,47.8,M,,0000*62
$GPGSA,A,3,08,07,27,10,28,26,15,24,,,,,2.4,1.2,2.1*33
$GPRMC,163809.000,A,5023.4011,N,00734.8470,E,0.00,204.87,180408,,,A*6C
$GPVTG,204.87,T,,M,0.00,N,0.0,K,A*04
$GPGGA,163810.000,5023.4011,N,00734.8470,E,1,08,1.2,80.8,M,47.8,M,,0000*6A
$GPGSA,A,3,08,07,27,10,28,26,15,24,,,,,2.4,1.2,2.1*33
$GPGSV,3,1,12,08,69,063,31,10,64,221,37,26,40,290,33,27,38,061,27*79
$GPGSV,3,2,12,28,38,146,35,15,28,288,28,07,27,059,27,24,21,285,22*78
$GPGSV,3,3,12,17,10,134,,25,10,061,15,21,10,325,21,13,05,101,*7C
$GPRMC,163810.000,A,5023.4011,N,00734.8470,E,0.00,204.87,180408,,,A*64
$GPVTG,204.87,T,,M,0.00,N,0.0,K,A*04
$GPGGA,163811.000,5023.4002,N,00734.8457,E,1,07,1.2,81.5,M,47.8,M,,0000*6F
$GPGSA,A,3,08,07,27,10,28,26,15,,,,,,2.6,1.2,2.3*35
$GPRMC,163811.000,A,5023.4002,N,00734.8457,E,2.95,232.71,180408,,,A*60
$GPVTG,232.71,T,,M,2.95,N,5.5,K,A*06
$GPGGA,163812.000,5023.3998,N,00734.8450,E,1,06,1.3,81.9,M,47.8,M,,0000*6A
$GPGSA,A,3,08,27,10,28,26,15,,,,,,,3.0,1.3,2.6*31
$GPRMC,163812.000,A,5023.3998,N,00734.8450,E,1.88,204.05,180408,,,A*60
$GPVTG,204.05,T,,M,1.88,N,3.5,K,A*09
$GPGGA,163813.000,5023.3993,N,00734.8445,E,1,08,1.2,82.2,M,47.8,M,,0000*63
$GPGSA,A,3,08,07,27,10,28,26,15,24,,,,,2.4,1.2,2.1*33
$GPRMC,163813.000,A,5023.3993,N,00734.8445,E,2.14,198.69,180408,,,A*64
$GPVTG,198.69,T,,M,2.14,N,4.0,K,A*01
$GPGGA,163814.000,5023.3987,N,00734.8442,E,1,07,1.3,82.0,M,47.8,M,,0000*6A
$GPGSA,A,3,08,07,10,28,26,15,24,,,,,,2.4,1.3,2.1*37
$GPRMC,163814.000,A,5023.3987,N,00734.8442,E,0.00,198.69,180408,,,A*66
$GPVTG,198.69,T,,M,0.00,N,0.0,K,A*02
$GPGGA,163815.000,5023.3987,N,00734.8442,E,1,07,1.3,82.0,M,47.8,M,,0000*6B
$GPGSA,A,3,08,07,10,28,26,15,24,,,,,,2.4,1.3,2.1*37
$GPGSV,3,1,12,08,69,063,25,10,64,221,33,26,40,290,34,27,38,061,*7A
$GPGSV,3,2,12,28,38,146,35,15,28,288,39,07,27,059,26,24,21,285,27*7C
$GPGSV,3,3,12,17,10,134,,25,10,061,16,21,10,325,22,13,05,101,*7C
$GPRMC,163815.000,A,5023.3987,N,00734.8442,E,0.00,198.69,180408,,,A*67
$GPVTG,198.69,T,,M,0.00,N,0.0,K,A*02
$GPGGA,163816.000,5023.3987,N,00734.8442,E,1,07,1.3,82.0,M,47.8,M,,0000*68
$GPGSA,A,3,08,07,10,28,26,15,24,,,,,,2.4,1.3,2.1*37
$GPRMC,163816.000,A,5023.3987,N,00734.8442,E,0.00,198.69,180408,,,A*64
$GPVTG,198.69,T,,M,0.00,N,0.0,K,A*02
$GPGGA,163817.000,5023.3987,N,00734.8442,E,1,08,1.2,82.0,M,47.8,M,,0000*67
$GPGSA,A,3,08,07,27,10,28,26,15,24,,,,,2.4,1.2,2.1*33
$GPRMC,163817.000,A,5023.3987,N,00734.8442,E,0.00,198.69,180408,,,A*65
$GPVTG,198.69,T,,M,0.00,N,0.0,K,A*02
$GPGGA,163818.000,5023.3987,N,00734.8442,E,1,08,1.2,82.0,M,47.8,M,,0000*68
$GPGSA,A,3,08,07,27,10,28,26,15,24,,,,,2.4,1.2,2.1*33
$GPRMC,163818.000,A,5023.3987,N,00734.8442,E,0.00,198.69,180408,,,A*6A
$GPVTG,198.69,T,,M,0.00,N,0.0,K,A*02
$GPGGA,163819.000,5023.3987,N,00734.8442,E,1,08,1.2,82.0,M,47.8,M,,0000*69
$GPGSA,A,3,08,07,27,10,28,26,15,24,,,,,2.4,1.2,2.1*33
$GPRMC,163819.000,A,5023.3987,N,00734.8442,E,0.00,198.69,180408,,,A*6B
$GPVTG,198.69,T,,M,0.00,N,0.0,K,A*02
$GPGGA,163820.000,5023.3987,N,00734.8442,E,1,08,1.2,82.0,M,47.8,M,,0000*63
$GPGSA,A,3,08,07,27,10,28,26,15,24,,,,,2.4,1.2,2.1*33
$GPGSV,3,1,12,08,69,063,29,10,64,221,33,26,40,290,36,27,38,061,31*76
$GPGSV,3,2,12,28,38,146,32,15,28,288,36,07,27,059,31,24,21,285,39*7D
$GPGSV,3,3,12,17,10,134,,25,10,061,24,21,10,325,24,13,05,101,*7B
$GPRMC,163820.000,A,5023.3987,N,00734.8442,E,0.00,198.69,180408,,,A*61
$GPVTG,198.69,T,,M,0.00,N,0.0,K,A*02
$GPGGA,163821.000,5023.3987,N,00734.8442,E,1,08,1.2,82.0,M,47.8,M,,0000*62
$GPGSA,A,3,08,07,27,10,28,26,15,24,,,,,2.4,1.2,2.1*33
$GPRMC,163821.000,A,5023.3987,N,00734.8442,E,0.00,198.69,180408,,,A*60
$GPVTG,198.69,T,,M,0.00,N,0.0,K,A*02
$GPGGA,163822.000,5023.3987,N,00734.8442,E,1,08,1.2,82.0,M,47.8,M,,0000*61
$GPGSA,A,3,08,07,27,10,28,26,15,24,,,,,2.4,1.2,2.1*33
$GPRMC,163822.000,A,5023.3987,N,00734.8442,E,0.00,198.69,180408,,,A*63
$GPVTG,198.69,T,,M,0.00,N,0.0,K,A*02
$GPGGA,163823.000,5023.3987,N,00734.8442,E,1,08,1.2,82.0,M,47.8,M,,0000*60
$GPGSA,A,3,08,07,27,10,28,26,15,24,,,,,2.4,1.2,2.1*33
$GPRMC,163823.000,A,5023.3987,N,00734.8442,E,0.00,198.69,180408,,,A*62
$GPVTG,198.69,T,,M,0.00,N,0.0,K,A*02
$GPGGA,163824.000,5023.3987,N,00734.8442,E,1,08,1.2,82.0,M,47.8,M,,0000*67
$GPGSA,A,3,08,07,27,10,28,26,15,24,,,,,2.4,1.2,2.1*33
$GPRMC,163824.000,A,5023.3987,N,00734.8442,E,0.00,198.69,180408,,,A*65
$GPVTG,198.69,T,,M,0.00,N,0.0,K,A*02
$GPGGA,163825.000,5023.3987,N,00734.8442,E,1,08,1.2,82.0,M,47.8,M,,0000*66
$GPGSA,A,3,08,07,27,10,28,26,15,24,,,,,2.4,1.2,2.1*33
$GPGSV,3,1,12,08,69,063,35,10,64,221,34,26,40,290,29,27,38,061,32*71
$GPGSV,3,2,12,28,38,146,27,15,28,288,30,07,27,059,28,24,21,285,31*7F
$GPGSV,3,3,12,17,10,134,,25,10,061,22,21,10,325,25,13,05,101,*7C
$GPRMC,163825.000,A,5023.3987,N,00734.8442,E,0.00,198.69,180408,,,A*64
$GPVTG,198.69,T,,M,0.00,N,0.0,K,A*02
$GPGGA,163826.000,5023.3987,N,00734.8442,E,1,08,1.2,82.0,M,47.8,M,,0000*65
$GPGSA,A,3,08,07,27,10,28,26,15,24,,,,,2.4,1.2,2.1*33
$GPRMC,163826.000,A,5023.3987,N,00734.8442,E,0.00,198.69,180408,,,A*67
$GPVTG,198.69,T,,M,0.00,N,0.0,K,A*02
$GPGGA,163827.000,5023.3987,N,00734.8442,E,1,07,1.2,82.0,M,47.8,M,,0000*6B
$GPGSA,A,3,08,07,27,10,28,26,24,,,,,,2.4,1.2,2.1*37
$GPRMC,163827.000,A,5023.3987,N,00734.8442,E,0.00,198.69,180408,,,A*66
$GPVTG,198.69,T,,M,0.00,N,0.0,K,A*02
$GPGGA,163828.000,5023.3987,N,00734.8442,E,1,07,1.2,82.0,M,47.8,M,,0000*64
$GPGSA,A,3,08,07,27,10,28,26,24,,,,,,2.4,1.2,2.1*37
$GPRMC,163828.000,A,5023.3987,N,00734.8442,E,0.00,198.69,180408,,,A*69
$GPVTG,198.69,T,,M,0.00,N,0.0,K,A*02
$GPGGA,163829.000,5023.3987,N,00734.8442,E,1,08,1.2,82.0,M,47.8,M,,0000*6A
$GPGSA,A,3,08,07,27,10,28,26,15,24,,,,,2.4,1.2,2.1*33
$GPRMC,163829.000,A,5023.3987,N,00734.8442,E,0.00,198.69,180408,,,A*68
$GPVTG,198.69,T,,M,0.00,N,0.0,K,A*02
$GPGGA,163830.000,5023.3987,N,00734.8442,E,1,08,1.2,82.0,M,47.8,M,,0000*62
$GPGSA,A,3,08,07,27,10,28,26,15,24,,,,,2.4,1.2,2.1*33
$GPGSV,3,1,12,08,69,063,35,10,64,221,34,26,40,290,29,27,38,061,29*7B
$GPGSV,3,2,12,28,38,146,27,15,28,288,26,07,27,059,31,24,21,285,30*71
$GPGSV,3,3,12,17,10,134,,25,10,061,20,21,10,325,24,13,05,101,*7F
$GPRMC,163830.000,A,5023.3987,N,00734.8442,E,0.00,198.69,180408,,,A*60
$GPVTG,198.69,T,,M,0.00,N,0.0,K,A*02
$GPGGA,163831.000,5023.3987,N,00734.8442,E,1,08,1.2,82.0,M,47.8,M,,0000*63
$GPGSA,A,3,08,07,27,10,28,26,15,24,,,,,2.4,1.2,2.1*33
$GPRMC,163831.000,A,5023.3987,N,00734.8442,E,0.00,198.69,180408,,,A*61
$GPVTG,198.69,T,,M,0.00,N,0.0,K,A*02
$GPGGA,163832.000,5023.3987,N,00734.8442,E,1,08,1.2,82.0,M,47.8,M,,0000*60
$GPGSA,A,3,08,07,27,10,28,26,15,24,,,,,2.4,1.2,2.1*33
$GPRMC,163832.000,A,5023.3987,N,00734.8442,E,0.00,198.69,180408,,,A*62
$GPVTG,198.69,T,,M,0.00,N,0.0,K,A*02
$GPGGA,163833.000,5023.3987,N,00734.8442,E,1,08,1.2,82.0,M,47.8,M,,0000*61
$GPGSA,A,3,08,07,27,10,28,26,15,24,,,,,2.4,1.2,2.1*33
$GPRMC,163833.000,A,5023.3987,N,00734.8442,E,0.00,198.69,180408,,,A*63
$GPVTG,198.69,T,,M,0.00,N,0.0,K,A*02
$GPGGA,163834.000,5023.3987,N,00734.8442,E,1,08,1.2,82.0,M,47.8,M,,0000*66
$GPGSA,A,3,08,07,27,10,28,26,15,24,,,,,2.4,1.2,2.1*33
$GPRMC,163834.000,A,5023.3987,N,00734.8442,E,0.00,198.69,180408,,,A*64
$GPVTG,198.69,T,,M,0.00,N,0.0,K,A*02
$GPGGA,163835.000,5023.3987,N,00734.8442,E,1,08,1.2,82.0,M,47.8,M,,0000*67
$GPGSA,A,3,08,07,27,10,28,26,15,24,,,,,2.4,1.2,2.1*33
$GPGSV,3,1,12,08,69,063,36,10,64,221,35,26,40,290,29,27,38,061,30*71
$GPGSV,3,2,12,28,38,146,31,15,28,288,26,07,27,059,29,24,21,285,25*7B
$GPGSV,3,3,12,17,10,134,,25,10,061,18,21,10,325,23,13,05,101,*73
$GPRMC,163835.000,A,5023.3987,N,00734.8442,E,0.00,198.69,180408,,,A*65
$GPVTG,198.69,T,,M,0.00,N,0.0,K,A*02
$GPGGA,163836.000,5023.3987,N,00734.8442,E,1,08,1.2,82.0,M,47.8,M,,0000*64
$GPGSA,A,3,08,07,27,10,28,26,15,24,,,,,2.4,1.2,2.1*33
$GPRMC,163836.000,A,5023.3987,N,00734.8442,E,0.00,198.69,180408,,,A*66
$GPVTG,198.69,T,,M,0.00,N,0.0,K,A*02
$GPGGA,163837.000,5023.3987,N,00734.8442,E,1,08,1.2,82.0,M,47.8,M,,0000*65
$GPGSA,A,3,08,07,27,10,28,26,15,24,,,,,2.4,1.2,2.1*33
$GPRMC,163837.000,A,5023.3987,N,00734.8442,E,0.00,198.69,180408,,,A*67
$GPVTG,198.69,T,,M,0.00,N,0.0,K,A*02
$GPGGA,163838.000,5023.3987,N,00734.8442,E,1,08,1.2,82.0,M,47.8,M,,0000*6A
$GPGSA,A,3,08,07,27,10,28,26,15,24,,,,,2.4,1.2,2.1*33
$GPRMC,163838.000,A,5023.3987,N,00734.8442,E,0.00,198.69,180408,,,A*68
$GPVTG,198.69,T,,M,0.00,N,0.0,K,A*02
$GPGGA,163839.000,5023.3987,N,00734.8442,E,1,08,1.2,82.0,M,47.8,M,,0000*6B
$GPGSA,A,3,08,07,27,10,28,26,15,24,,,,,2.4,1.2,2.1*33
$GPRMC,163839.000,A,5023.3987,N,00734.8442,E,0.00,198.69,180408,,,A*69
$GPVTG,198.69,T,,M,0.00,N,0.0,K,A*02
$GPGGA,163840.000,5023.3987,N,00734.8442,E,1,08,1.2,82.0,M,47.8,M,,0000*65
$GPGSA,A,3,08,07,27,10,28,26,15,24,,,,,2.4,1.2,2.1*33
$GPGSV,3,1,12,08,69,063,36,10,64,221,35,26,40,290,31,27,38,061,35*7D
$GPGSV,3,2,12,28,38,146,32,15,28,288,32,07,27,059,38,24,21,285,26*7E
$GPGSV,3,3,12,17,10,134,,25,10,061,18,21,10,325,24,13,05,101,*74
$GPRMC,163840.000,A,5023.3987,N,00734.8442,E,0.00,198.69,180408,,,A*67
$GPVTG,198.69,T,,M,0.00,N,0.0,K,A*02
$GPGGA,163841.000,5023.3987,N,00734.8442,E,1,08,1.2,82.0,M,47.8,M,,0000*64
$GPGSA,A,3,08,07,27,10,28,26,15,24,,,,,2.4,1.2,2.1*33
$GPRMC,163841.000,A,5023.3987,N,00734.8442,E,0.00,198.69,180408,,,A*66
$GPVTG,198.69,T,,M,0.00,N,0.0,K,A*02
$GPGGA,163842.000,5023.3987,N,00734.8442,E,1,08,1.2,82.0,M,47.8,M,,0000*67
$GPGSA,A,3,08,07,27,10,28,26,15,24,,,,,2.4,1.2,2.1*33
$GPRMC,163842.000,A,5023.3987,N,00734.8442,E,0.00,198.69,180408,,,A*65
$GPVTG,198.69,T,,M,0.00,N,0.0,K,A*02
$GPGGA,163843.000,5023.3987,N,00734.8442,E,1,08,1.2,82.0,M,47.8,M,,0000*66
$GPGSA,A,3,08,07,27,10,28,26,15,24,,,,,2.4,1.2,2.1*33
$GPRMC,163843.000,A,5023.3987,N,00734.8442,E,0.00,198.69,180408,,,A*64
$GPVTG,198.69,T,,M,0.00,N,0.0,K,A*02
$GPGGA,163844.000,5023.3987,N,00734.8442,E,1,08,1.2,82.0,M,47.8,M,,0000*61
$GPGSA,A,3,08,07,27,10,28,26,15,24,,,,,2.4,1.2,2.1*33
$GPRMC,163844.000,A,5023.3987,N,00734.8442,E,0.00,198.69,180408,,,A*63
$GPVTG,198.69,T,,M,0.00,N,0.0,K,A*02
$GPGGA,163845.000,5023.3987,N,00734.8442,E,1,08,1.2,82.0,M,47.8,M,,0000*60
$GPGSA,A,3,08,07,27,10,28,26,15,24,,,,,2.4,1.2,2.1*33
$GPGSV,3,1,12,08,69,063,37,10,64,221,35,26,40,290,31,27,38,061,34*7D
$GPGSV,3,2,12,28,38,146,31,15,28,288,29,07,27,059,32,24,21,285,26*7D
$GPGSV,3,3,12,17,10,134,,25,10,061,18,21,10,325,24,13,05,101,*74
$GPRMC,163845.000,A,5023.3987,N,00734.8442,E,0.00,198.69,180408,,,A*62
$GPVTG,198.69,T,,M,0.00,N,0.0,K,A*02
$GPGGA,163846.000,5023.3987,N,00734.8442,E,1,08,1.2,82.0,M,47.8,M,,0000*63
$GPGSA,A,3,08,07,27,10,28,26,15,24,,,,,2.4,1.2,2.1*33
$GPRMC,163846.000,A,5023.3987,N,00734.8442,E,0.00,198.69,180408,,,A*61
$GPVTG,198.69,T,,M,0.00,N,0.0,K,A*02
$GPGGA,163847.000,5023.3987,N,00734.8442,E,1,08,1.2,82.0,M,47.8,M,,0000*62
$GPGSA,A,3,08,07,27,10,28,26,15,24,,,,,2.4,1.2,2.1*33
$GPRMC,163847.000,A,5023.3987,N,00734.8442,E,0.00,198.69,180408,,,A*60
$GPVTG,198.69,T,,M,0.00,N,0.0,K,A*02
$GPGGA,163848.000,5023.3987,N,00734.8442,E,1,08,1.2,82.0,M,47.8,M,,0000*6D
$GPGSA,A,3,08,07,27,10,28,26,15,24,,,,,2.4,1.2,2.1*33
$GPRMC,163848.000,A,5023.3987,N,00734.8442,E,0.00,198.69,180408,,,A*6F
$GPVTG,198.69,T,,M,0.00,N,0.0,K,A*02
$GPGGA,163849.000,5023.3987,N,00734.8442,E,1,08,1.2,82.0,M,47.8,M,,0000*6C
$GPGSA,A,3,08,07,27,10,28,26,15,24,,,,,2.4,1.2,2.1*33
$GPRMC,163849.000,A,5023.3987,N,00734.8442,E,0.00,198.69,180408,,,A*6E
$GPVTG,198.69,T,,M,0.00,N,0.0,K,A*02
$GPGGA,163850.000,5023.3987,N,00734.8442,E,1,08,1.2,82.0,M,47.8,M,,0000*64
$GPGSA,A,3,08,07,27,10,28,26,15,24,,,,,2.4,1.2,2.1*33
$GPGSV,3,1,12,08,69,063,38,10,64,221,35,26,40,290,30,27,38,061,34*73
$GPGSV,3,2,12,28,38,146,27,15,28,288,29,07,27,059,32,24,21,285,26*7A
$GPGSV,3,3,12,17,10,134,,25,10,061,17,21,10,325,26,13,05,101,*79
$GPRMC,163850.000,A,5023.3987,N,00734.8442,E,0.00,198.69,180408,,,A*66
$GPVTG,198.69,T,,M,0.00,N,0.0,K,A*02
$GPGGA,163851.000,5023.3987,N,00734.8442,E,1,08,1.2,82.0,M,47.8,M,,0000*65
$GPGSA,A,3,08,07,27,10,28,26,15,24,,,,,2.4,1.2,2.1*33
$GPRMC,163851.000,A,5023.3987,N,00734.8442,E,0.00,198.69,180408,,,A*67
$GPVTG,198.69,T,,M,0.00,N,0.0,K,A*02
$GPGGA,163852.000,5023.3987,N,00734.8442,E,1,08,1.2,82.0,M,47.8,M,,0000*66
$GPGSA,A,3,08,07,27,10,28,26,15,24,,,,,2.4,1.2,2.1*33
$GPRMC,163852.000,A,5023.3987,N,00734.8442,E,0.00,198.69,180408,,,A*64
$GPVTG,198.69,T,,M,0.00,N,0.0,K,A*02
$GPGGA,163853.000,5023.3987,N,00734.8442,E,1,08,1.2,82.0,M,47.8,M,,0000*67
$GPGSA,A,3,08,07,27,10,28,26,15,24,,,,,2.4,1.2,2.1*33
$GPRMC,163853.000,A,5023.3987,N,00734.8442,E,0.00,198.69,180408,,,A*65
$GPVTG,198.69,T,,M,0.00,N,0.0,K,A*02
$GPGGA,163854.000,5023.3987,N,00734.8442,E,1,08,1.2,82.0,M,47.8,M,,0000*60
$GPGSA,A,3,08,07,27,10,28,26,15,24,,,,,2.4,1.2,2.1*33
$GPRMC,163854.000,A,5023.3987,N,00734.8442,E,0.00,198.69,180408,,,A*62
$GPVTG,198.69,T,,M,0.00,N,0.0,K,A*02
$GPGGA,163855.000,5023.3987,N,00734.8442,E,1,08,1.2,82.0,M,47.8,M,,0000*61
$GPGSA,A,3,08,07,27,10,28,26,15,24,,,,,2.4,1.2,2.1*33
$GPGSV,3,1,12,08,69,063,38,10,64,221,35,26,40,290,29,27,38,061,34*7B
$GPGSV,3,2,12,28,38,146,29,15,28,288,29,07,27,059,32,24,21,285,26*74
$GPGSV,3,3,12,17,10,134,,25,10,061,,21,10,325,29,13,05,101,*70
$GPRMC,163855.000,A,5023.3987,N,00734.8442,E,0.00,198.69,180408,,,A*63
$GPVTG,198.69,T,,M,0.00,N,0.0,K,A*02
$GPGGA,163856.000,5023.3987,N,00734.8442,E,1,08,1.2,82.0,M,47.8,M,,0000*62
$GPGSA,A,3,08,07,27,10,28,26,15,24,,,,,2.4,1.2,2.1*33
$GPRMC,163856.000,A,5023.3987,N,00734.8442,E,0.00,198.69,180408,,,A*60
$GPVTG,198.69,T,,M,0.00,N,0.0,K,A*02
$GPGGA,163857.000,5023.4079,N,00734.8785,E,1,08,1.2,79.8,M,47.8,M,,0000*68
$GPGSA,A,3,08,07,27,10,28,26,15,24,,,,,2.4,1.2,2.1*33
$GPRMC,163857.000,A,5023.4079,N,00734.8785,E,2.69,29.76,180408,,,A*5E
$GPVTG,29.76,T,,M,2.69,N,5.0,K,A*3F
$GPGGA,163858.000,5023.4085,N,00734.8791,E,1,07,1.2,79.5,M,47.8,M,,0000*63
$GPGSA,A,3,08,07,27,10,28,26,24,,,,,,2.4,1.2,2.1*37
$GPRMC,163858.000,A,5023.4085,N,00734.8791,E,2.09,39.58,180408,,,A*5C
$GPVTG,39.58,T,,M,2.09,N,3.9,K,A*3B
$GPGGA,163859.000,5023.4092,N,00734.8799,E,1,07,1.2,80.2,M,47.8,M,,0000*6D
$GPGSA,A,3,08,07,27,10,28,26,24,,,,,,2.4,1.2,2.1*37
$GPRMC,163859.000,A,5023.4092,N,00734.8799,E,2.20,38.86,180408,,,A*5A
$GPVTG,38.86,T,,M,2.20,N,4.1,K,A*3D
$GPGGA,163900.000,5023.4100,N,00734.8807,E,1,07,1.2,81.1,M,47.8,M,,0000*60
$GPGSA,A,3,08,07,27,10,28,26,24,,,,,,2.4,1.2,2.1*37
$GPGSV,3,1,12,08,69,063,39,10,64,221,34,26,40,290,29,27,38,061,34*7B
$GPGSV,3,2,12,28,38,146,29,15,28,288,,07,27,059,32,24,21,285,29*70
$GPGSV,3,3,12,17,10,134,,25,10,061,,21,10,325,29,13,05,101,*70
$GPRMC,163900.000,A,5023.4100,N,00734.8807,E,0.00,38.86,180408,,,A*55
$GPVTG,38.86,T,,M,0.00,N,0.0,K,A*38
$GPGGA,163901.000,5023.4100,N,00734.8807,E,1,07,1.2,81.1,M,47.8,M,,0000*61
$GPGSA,A,3,08,07,27,10,28,26,24,,,,,,2.4,1.2,2.1*37
$GPRMC,163901.000,A,5023.4100,N,00734.8807,E,0.00,38.86,180408,,,A*54
$GPVTG,38.86,T,,M,0.00,N,0.0,K,A*38
$GPGGA,163902.000,5023.4100,N,00734.8807,E,1,07,1.2,81.1,M,47.8,M,,0000*62
$GPGSA,A,3,08,07,27,10,28,26,24,,,,,,2.4,1.2,2.1*37
$GPRMC,163902.000,A,5023.4100,N,00734.8807,E,0.00,38.86,180408,,,A*57
$GPVTG,38.86,T,,M,0.00,N,0.0,K,A*38
$GPGGA,163903.000,5023.4100,N,00734.8807,E,1,08,1.2,81.1,M,47.8,M,,0000*6C
$GPGSA,A,3,08,07,27,10,28,26,15,24,,,,,2.4,1.2,2.1*33
$GPRMC,163903.000,A,5023.4100,N,00734.8807,E,0.00,38.86,180408,,,A*56
$GPVTG,38.86,T,,M,0.00,N,0.0,K,A*38
$GPGGA,163904.000,5023.4100,N,00734.8807,E,1,08,1.2,81.1,M,47.8,M,,0000*6B
$GPGSA,A,3,08,07,27,10,28,26,15,24,,,,,2.4,1.2,2.1*33
$GPRMC,163904.000,A,5023.4100,N,00734.8807,E,0.00,38.86,180408,,,A*51
$GPVTG,38.86,T,,M,0.00,N,0.0,K,A*38
$GPGGA,163905.000,5023.4100,N,00734.8807,E,1,08,1.2,81.1,M,47.8,M,,0000*6A
$GPGSA,A,3,08,07,27,10,28,26,15,24,,,,,2.4,1.2,2.1*33
$GPGSV,3,1,12,08,69,063,39,10,64,221,34,26,40,290,32,27,38,061,33*76
$GPGSV,3,2,12,28,38,146,30,15,28,288,29,07,27,059,26,24,21,285,28*77
$GPGSV,3,3,12,17,10,134,,25,10,061,,21,10,325,21,13,05,101,*78
$GPRMC,163905.000,A,5023.4100,N,00734.8807,E,0.00,38.86,180408,,,A*50
$GPVTG,38.86,T,,M,0.00,N,0.0,K,A*38
$GPGGA,163906.000,5023.4100,N,00734.8807,E,1,08,1.2,81.1,M,47.8,M,,0000*69
$GPGSA,A,3,08,07,27,10,28,26,15,24,,,,,2.4,1.2,2.1*33
$GPRMC,163906.000,A,5023.4100,N,00734.8807,E,0.00,38.86,180408,,,A*53
$GPVTG,38.86,T,,M,0.00,N,0.0,K,A*38
$GPGGA,163907.000,5023.4100,N,00734.8807,E,1,08,1.2,81.1,M,47.8,M,,0000*68
$GPGSA,A,3,08,07,27,10,28,26,15,24,,,,,2.4,1.2,2.1*33
$GPRMC,163907.000,A,5023.4100,N,00734.8807,E,0.00,38.86,180408,,,A*52
$GPVTG,38.86,T,,M,0.00,N,0.0,K,A*38
$GPGGA,163908.000,5023.4130,N,00734.8862,E,1,08,1.2,84.5,M,47.8,M,,0000*66
$GPGSA,A,3,08,07,27,10,28,26,15,24,,,,,2.4,1.2,2.1*33
$GPRMC,163908.000,A,5023.4130,N,00734.8862,E,3.40,47.09,180408,,,A*55
$GPVTG,47.09,T,,M,3.40,N,6.3,K,A*35
$GPGGA,163909.000,5023.4135,N,00734.8862,E,1,08,1.2,83.6,M,47.8,M,,0000*66
$GPGSA,A,3,08,07,27,10,28,26,15,24,,,,,2.4,1.2,2.1*33
$GPRMC,163909.000,A,5023.4135,N,00734.8862,E,1.87,34.17,180408,,,A*53
$GPVTG,34.17,T,,M,1.87,N,3.5,K,A*34
$GPGGA,163910.000,5023.4141,N,00734.8862,E,1,08,1.2,83.1,M,47.8,M,,0000*6A
$GPGSA,A,3,08,07,27,10,28,26,15,24,,,,,2.4,1.2,2.1*33
$GPGSV,3,1,12,08,69,063,35,10,64,221,35,26,40,290,39,27,38,061,34*77
$GPGSV,3,2,12,28,38,146,32,15,28,288,40,07,27,059,19,24,21,285,37*78
$GPGSV,3,3,12,17,10,134,,25,10,061,,21,10,325,25,13,05,101,*7C
                                                                                                                              
                                                                                                                              
                                                                                                                              
                                                                                                                   