$GPGGA,065136.00,5334.1690,N,01001.9203,E,1,10,8.4,0.0,M,0.0,M,1.7,0000*79
$GPRMC,065136.00,A,5334.1690,N,01001.9203,E,000.0,000.0,311206,,*34
$GPVTG,000.0,T,,,000.0,N,000.0,K*2D
$GPGSA,A,3,08,24,10,27,28,17,26,29,,,,,2.3,1.4,1.9*37
$GPGSV,3,1,10,08,80,088,42,10,67,252,42,27,47,062,41,29,43,290,39*75
$GPGSV,3,2,10,28,31,153,43,17,27,276,38,26,22,286,31,21,10,328,*7B
$GPGSV,3,3,10,13,09,100,,24,08,219,33*76
$GPGGA,065137.00,5334.3186,N,01014.6466,E,1,10,8.4,0.0,M,0.0,M,1.7,0000*74
$GPRMC,065137.00,A,5334.3186,N,01014.6466,E,000.0,000.0,311206,,*39
$GPVTG,000.0,T,,,000.0,N,000.0,K*2D
$GPGSA,A,3,08,24,10,27,28,17,26,29,,,,,2.3,1.4,1.9*37
$GPGSV,3,1,10,08,80,088,42,10,67,252,42,27,47,062,41,29,43,290,39*75
$GPGSV,3,2,10,28,31,153,43,17,27,276,38,26,22,286,31,21,10,328,*7B
$GPGSV,3,3,10,13,09,100,,24,08,219,33*76
$GPGGA,065138.00,5336.8166,N,01019.7193,E,1,10,8.4,0.0,M,0.0,M,1.7,0000*7F
$GPRMC,065138.00,A,5336.8166,N,01019.7193,E,000.0,000.0,311206,,*32
$GPVTG,000.0,T,,,000.0,N,000.0,K*2D
$GPGSA,A,3,08,24,10,27,28,17,26,29,,,,,2.3,1.4,1.9*37
$GPGSV,3,1,10,08,80,088,42,10,67,252,42,27,47,062,41,29,43,290,39*75
$GPGSV,3,2,10,28,31,153,43,17,27,276,38,26,22,286,31,21,10,328,*7B
$GPGSV,3,3,10,13,09,100,,24,08,219,33*76
$GPGGA,065139.00,5336.9331,N,01020.4520,E,1,10,8.4,0.0,M,0.0,M,1.7,0000*7A
$GPRMC,065139.00,A,5336.9331,N,01020.4520,E,000.0,000.0,311206,,*37
$GPVTG,000.0,T,,,000.0,N,000.0,K*2D
$GPGSA,A,3,08,24,10,27,28,17,26,29,,,,,2.3,1.4,1.9*37
$GPGSV,3,1,10,08,80,088,42,10,67,252,42,27,47,062,41,29,43,290,39*75
$GPGSV,3,2,10,28,31,153,43,17,27,276,38,26,22,286,31,21,10,328,*7B
$GPGSV,3,3,10,13,09,100,,24,08,219,33*76
$GPGGA,065140.00,5337.9111,N,01021.0623,E,1,10,8.4,0.0,M,0.0,M,1.7,0000*70
$GPRMC,065140.00,A,5337.9111,N,01021.0623,E,000.0,000.0,311206,,*3D
$GPVTG,000.0,T,,,000.0,N,000.0,K*2D
$GPGSA,A,3,08,24,10,27,28,17,26,29,,,,,2.3,1.4,1.9*37
$GPGSV,3,1,10,08,80,088,42,10,67,252,42,27,47,062,41,29,43,290,39*75
$GPGSV,3,2,10,28,31,153,43,17,27,276,38,26,22,286,31,21,10,328,*7B
$GPGSV,3,3,10,13,09,100,,24,08,219,33*76
$GPGGA,065141.00,5338.0913,N,01022.9374,E,1,10,8.4,0.0,M,0.0,M,1.7,0000*70
$GPRMC,065141.00,A,5338.0913,N,01022.9374,E,000.0,000.0,311206,,*3D
$GPVTG,000.0,T,,,000.0,N,000.0,K*2D
$GPGSA,A,3,08,24,10,27,28,17,26,29,,,,,2.3,1.4,1.9*37
$GPGSV,3,1,10,08,80,088,42,10,67,252,42,27,47,062,41,29,43,290,39*75
$GPGSV,3,2,10,28,31,153,43,17,27,276,38,26,22,286,31,21,10,328,*7B
$GPGSV,3,3,10,13,09,100,,24,08,219,33*76
$GPGGA,065142.00,5338.5046,N,01024.4990,E,1,10,8.4,0.0,M,0.0,M,1.7,0000*74
$GPRMC,065142.00,A,5338.5046,N,01024.4990,E,000.0,000.0,311206,,*39
$GPVTG,000.0,T,,,000.0,N,000.0,K*2D
$GPGSA,A,3,08,24,10,27,28,17,26,29,,,,,2.3,1.4,1.9*37
$GPGSV,3,1,10,08,80,088,42,10,67,252,42,27,47,062,41,29,43,290,39*75
$GPGSV,3,2,10,28,31,153,43,17,27,276,38,26,22,286,31,21,10,328,*7B
$GPGSV,3,3,10,13,09,100,,24,08,219,33*76
$GPGGA,065143.00,5338.6114,N,01027.8089,E,1,10,8.4,0.0,M,0.0,M,1.7,0000*7E
$GPRMC,065143.00,A,5338.6114,N,01027.8089,E,000.0,000.0,311206,,*33
$GPVTG,000.0,T,,,000.0,N,000.0,K*2D
$GPGSA,A,3,08,24,10,27,28,17,26,29,,,,,2.3,1.4,1.9*37
$GPGSV,3,1,10,08,80,088,42,10,67,252,42,27,47,062,41,29,43,290,39*75
$GPGSV,3,2,10,28,31,153,43,17,27,276,38,26,22,286,31,21,10,328,*7B
$GPGSV,3,3,10,13,09,100,,24,08,219,33*76
$GPGGA,065144.00,5338.2954,N,01028.7224,E,1,10,8.4,0.0,M,0.0,M,1.7,0000*74
$GPRMC,065144.00,A,5338.2954,N,01028.7224,E,000.0,000.0,311206,,*39
$GPVTG,000.0,T,,,000.0,N,000.0,K*2D
$GPGSA,A,3,08,24,10,27,28,17,26,29,,,,,2.3,1.4,1.9*37
$GPGSV,3,1,10,08,80,088,42,10,67,252,42,27,47,062,41,29,43,290,39*75
$GPGSV,3,2,10,28,31,153,43,17,27,276,38,26,22,286,31,21,10,328,*7B
$GPGSV,3,3,10,13,09,100,,24,08,219,33*76
$GPGGA,065145.00,5337.7515,N,01029.4530,E,1,10,8.4,0.0,M,0.0,M,1.7,0000*76
$GPRMC,065145.00,A,5337.7515,N,01029.4530,E,000.0,000.0,311206,,*3B
$GPVTG,000.0,T,,,000.0,N,000.0,K*2D
$GPGSA,A,3,08,24,10,27,28,17,26,29,,,,,2.3,1.4,1.9*37
$GPGSV,3,1,10,08,80,088,42,10,67,252,42,27,47,062,41,29,43,290,39*75
$GPGSV,3,2,10,28,31,153,43,17,27,276,38,26,22,286,31,21,10,328,*7B
$GPGSV,3,3,10,13,09,100,,24,08,219,33*76
$GPGGA,065146.00,5337.0842,N,01030.4847,E,1,10,8.4,0.0,M,0.0,M,1.7,0000*78
$GPRMC,065146.00,A,5337.0842,N,01030.4847,E,000.0,000.0,311206,,*35
$GPVTG,000.0,T,,,000.0,N,000.0,K*2D
$GPGSA,A,3,08,24,10,27,28,17,26,29,,,,,2.3,1.4,1.9*37
$GPGSV,3,1,10,08,80,088,42,10,67,252,42,27,47,062,41,29,43,290,39*75
$GPGSV,3,2,10,28,31,153,43,17,27,276,38,26,22,286,31,21,10,328,*7B
$GPGSV,3,3,10,13,09,100,,24,08,219,33*76
$GPGGA,065147.00,5336.7152,N,01030.7437,E,1,10,8.4,0.0,M,0.0,M,1.7,0000*7F
$GPRMC,065147.00,A,5336.7152,N,01030.7437,E,000.0,000.0,311206,,*32
$GPVTG,000.0,T,,,000.0,N,000.0,K*2D
$GPGSA,A,3,08,24,10,27,28,17,26,29,,,,,2.3,1.4,1.9*37
$GPGSV,3,1,10,08,80,088,42,10,67,252,42,27,47,062,41,29,43,290,39*75
$GPGSV,3,2,10,28,31,153,43,17,27,276,38,26,22,286,31,21,10,328,*7B
$GPGSV,3,3,10,13,09,100,,24,08,219,33*76
$GPGGA,065148.00,5336.8074,N,01033.1066,E,1,10,8.4,0.0,M,0.0,M,1.7,0000*7F
$GPRMC,065148.00,A,5336.8074,N,01033.1066,E,000.0,000.0,311206,,*32
$GPVTG,000.0,T,,,000.0,N,000.0,K*2D
$GPGSA,A,3,08,24,10,27,28,17,26,29,,,,,2.3,1.4,1.9*37
$GPGSV,3,1,10,08,80,088,42,10,67,252,42,27,47,062,41,29,43,290,39*75
$GPGSV,3,2,10,28,31,153,43,17,27,276,38,26,22,286,31,21,10,328,*7B
$GPGSV,3,3,10,13,09,100,,24,08,219,33*76
$GPGGA,065149.00,5336.9828,N,01034.2133,E,1,10,8.4,0.0,M,0.0,M,1.7,0000*7B
$GPRMC,065149.00,A,5336.9828,N,01034.2133,E,000.0,000.0,311206,,*36
$GPVTG,000.0,T,,,000.0,N,000.0,K*2D
$GPGSA,A,3,08,24,10,27,28,17,26,29,,,,,2.3,1.4,1.9*37
$GPGSV,3,1,10,08,80,088,42,10,67,252,42,27,47,062,41,29,43,290,39*75
$GPGSV,3,2,10,28,31,153,43,17,27,276,38,26,22,286,31,21,10,328,*7B
$GPGSV,3,3,10,13,09,100,,24,08,219,33*76
$GPGGA,065150.00,5336.9773,N,01035.1533,E,1,10,8.4,0.0,M,0.0,M,1.7,0000*74
$GPRMC,065150.00,A,5336.9773,N,01035.1533,E,000.0,000.0,311206,,*39
$GPVTG,000.0,T,,,000.0,N,000.0,K*2D
$GPGSA,A,3,08,24,10,27,28,17,26,29,,,,,2.3,1.4,1.9*37
$GPGSV,3,1,10,08,80,088,42,10,67,252,42,27,47,062,41,29,43,290,39*75
$GPGSV,3,2,10,28,31,153,43,17,27,276,38,26,22,286,31,21,10,328,*7B
$GPGSV,3,3,10,13,09,100,,24,08,219,33*76
$GPGGA,065151.00,5337.0461,N,01036.1002,E,1,10,8.4,0.0,M,0.0,M,1.7,0000*79
$GPRMC,065151.00,A,5337.0461,N,01036.1002,E,000.0,000.0,311206,,*34
$GPVTG,000.0,T,,,000.0,N,000.0,K*2D
$GPGSA,A,3,08,24,10,27,28,17,26,29,,,,,2.3,1.4,1.9*37
$GPGSV,3,1,10,08,80,088,42,10,67,252,42,27,47,062,41,29,43,290,39*75
$GPGSV,3,2,10,28,31,153,43,17,27,276,38,26,22,286,31,21,10,328,*7B
$GPGSV,3,3,10,13,09,100,,24,08,219,33*76
$GPGGA,065152.00,5337.1037,N,01037.0424,E,1,10,8.4,0.0,M,0.0,M,1.7,0000*7C
$GPRMC,065152.00,A,5337.1037,N,01037.0424,E,000.0,000.0,311206,,*31
$GPVTG,000.0,T,,,000.0,N,000.0,K*2D
$GPGSA,A,3,08,24,10,27,28,17,26,29,,,,,2.3,1.4,1.9*37
$GPGSV,3,1,10,08,80,088,42,10,67,252,42,27,47,062,41,29,43,290,39*75
$GPGSV,3,2,10,28,31,153,43,17,27,276,38,26,22,286,31,21,10,328,*7B
$GPGSV,3,3,10,13,09,100,,24,08,219,33*76
$GPGGA,065153.00,5337.0737,N,01038.5381,E,1,10,8.4,0.0,M,0.0,M,1.7,0000*79
$GPRMC,065153.00,A,5337.0737,N,01038.5381,E,000.0,000.0,311206,,*34
$GPVTG,000.0,T,,,000.0,N,000.0,K*2D
$GPGSA,A,3,08,24,10,27,28,17,26,29,,,,,2.3,1.4,1.9*37
$GPGSV,3,1,10,08,80,088,42,10,67,252,42,27,47,062,41,29,43,290,39*75
$GPGSV,3,2,10,28,31,153,43,17,27,276,38,26,22,286,31,21,10,328,*7B
$GPGSV,3,3,10,13,09,100,,24,08,219,33*76
$GPGGA,065154.00,5337.3089,N,01039.6491,E,1,10,8.4,0.0,M,0.0,M,1.7,0000*7B
$GPRMC,065154.00,A,5337.3089,N,01039.6491,E,000.0,000.0,311206,,*36
$GPVTG,000.0,T,,,000.0,N,000.0,K*2D
$GPGSA,A,3,08,24,10,27,28,17,26,29,,,,,2.3,1.4,1.9*37
$GPGSV,3,1,10,08,80,088,42,10,67,252,42,27,47,062,41,29,43,290,39*75
$GPGSV,3,2,10,28,31,153,43,17,27,276,38,26,22,286,31,21,10,328,*7B
$GPGSV,3,3,10,13,09,100,,24,08,219,33*76
$GPGGA,065155.00,5338.1697,N,01042.2192,E,1,10,8.4,0.0,M,0.0,M,1.7,0000*70
$GPRMC,065155.00,A,5338.1697,N,01042.2192,E,000.0,000.0,311206,,*3D
$GPVTG,000.0,T,,,000.0,N,000.0,K*2D
$GPGSA,A,3,08,24,10,27,28,17,26,29,,,,,2.3,1.4,1.9*37
$GPGSV,3,1,10,08,80,088,42,10,67,252,42,27,47,062,41,29,43,290,39*75
$GPGSV,3,2,10,28,31,153,43,17,27,276,38,26,22,286,31,21,10,328,*7B
$GPGSV,3,3,10,13,09,100,,24,08,219,33*76
$GPGGA,065156.00,5339.7589,N,01045.5458,E,1,10,8.4,0.0,M,0.0,M,1.7,0000*7B
$GPRMC,065156.00,A,5339.7589,N,01045.5458,E,000.0,000.0,311206,,*36
$GPVTG,000.0,T,,,000.0,N,000.0,K*2D
$GPGSA,A,3,08,24,10,27,28,17,26,29,,,,,2.3,1.4,1.9*37
$GPGSV,3,1,10,08,80,088,42,10,67,252,42,27,47,062,41,29,43,290,39*75
$GPGSV,3,2,10,28,31,153,43,17,27,276,38,26,22,286,31,21,10,328,*7B
$GPGSV,3,3,10,13,09,100,,24,08,219,33*76
$GPGGA,065157.00,5341.9625,N,01045.8415,E,1,10,8.4,0.0,M,0.0,M,1.7,0000*7A
$GPRMC,065157.00,A,5341.9625,N,01045.8415,E,000.0,000.0,311206,,*37
$GPVTG,000.0,T,,,000.0,N,000.0,K*2D
$GPGSA,A,3,08,24,10,27,28,17,26,29,,,,,2.3,1.4,1.9*37
$GPGSV,3,1,10,08,80,088,42,10,67,252,42,27,47,062,41,29,43,290,39*75
$GPGSV,3,2,10,28,31,153,43,17,27,276,38,26,22,286,31,21,10,328,*7B
$GPGSV,3,3,10,13,09,100,,24,08,219,33*76
$GPGGA,065158.00,5342.7763,N,01041.8728,E,1,10,8.4,0.0,M,0.0,M,1.7,0000*72
$GPRMC,065158.00,A,5342.7763,N,01041.8728,E,000.0,000.0,311206,,*3F
$GPVTG,000.0,T,,,000.0,N,000.0,K*2D
$GPGSA,A,3,08,24,10,27,28,17,26,29,,,,,2.3,1.4,1.9*37
$GPGSV,3,1,10,08,80,088,42,10,67,252,42,27,47,062,41,29,43,290,39*75
$GPGSV,3,2,10,28,31,153,43,17,27,276,38,26,22,286,31,21,10,328,*7B
$GPGSV,3,3,10,13,09,100,,24,08,219,33*76
$GPGGA,065159.00,5344.0416,N,01038.2743,E,1,10,8.4,0.0,M,0.0,M,1.7,0000*7A
$GPRMC,065159.00,A,5344.0416,N,01038.2743,E,000.0,000.0,311206,,*37
$GPVTG,000.0,T,,,000.0,N,000.0,K*2D
$GPGSA,A,3,08,24,10,27,28,17,26,29,,,,,2.3,1.4,1.9*37
$GPGSV,3,1,10,08,80,088,42,10,67,252,42,27,47,062,41,29,43,290,39*75
$GPGSV,3,2,10,28,31,153,43,17,27,276,38,26,22,286,31,21,10,328,*7B
$GPGSV,3,3,10,13,09,100,,24,08,219,33*76
$GPGGA,065200.00,5344.9201,N,01034.2273,E,1,10,8.4,0.0,M,0.0,M,1.7,0000*76
$GPRMC,065200.00,A,5344.9201,N,01034.2273,E,000.0,000.0,311206,,*3B
$GPVTG,000.0,T,,,000.0,N,000.0,K*2D
$GPGSA,A,3,08,24,10,27,28,17,26,29,,,,,2.3,1.4,1.9*37
$GPGSV,3,1,10,08,80,088,42,10,67,252,42,27,47,062,41,29,43,290,39*75
$GPGSV,3,2,10,28,31,153,43,17,27,276,38,26,22,286,31,21,10,328,*7B
$GPGSV,3,3,10,13,09,100,,24,08,219,33*76
$GPGGA,065201.00,5344.9779,N,01031.5623,E,1,10,8.4,0.0,M,0.0,M,1.7,0000*7E
$GPRMC,065201.00,A,5344.9779,N,01031.5623,E,000.0,000.0,311206,,*33
$GPVTG,000.0,T,,,000.0,N,000.0,K*2D
$GPGSA,A,3,08,24,10,27,28,17,26,29,,,,,2.3,1.4,1.9*37
$GPGSV,3,1,10,08,80,088,42,10,67,252,42,27,47,062,41,29,43,290,39*75
$GPGSV,3,2,10,28,31,153,43,17,27,276,38,26,22,286,31,21,10,328,*7B
$GPGSV,3,3,10,13,09,100,,24,08,219,33*76
$GPGGA,065202.00,5344.1313,N,01030.4982,E,1,10,8.4,0.0,M,0.0,M,1.7,0000*79
$GPRMC,065202.00,A,5344.1313,N,01030.4982,E,000.0,000.0,311206,,*34
$GPVTG,000.0,T,,,000.0,N,000.0,K*2D
$GPGSA,A,3,08,24,10,27,28,17,26,29,,,,,2.3,1.4,1.9*37
$GPGSV,3,1,10,08,80,088,42,10,67,252,42,27,47,062,41,29,43,290,39*75
$GPGSV,3,2,10,28,31,153,43,17,27,276,38,26,22,286,31,21,10,328,*7B
$GPGSV,3,3,10,13,09,100,,24,08,219,33*76
$GPGGA,065203.00,5343.3501,N,01028.5022,E,1,10,8.4,0.0,M,0.0,M,1.7,0000*73
$GPRMC,065203.00,A,5343.3501,N,01028.5022,E,000.0,000.0,311206,,*3E
$GPVTG,000.0,T,,,000.0,N,000.0,K*2D
$GPGSA,A,3,08,24,10,27,28,17,26,29,,,,,2.3,1.4,1.9*37
$GPGSV,3,1,10,08,80,088,42,10,67,252,42,27,47,062,41,29,43,290,39*75
$GPGSV,3,2,10,28,31,153,43,17,27,276,38,26,22,286,31,21,10,328,*7B
$GPGSV,3,3,10,13,09,100,,24,08,219,33*76
$GPGGA,065204.00,5344.0068,N,01026.0822,E,1,10,8.4,0.0,M,0.0,M,1.7,0000*79
$GPRMC,065204.00,A,5344.0068,N,01026.0822,E,000.0,000.0,311206,,*34
$GPVTG,000.0,T,,,000.0,N,000.0,K*2D
$GPGSA,A,3,08,24,10,27,28,17,26,29,,,,,2.3,1.4,1.9*37
$GPGSV,3,1,10,08,80,088,42,10,67,252,42,27,47,062,41,29,43,290,39*75
$GPGSV,3,2,10,28,31,153,43,17,27,276,38,26,22,286,31,21,10,328,*7B
$GPGSV,3,3,10,13,09,100,,24,08,219,33*76
$GPGGA,065205.00,5343.2930,N,01024.2702,E,1,10,8.4,0.0,M,0.0,M,1.7,0000*74
$GPRMC,065205.00,A,5343.2930,N,01024.2702,E,000.0,000.0,311206,,*39
$GPVTG,000.0,T,,,000.0,N,000.0,K*2D
$GPGSA,A,3,08,24,10,27,28,17,26,29,,,,,2.3,1.4,1.9*37
$GPGSV,3,1,10,08,80,088,42,10,67,252,42,27,47,062,41,29,43,290,39*75
$GPGSV,3,2,10,28,31,153,43,17,27,276,38,26,22,286,31,21,10,328,*7B
$GPGSV,3,3,10,13,09,100,,24,08,219,33*76
$GPGGA,065206.00,5344.5079,N,01022.4556,E,1,10,8.4,0.0,M,0.0,M,1.7,0000*70
$GPRMC,065206.00,A,5344.5079,N,01022.4556,E,000.0,000.0,311206,,*3D
$GPVTG,000.0,T,,,000.0,N,000.0,K*2D
$GPGSA,A,3,08,24,10,27,28,17,26,29,,,,,2.3,1.4,1.9*37
$GPGSV,3,1,10,08,80,088,42,10,67,252,42,27,47,062,41,29,43,290,39*75
$GPGSV,3,2,10,28,31,153,43,17,27,276,38,26,22,286,31,21,10,328,*7B
$GPGSV,3,3,10,13,09,100,,24,08,219,33*76
$GPGGA,065207.00,5345.4194,N,01022.0152,E,1,10,8.4,0.0,M,0.0,M,1.7,0000*77
$GPRMC,065207.00,A,5345.4194,N,01022.0152,E,000.0,000.0,311206,,*3A
$GPVTG,000.0,T,,,000.0,N,000.0,K*2D
$GPGSA,A,3,08,24,10,27,28,17,26,29,,,,,2.3,1.4,1.9*37
$GPGSV,3,1,10,08,80,088,42,10,67,252,42,27,47,062,41,29,43,290,39*75
$GPGSV,3,2,10,28,31,153,43,17,27,276,38,26,22,286,31,21,10,328,*7B
$GPGSV,3,3,10,13,09,100,,24,08,219,33*76
$GPGGA,065208.00,5345.5847,N,01020.5794,E,1,10,8.4,0.0,M,0.0,M,1.7,0000*75
$GPRMC,065208.00,A,5345.5847,N,01020.5794,E,000.0,000.0,311206,,*38
$GPVTG,000.0,T,,,000.0,N,000.0,K*2D
$GPGSA,A,3,08,24,10,27,28,17,26,29,,,,,2.3,1.4,1.9*37
$GPGSV,3,1,10,08,80,088,42,10,67,252,42,27,47,062,41,29,43,290,39*75
$GPGSV,3,2,10,28,31,153,43,17,27,276,38,26,22,286,31,21,10,328,*7B
$GPGSV,3,3,10,13,09,100,,24,08,219,33*76
$GPGGA,065209.00,5345.2118,N,01018.8273,E,1,10,8.4,0.0,M,0.0,M,1.7,0000*7A
$GPRMC,065209.00,A,5345.2118,N,01018.8273,E,000.0,000.0,311206,,*37
$GPVTG,000.0,T,,,000.0,N,000.0,K*2D
$GPGSA,A,3,08,24,10,27,28,17,26,29,,,,,2.3,1.4,1.9*37
$GPGSV,3,1,10,08,80,088,42,10,67,252,42,27,47,062,41,29,43,290,39*75
$GPGSV,3,2,10,28,31,153,43,17,27,276,38,26,22,286,31,21,10,328,*7B
$GPGSV,3,3,10,13,09,100,,24,08,219,33*76
$GPGGA,065210.00,5344.5213,N,01018.9067,E,1,10,8.4,0.0,M,0.0,M,1.7,0000*7A
$GPRMC,065210.00,A,5344.5213,N,01018.9067,E,000.0,000.0,311206,,*37
$GPVTG,000.0,T,,,000.0,N,000.0,K*2D
$GPGSA,A,3,08,24,10,27,28,17,26,29,,,,,2.3,1.4,1.9*37
$GPGSV,3,1,10,08,80,088,42,10,67,252,42,27,47,062,41,29,43,290,39*75
$GPGSV,3,2,10,28,31,153,43,17,27,276,38,26,22,286,31,21,10,328,*7B
$GPGSV,3,3,10,13,09,100,,24,08,219,33*76
$GPGGA,065211.00,5344.6604,N,01019.9540,E,1,10,8.4,0.0,M,0.0,M,1.7,0000*7B
$GPRMC,065211.00,A,5344.6604,N,01019.9540,E,000.0,000.0,311206,,*36
$GPVTG,000.0,T,,,000.0,N,000.0,K*2D
$GPGSA,A,3,08,24,10,27,28,17,26,29,,,,,2.3,1.4,1.9*37
$GPGSV,3,1,10,08,80,088,42,10,67,252,42,27,47,062,41,29,43,290,39*75
$GPGSV,3,2,10,28,31,153,43,17,27,276,38,26,22,286,31,21,10,328,*7B
$GPGSV,3,3,10,13,09,100,,24,08,219,33*76
$GPGGA,065212.00,5343.7648,N,01021.6785,E,1,10,8.4,0.0,M,0.0,M,1.7,0000*79
$GPRMC,065212.00,A,5343.7648,N,01021.6785,E,000.0,000.0,311206,,*34
$GPVTG,000.0,T,,,000.0,N,000.0,K*2D
$GPGSA,A,3,08,24,10,27,28,17,26,29,,,,,2.3,1.4,1.9*37
$GPGSV,3,1,10,08,80,088,42,10,67,252,42,27,47,062,41,29,43,290,39*75
$GPGSV,3,2,10,28,31,153,43,17,27,276,38,26,22,286,31,21,10,328,*7B
$GPGSV,3,3,10,13,09,100,,24,08,219,33*76
$GPGGA,065213.00,5341.6634,N,01020.8805,E,1,10,8.4,0.0,M,0.0,M,1.7,0000*78
$GPRMC,065213.00,A,5341.6634,N,01020.8805,E,000.0,000.0,311206,,*35
$GPVTG,000.0,T,,,000.0,N,000.0,K*2D
$GPGSA,A,3,08,24,10,27,28,17,26,29,,,,,2.3,1.4,1.9*37
$GPGSV,3,1,10,08,80,088,42,10,67,252,42,27,47,062,41,29,43,290,39*75
$GPGSV,3,2,10,28,31,153,43,17,27,276,38,26,22,286,31,21,10,328,*7B
$GPGSV,3,3,10,13,09,100,,24,08,219,33*76
$GPGGA,065214.00,5340.6744,N,01020.2443,E,1,10,8.4,0.0,M,0.0,M,1.7,0000*7C
$GPRMC,065214.00,A,5340.6744,N,01020.2443,E,000.0,000.0,311206,,*31
$GPVTG,000.0,T,,,000.0,N,000.0,K*2D
$GPGSA,A,3,08,24,10,27,28,17,26,29,,,,,2.3,1.4,1.9*37
$GPGSV,3,1,10,08,80,088,42,10,67,252,42,27,47,062,41,29,43,290,39*75
$GPGSV,3,2,10,28,31,153,43,17,27,276,38,26,22,286,31,21,10,328,*7B
$GPGSV,3,3,10,13,09,100,,24,08,219,33*76
$GPGGA,065215.00,5339.8935,N,01019.1511,E,1,10,8.4,0.0,M,0.0,M,1.7,0000*7A
$GPRMC,065215.00,A,5339.8935,N,01019.1511,E,000.0,000.0,311206,,*37
$GPVTG,000.0,T,,,000.0,N,000.0,K*2D
$GPGSA,A,3,08,24,10,27,28,17,26,29,,,,,2.3,1.4,1.9*37
$GPGSV,3,1,10,08,80,088,42,10,67,252,42,27,47,062,41,29,43,290,39*75
$GPGSV,3,2,10,28,31,153,43,17,27,276,38,26,22,286,31,21,10,328,*7B
$GPGSV,3,3,10,13,09,100,,24,08,219,33*76
$GPGGA,065216.00,5338.7950,N,01018.9822,E,1,10,8.4,0.0,M,0.0,M,1.7,0000*70
$GPRMC,065216.00,A,5338.7950,N,01018.9822,E,000.0,000.0,311206,,*3D
$GPVTG,000.0,T,,,000.0,N,000.0,K*2D
$GPGSA,A,3,08,24,10,27,28,17,26,29,,,,,2.3,1.4,1.9*37
$GPGSV,3,1,10,08,80,088,42,10,67,252,42,27,47,062,41,29,43,290,39*75
$GPGSV,3,2,10,28,31,153,43,17,27,276,38,26,22,286,31,21,10,328,*7B
$GPGSV,3,3,10,13,09,100,,24,08,219,33*76
$GPGGA,065217.00,5338.4877,N,01018.9288,E,1,10,8.4,0.0,M,0.0,M,1.7,0000*7C
$GPRMC,065217.00,A,5338.4877,N,01018.9288,E,000.0,000.0,311206,,*31
$GPVTG,000.0,T,,,000.0,N,000.0,K*2D
$GPGSA,A,3,08,24,10,27,28,17,26,29,,,,,2.3,1.4,1.9*37
$GPGSV,3,1,10,08,80,088,42,10,67,252,42,27,47,062,41,29,43,290,39*75
$GPGSV,3,2,10,28,31,153,43,17,27,276,38,26,22,286,31,21,10,328,*7B
$GPGSV,3,3,10,13,09,100,,24,08,219,33*76
$GPGGA,065218.00,5337.8020,N,01017.5728,E,1,10,8.4,0.0,M,0.0,M,1.7,0000*76
$GPRMC,065218.00,A,5337.8020,N,01017.5728,E,000.0,000.0,311206,,*3B
$GPVTG,000.0,T,,,000.0,N,000.0,K*2D
$GPGSA,A,3,08,24,10,27,28,17,26,29,,,,,2.3,1.4,1.9*37
$GPGSV,3,1,10,08,80,088,42,10,67,252,42,27,47,062,41,29,43,290,39*75
$GPGSV,3,2,10,28,31,153,43,17,27,276,38,26,22,286,31,21,10,328,*7B
$GPGSV,3,3,10,13,09,100,,24,08,219,33*76
$GPGGA,065219.00,5337.0048,N,01014.2467,E,1,10,8.4,0.0,M,0.0,M,1.7,0000*7D
$GPRMC,065219.00,A,5337.0048,N,01014.2467,E,000.0,000.0,311206,,*30
$GPVTG,000.0,T,,,000.0,N,000.0,K*2D
$GPGSA,A,3,08,24,10,27,28,17,26,29,,,,,2.3,1.4,1.9*37
$GPGSV,3,1,10,08,80,088,42,10,67,252,42,27,47,062,41,29,43,290,39*75
$GPGSV,3,2,10,28,31,153,43,17,27,276,38,26,22,286,31,21,10,328,*7B
$GPGSV,3,3,10,13,09,100,,24,08,219,33*76
$GPGGA,065220.00,5336.8282,N,01009.6731,E,1,10,8.4,0.0,M,0.0,M,1.7,0000*72
$GPRMC,065220.00,A,5336.8282,N,01009.6731,E,000.0,000.0,311206,,*3F
$GPVTG,000.0,T,,,000.0,N,000.0,K*2D
$GPGSA,A,3,08,24,10,27,28,17,26,29,,,,,2.3,1.4,1.9*37
$GPGSV,3,1,10,08,80,088,42,10,67,252,42,27,47,062,41,29,43,290,39*75
$GPGSV,3,2,10,28,31,153,43,17,27,276,38,26,22,286,31,21,10,328,*7B
$GPGSV,3,3,10,13,09,100,,24,08,219,33*76
$GPGGA,065221.00,5334.1690,N,01001.9203,E,1,10,8.4,0.0,M,0.0,M,1.7,0000*7C
$GPRMC,065221.00,A,5334.1690,N,01001.9203,E,000.0,000.0,311206,,*31
$GPVTG,000.0,T,,,000.0,N,000.0,K*2D
$GPGSA,A,3,08,24,10,27,28,17,26,29,,,,,2.3,1.4,1.9*37
$GPGSV,3,1,10,08,80,088,42,10,67,252,42,27,47,062,41,29,43,290,39*75
$GPGSV,3,2,10,28,31,153,43,17,27,276,38,26,22,286,31,21,10,328,*7B
$GPGSV,3,3,10,13,09,100,,24,08,219,33*76
