$GPGGA,120335,4727.7704,N,735.6196,E,1,,,150.002,M,,M,,*79
$GPWPL,4727.7704,N,735.6196,E,Position 21106*6D
$GPRMC,120335,A,4727.7704,N,735.6196,E,,,050408,,A*58
$GPZDA,120335,05,04,08,,*47
$GPGGA,120336,4727.77628,N,735.61162,E,1,,,150.002,M,,M,,*78
$GPWPL,4727.77628,N,735.61162,E,Position 21107*6E
$GPRMC,120336,A,4727.77628,N,735.61162,E,,,050408,,A*59
$GPZDA,120336,05,04,08,,*44
$GPGGA,120337,4727.77172,N,735.61264,E,1,,,150.45,M,,M,,*47
$GPWPL,4727.77172,N,735.61264,E,Position 21108*6C
$GPRMC,120337,A,4727.77172,N,735.61264,E,,,050408,,A*55
$GPZDA,120337,05,04,08,,*45
$GPGGA,120338,4727.77046,N,735.61348,E,1,,,150.808,M,,M,,*70
$GPWPL,4727.77046,N,735.61348,E,Position 21109*64
$GPRMC,120338,A,4727.77046,N,735.61348,E,,,050408,,A*53
$GPZDA,120338,05,04,08,,*4A
$GPGGA,120339,4727.7683,N,735.61276,E,1,,,150.891,M,,M,,*45
$GPWPL,4727.7683,N,735.61276,E,Position 21110*58
$GPRMC,120339,A,4727.7683,N,735.61276,E,,,050408,,A*66
$GPZDA,120339,05,04,08,,*4B
$GPGGA,120340,4727.76794,N,735.61132,E,1,,,151.028,M,,M,,*72
$GPWPL,4727.76794,N,735.61132,E,Position 21111*6B
$GPRMC,120340,A,4727.76794,N,735.61132,E,,,050408,,A*5A
$GPZDA,120340,05,04,08,,*45
$GPGGA,120341,4727.76644,N,735.61054,E,1,,,151.437,M,,M,,*74
$GPWPL,4727.76644,N,735.61054,E,Position 21112*65
$GPRMC,120341,A,4727.76644,N,735.61054,E,,,050408,,A*56
$GPZDA,120341,05,04,08,,*44
$GPGGA,120342,4727.7647,N,735.61048,E,1,,,151.52,M,,M,,*78
$GPWPL,4727.7647,N,735.61048,E,Position 21113*5C
$GPRMC,120342,A,4727.7647,N,735.61048,E,,,050408,,A*6D
$GPZDA,120342,05,04,08,,*47
$GPGGA,120343,4727.76308,N,735.61006,E,1,,,151.668,M,,M,,*74
$GPWPL,4727.76308,N,735.61006,E,Position 21114*69
$GPRMC,120343,A,4727.76308,N,735.61006,E,,,050408,,A*5E
$GPZDA,120343,05,04,08,,*46
$GPGGA,120344,4727.76164,N,735.60952,E,1,,,151.688,M,,M,,*7C
$GPWPL,4727.76164,N,735.60952,E,Position 21115*69
$GPRMC,120344,A,4727.76164,N,735.60952,E,,,050408,,A*58
$GPZDA,120344,05,04,08,,*41
$GPGGA,120345,4727.7605,N,735.60826,E,1,,,151.465,M,,M,,*48
$GPWPL,4727.7605,N,735.60826,E,Position 21116*5E
$GPRMC,120345,A,4727.7605,N,735.60826,E,,,050408,,A*6D
$GPZDA,120345,05,04,08,,*40
$GPGGA,120346,4727.75942,N,735.60778,E,1,,,151.279,M,,M,,*7D
$GPWPL,4727.75942,N,735.60778,E,Position 21117*62
$GPRMC,120346,A,4727.75942,N,735.60778,E,,,050408,,A*53
$GPZDA,120346,05,04,08,,*43
$GPGGA,120347,4727.7578,N,735.6082,E,1,,,151.177,M,,M,,*73
$GPWPL,4727.7578,N,735.6082,E,Position 21118*6F
$GPRMC,120347,A,4727.7578,N,735.6082,E,,,050408,,A*50
$GPZDA,120347,05,04,08,,*42
$GPGGA,120348,4727.7563,N,735.60778,E,1,,,151.061,M,,M,,*42
$GPWPL,4727.7563,N,735.60778,E,Position 21119*56
$GPRMC,120348,A,4727.7563,N,735.60778,E,,,050408,,A*67
$GPZDA,120348,05,04,08,,*4D
$GPGGA,120349,4727.75504,N,735.60688,E,1,,,150.993,M,,M,,*7C
$GPWPL,4727.75504,N,735.60688,E,Position 21120*66
$GPRMC,120349,A,4727.75504,N,735.60688,E,,,050408,,A*5C
$GPZDA,120349,05,04,08,,*4C
$GPGGA,120350,4727.75384,N,735.60562,E,1,,,150.969,M,,M,,*78
$GPWPL,4727.75384,N,735.60562,E,Position 21121*6E
$GPRMC,120350,A,4727.75384,N,735.60562,E,,,050408,,A*5D
$GPZDA,120350,05,04,08,,*44
$GPGGA,120351,4727.75258,N,735.60436,E,1,,,150.866,M,,M,,*77
$GPWPL,4727.75258,N,735.60436,E,Position 21122*6D
$GPRMC,120351,A,4727.75258,N,735.60436,E,,,050408,,A*5C
$GPZDA,120351,05,04,08,,*45
$GPGGA,120352,4727.75108,N,735.6034,E,1,,,150.942,M,,M,,*43
$GPWPL,4727.75108,N,735.6034,E,Position 21123*5C
$GPRMC,120352,A,4727.75108,N,735.6034,E,,,050408,,A*6F
$GPZDA,120352,05,04,08,,*46
$GPGGA,120353,4727.85242,N,735.5575,E,1,,,393.356,M,,M,,*41
$GPWPL,4727.85242,N,735.5575,E,Position 21124*5A
$GPRMC,120353,A,4727.85242,N,735.5575,E,,,050408,,A*6F
$GPZDA,120353,05,04,08,,*47
$GPGGA,120354,4727.8526,N,735.5566,E,1,,,391.569,M,,M,,*7C
$GPWPL,4727.8526,N,735.5566,E,Position 21125*69
$GPRMC,120354,A,4727.8526,N,735.5566,E,,,050408,,A*5A
$GPZDA,120354,05,04,08,,*40
$GPGGA,120355,4727.85218,N,735.5548,E,1,,,391.535,M,,M,,*47
$GPWPL,4727.85218,N,735.5548,E,Position 21126*59
$GPRMC,120355,A,4727.85218,N,735.5548,E,,,050408,,A*68
$GPZDA,120355,05,04,08,,*41
$GPGGA,120356,4727.8511,N,735.55396,E,1,,,390.54,M,,M,,*7C
$GPWPL,4727.8511,N,735.55396,E,Position 21127*53
$GPRMC,120356,A,4727.8511,N,735.55396,E,,,050408,,A*60
$GPZDA,120356,05,04,08,,*42
$GPGGA,120357,4727.84882,N,735.5533,E,1,,,388.23,M,,M,,*7B
$GPWPL,4727.84882,N,735.5533,E,Position 21128*53
$GPRMC,120357,A,4727.84882,N,735.5533,E,,,050408,,A*6E
$GPZDA,120357,05,04,08,,*43
$GPGGA,120358,4727.84786,N,735.55222,E,1,,,388.201,M,,M,,*7F
$GPWPL,4727.84786,N,735.55222,E,Position 21129*6B
$GPRMC,120358,A,4727.84786,N,735.55222,E,,,050408,,A*58
$GPZDA,120358,05,04,08,,*4C
$GPGGA,120359,4727.84642,N,735.55126,E,1,,,386.739,M,,M,,*70
$GPWPL,4727.84642,N,735.55126,E,Position 21130*6D
$GPRMC,120359,A,4727.84642,N,735.55126,E,,,050408,,A*57
$GPZDA,120359,05,04,08,,*4D
$GPGGA,120400,4727.8451,N,735.55006,E,1,,,385.356,M,,M,,*42
$GPWPL,4727.8451,N,735.55006,E,Position 21131*5B
$GPRMC,120400,A,4727.8451,N,735.55006,E,,,050408,,A*6B
$GPZDA,120400,05,04,08,,*46
$GPGGA,120401,4727.84414,N,735.54874,E,1,,,384.766,M,,M,,*7C
$GPWPL,4727.84414,N,735.54874,E,Position 21132*61
$GPRMC,120401,A,4727.84414,N,735.54874,E,,,050408,,A*53
$GPZDA,120401,05,04,08,,*47
$GPGGA,120402,4727.84288,N,735.54742,E,1,,,384.249,M,,M,,*7E
$GPWPL,4727.84288,N,735.54742,E,Position 21133*69
$GPRMC,120402,A,4727.84288,N,735.54742,E,,,050408,,A*59
$GPZDA,120402,05,04,08,,*44
$GPGGA,120403,4727.84174,N,735.54616,E,1,,,382.863,M,,M,,*7B
$GPWPL,4727.84174,N,735.54616,E,Position 21134*6E
$GPRMC,120403,A,4727.84174,N,735.54616,E,,,050408,,A*58
$GPZDA,120403,05,04,08,,*45
$GPGGA,120404,4727.84042,N,735.5449,E,1,,,382.344,M,,M,,*4A
$GPWPL,4727.84042,N,735.5449,E,Position 21135*57
$GPRMC,120404,A,4727.84042,N,735.5449,E,,,050408,,A*67
$GPZDA,120404,05,04,08,,*42
$GPGGA,120405,4727.83928,N,735.54358,E,1,,,382.302,M,,M,,*78
$GPWPL,4727.83928,N,735.54358,E,Position 21136*65
$GPRMC,120405,A,4727.83928,N,735.54358,E,,,050408,,A*57
$GPZDA,120405,05,04,08,,*43
$GPGGA,120406,4727.83844,N,735.54196,E,1,,,382.146,M,,M,,*72
$GPWPL,4727.83844,N,735.54196,E,Position 21137*6F
$GPRMC,120406,A,4727.83844,N,735.54196,E,,,050408,,A*5F
$GPZDA,120406,05,04,08,,*40
$GPGGA,120407,4727.83736,N,735.54058,E,1,,,381.453,M,,M,,*78
$GPWPL,4727.83736,N,735.54058,E,Position 21138*69
$GPRMC,120407,A,4727.83736,N,735.54058,E,,,050408,,A*57
$GPZDA,120407,05,04,08,,*41
$GPGGA,120408,4727.8361,N,735.5392,E,1,,,380.984,M,,M,,*75
$GPWPL,4727.8361,N,735.5392,E,Position 21139*6C
$GPRMC,120408,A,4727.8361,N,735.5392,E,,,050408,,A*5C
$GPZDA,120408,05,04,08,,*4E
$GPGGA,120409,4727.83508,N,735.53794,E,1,,,380.455,M,,M,,*7E
$GPWPL,4727.83508,N,735.53794,E,Position 21140*69
$GPRMC,120409,A,4727.83508,N,735.53794,E,,,050408,,A*56
$GPZDA,120409,05,04,08,,*4F
$GPGGA,120410,4727.834,N,735.53656,E,1,,,380.669,M,,M,,*7D
$GPWPL,4727.834,N,735.53656,E,Position 21141*6E
$GPRMC,120410,A,4727.834,N,735.53656,E,,,050408,,A*58
$GPZDA,120410,05,04,08,,*47
$GPGGA,120411,4727.83292,N,735.53566,E,1,,,381.012,M,,M,,*7A
$GPWPL,4727.83292,N,735.53566,E,Position 21142*60
$GPRMC,120411,A,4727.83292,N,735.53566,E,,,050408,,A*54
$GPZDA,120411,05,04,08,,*46
$GPGGA,120412,4727.83196,N,735.53434,E,1,,,381.088,M,,M,,*7B
$GPWPL,4727.83196,N,735.53434,E,Position 21143*60
$GPRMC,120412,A,4727.83196,N,735.53434,E,,,050408,,A*56
$GPZDA,120412,05,04,08,,*45
$GPGGA,120413,4727.83106,N,735.53302,E,1,,,381.243,M,,M,,*74
$GPWPL,4727.83106,N,735.53302,E,Position 21144*6C
$GPRMC,120413,A,4727.83106,N,735.53302,E,,,050408,,A*5C
$GPZDA,120413,05,04,08,,*44
$GPGGA,120414,4727.82998,N,735.53164,E,1,,,381.87,M,,M,,*45
$GPWPL,4727.82998,N,735.53164,E,Position 21145*61
$GPRMC,120414,A,4727.82998,N,735.53164,E,,,050408,,A*57
$GPZDA,120414,05,04,08,,*43
$GPGGA,120415,4727.82896,N,735.53026,E,1,,,382.045,M,,M,,*71
$GPWPL,4727.82896,N,735.53026,E,Position 21146*6A
$GPRMC,120415,A,4727.82896,N,735.53026,E,,,050408,,A*5E
$GPZDA,120415,05,04,08,,*42
$GPGGA,120416,4727.82782,N,735.52924,E,1,,,382.288,M,,M,,*71
$GPWPL,4727.82782,N,735.52924,E,Position 21147*6B
$GPRMC,120416,A,4727.82782,N,735.52924,E,,,050408,,A*5D
$GPZDA,120416,05,04,08,,*41
$GPGGA,120417,4727.82638,N,735.52804,E,1,,,381.571,M,,M,,*71
$GPWPL,4727.82638,N,735.52804,E,Position 21148*67
$GPRMC,120417,A,4727.82638,N,735.52804,E,,,050408,,A*5F
$GPZDA,120417,05,04,08,,*40
$GPGGA,120418,4727.825,N,735.52678,E,1,,,381.182,M,,M,,*7B
$GPWPL,4727.825,N,735.52678,E,Position 21149*6B
$GPRMC,120418,A,4727.825,N,735.52678,E,,,050408,,A*5D
$GPZDA,120418,05,04,08,,*4F
$GPGGA,120419,4727.82362,N,735.52558,E,1,,,381.098,M,,M,,*73
$GPWPL,4727.82362,N,735.52558,E,Position 21150*60
$GPRMC,120419,A,4727.82362,N,735.52558,E,,,050408,,A*5F
$GPZDA,120419,05,04,08,,*4E
$GPGGA,120420,4727.82212,N,735.52468,E,1,,,381.044,M,,M,,*7C
$GPWPL,4727.82212,N,735.52468,E,Position 21151*65
$GPRMC,120420,A,4727.82212,N,735.52468,E,,,050408,,A*51
$GPZDA,120420,05,04,08,,*44
$GPGGA,120421,4727.8208,N,735.52384,E,1,,,381.189,M,,M,,*41
$GPWPL,4727.8208,N,735.52384,E,Position 21152*5A
$GPRMC,120421,A,4727.8208,N,735.52384,E,,,050408,,A*6C
$GPZDA,120421,05,04,08,,*45
$GPGGA,120422,4727.81948,N,735.52276,E,1,,,381.442,M,,M,,*72
$GPWPL,4727.81948,N,735.52276,E,Position 21153*69
$GPRMC,120422,A,4727.81948,N,735.52276,E,,,050408,,A*5D
$GPZDA,120422,05,04,08,,*46
$GPGGA,120423,4727.81828,N,735.52162,E,1,,,382.006,M,,M,,*75
$GPWPL,4727.81828,N,735.52162,E,Position 21154*6F
$GPRMC,120423,A,4727.81828,N,735.52162,E,,,050408,,A*5D
$GPZDA,120423,05,04,08,,*47
$GPGGA,120424,4727.81666,N,735.52066,E,1,,,382.004,M,,M,,*71
$GPWPL,4727.81666,N,735.52066,E,Position 21155*6F
$GPRMC,120424,A,4727.81666,N,735.52066,E,,,050408,,A*5B
$GPZDA,120424,05,04,08,,*40
$GPGGA,120425,4727.81534,N,735.51982,E,1,,,381.845,M,,M,,*7A
$GPWPL,4727.81534,N,735.51982,E,Position 21156*68
$GPRMC,120425,A,4727.81534,N,735.51982,E,,,050408,,A*5E
$GPZDA,120425,05,04,08,,*41
$GPGGA,120426,4727.8139,N,735.51922,E,1,,,381.834,M,,M,,*4D
$GPWPL,4727.8139,N,735.51922,E,Position 21157*5B
$GPRMC,120426,A,4727.8139,N,735.51922,E,,,050408,,A*6F
$GPZDA,120426,05,04,08,,*42
$GPGGA,120427,4727.81264,N,735.5185,E,1,,,381.882,M,,M,,*4F
$GPWPL,4727.81264,N,735.5185,E,Position 21158*5A
$GPRMC,120427,A,4727.81264,N,735.5185,E,,,050408,,A*60
$GPZDA,120427,05,04,08,,*43
$GPGGA,120428,4727.81132,N,735.5176,E,1,,,382.388,M,,M,,*4E
$GPWPL,4727.81132,N,735.5176,E,Position 21159*57
$GPRMC,120428,A,4727.81132,N,735.5176,E,,,050408,,A*63
$GPZDA,120428,05,04,08,,*4C
$GPGGA,120430,4727.80964,N,735.51694,E,1,,,382.356,M,,M,,*74
$GPWPL,4727.80964,N,735.51694,E,Position 21160*6D
$GPRMC,120430,A,4727.80964,N,735.51694,E,,,050408,,A*5A
$GPZDA,120430,05,04,08,,*45
$GPGGA,120431,4727.80616,N,735.51664,E,1,,,382.35,M,,M,,*46
$GPWPL,4727.80616,N,735.51664,E,Position 21161*69
$GPRMC,120431,A,4727.80616,N,735.51664,E,,,050408,,A*5E
$GPZDA,120431,05,04,08,,*44
$GPGGA,120432,4727.80526,N,735.51586,E,1,,,382.893,M,,M,,*7E
$GPWPL,4727.80526,N,735.51586,E,Position 21162*65
$GPRMC,120432,A,4727.80526,N,735.51586,E,,,050408,,A*52
$GPZDA,120432,05,04,08,,*47
$GPGGA,120433,4727.80382,N,735.51574,E,1,,,383.143,M,,M,,*7F
$GPWPL,4727.80382,N,735.51574,E,Position 21163*61
$GPRMC,120433,A,4727.80382,N,735.51574,E,,,050408,,A*56
$GPZDA,120433,05,04,08,,*46
$GPGGA,120434,4727.8028,N,735.51538,E,1,,,383.491,M,,M,,*49
$GPWPL,4727.8028,N,735.51538,E,Position 21164*5D
$GPRMC,120434,A,4727.8028,N,735.51538,E,,,050408,,A*6A
$GPZDA,120434,05,04,08,,*41
$GPGGA,120435,4727.80154,N,735.51544,E,1,,,383.282,M,,M,,*7D
$GPWPL,4727.80154,N,735.51544,E,Position 21165*6D
$GPRMC,120435,A,4727.80154,N,735.51544,E,,,050408,,A*5A
$GPZDA,120435,05,04,08,,*40
$GPGGA,120436,4727.80076,N,735.51478,E,1,,,383.981,M,,M,,*79
$GPWPL,4727.80076,N,735.51478,E,Position 21166*61
$GPRMC,120436,A,4727.80076,N,735.51478,E,,,050408,,A*56
$GPZDA,120436,05,04,08,,*43
$GPGGA,120437,4727.79938,N,735.51442,E,1,,,383.942,M,,M,,*7B
$GPWPL,4727.79938,N,735.51442,E,Position 21167*6C
$GPRMC,120437,A,4727.79938,N,735.51442,E,,,050408,,A*5B
$GPZDA,120437,05,04,08,,*42
$GPGGA,120438,4727.79788,N,735.51418,E,1,,,383.984,M,,M,,*74
$GPWPL,4727.79788,N,735.51418,E,Position 21168*69
$GPRMC,120438,A,4727.79788,N,735.51418,E,,,050408,,A*5E
$GPZDA,120438,05,04,08,,*4D
$GPGGA,120439,4727.79656,N,735.51376,E,1,,,384.019,M,,M,,*72
$GPWPL,4727.79656,N,735.51376,E,Position 21169*65
$GPRMC,120439,A,4727.79656,N,735.51376,E,,,050408,,A*52
$GPZDA,120439,05,04,08,,*4C
$GPGGA,120440,4727.79512,N,735.51334,E,1,,,384.595,M,,M,,*78
$GPWPL,4727.79512,N,735.51334,E,Position 21170*68
$GPRMC,120440,A,4727.79512,N,735.51334,E,,,050408,,A*59
$GPZDA,120440,05,04,08,,*42
$GPGGA,120441,4727.79362,N,735.51274,E,1,,,384.956,M,,M,,*7E
$GPWPL,4727.79362,N,735.51274,E,Position 21171*6D
$GPRMC,120441,A,4727.79362,N,735.51274,E,,,050408,,A*5C
$GPZDA,120441,05,04,08,,*43
$GPGGA,120442,4727.79224,N,735.51202,E,1,,,385.373,M,,M,,*73
$GPWPL,4727.79224,N,735.51202,E,Position 21172*6C
$GPRMC,120442,A,4727.79224,N,735.51202,E,,,050408,,A*5D
$GPZDA,120442,05,04,08,,*40
$GPGGA,120443,4727.7908,N,735.51124,E,1,,,385.844,M,,M,,*46
$GPWPL,4727.7908,N,735.51124,E,Position 21173*56
$GPRMC,120443,A,4727.7908,N,735.51124,E,,,050408,,A*67
$GPZDA,120443,05,04,08,,*41
$GPGGA,120444,4727.78942,N,735.51034,E,1,,,385.842,M,,M,,*71
$GPWPL,4727.78942,N,735.51034,E,Position 21174*67
$GPRMC,120444,A,4727.78942,N,735.51034,E,,,050408,,A*56
$GPZDA,120444,05,04,08,,*46
$GPGGA,120445,4727.78786,N,735.51004,E,1,,,386.399,M,,M,,*7B
$GPWPL,4727.78786,N,735.51004,E,Position 21175*63
$GPRMC,120445,A,4727.78786,N,735.51004,E,,,050408,,A*52
$GPZDA,120445,05,04,08,,*47
$GPGGA,120446,4727.78642,N,735.5092,E,1,,,386.827,M,,M,,*41
$GPWPL,4727.78642,N,735.5092,E,Position 21176*57
$GPRMC,120446,A,4727.78642,N,735.5092,E,,,050408,,A*66
$GPZDA,120446,05,04,08,,*44
$GPGGA,120447,4727.78504,N,735.50854,E,1,,,386.943,M,,M,,*70
$GPWPL,4727.78504,N,735.50854,E,Position 21177*65
$GPRMC,120447,A,4727.78504,N,735.50854,E,,,050408,,A*54
$GPZDA,120447,05,04,08,,*45
$GPGGA,120448,4727.78378,N,735.50734,E,1,,,387.118,M,,M,,*7C
$GPWPL,4727.78378,N,735.50734,E,Position 21178*6E
$GPRMC,120448,A,4727.78378,N,735.50734,E,,,050408,,A*5F
$GPZDA,120448,05,04,08,,*4A
$GPGGA,120449,4727.78252,N,735.50614,E,1,,,387.327,M,,M,,*79
$GPWPL,4727.78252,N,735.50614,E,Position 21179*65
$GPRMC,120449,A,4727.78252,N,735.50614,E,,,050408,,A*54
$GPZDA,120449,05,04,08,,*4B
$GPGGA,120450,4727.78144,N,735.50506,E,1,,,387.692,M,,M,,*7E
$GPWPL,4727.78144,N,735.50506,E,Position 21180*67
$GPRMC,120450,A,4727.78144,N,735.50506,E,,,050408,,A*58
$GPZDA,120450,05,04,08,,*43
$GPGGA,120451,4727.78018,N,735.50416,E,1,,,387.706,M,,M,,*7B
$GPWPL,4727.78018,N,735.50416,E,Position 21181*6E
$GPRMC,120451,A,4727.78018,N,735.50416,E,,,050408,,A*51
$GPZDA,120451,05,04,08,,*42
$GPGGA,120452,4727.77886,N,735.50326,E,1,,,387.712,M,,M,,*79
$GPWPL,4727.77886,N,735.50326,E,Position 21182*69
$GPRMC,120452,A,4727.77886,N,735.50326,E,,,050408,,A*56
$GPZDA,120452,05,04,08,,*41
$GPGGA,120453,4727.77748,N,735.50224,E,1,,,387.855,M,,M,,*7A
$GPWPL,4727.77748,N,735.50224,E,Position 21183*66
$GPRMC,120453,A,4727.77748,N,735.50224,E,,,050408,,A*59
$GPZDA,120453,05,04,08,,*40
$GPGGA,120454,4727.7761,N,735.50152,E,1,,,388.115,M,,M,,*41
$GPWPL,4727.7761,N,735.50152,E,Position 21184*5F
$GPRMC,120454,A,4727.7761,N,735.50152,E,,,050408,,A*60
$GPZDA,120454,05,04,08,,*47
$GPGGA,120455,4727.77466,N,735.50104,E,1,,,388.682,M,,M,,*79
$GPWPL,4727.77466,N,735.50104,E,Position 21185*6E
$GPRMC,120455,A,4727.77466,N,735.50104,E,,,050408,,A*51
$GPZDA,120455,05,04,08,,*46
$GPGGA,120456,4727.77352,N,735.50002,E,1,,,389.285,M,,M,,*7F
$GPWPL,4727.77352,N,735.50002,E,Position 21186*6A
$GPRMC,120456,A,4727.77352,N,735.50002,E,,,050408,,A*55
$GPZDA,120456,05,04,08,,*45
$GPGGA,120457,4727.77238,N,735.499,E,1,,,389.213,M,,M,,*7F
$GPWPL,4727.77238,N,735.499,E,Position 21187*65
$GPRMC,120457,A,4727.77238,N,735.499,E,,,050408,,A*5A
$GPZDA,120457,05,04,08,,*44
$GPGGA,120458,4727.771,N,735.49762,E,1,,,389.092,M,,M,,*79
$GPWPL,4727.771,N,735.49762,E,Position 21188*68
$GPRMC,120458,A,4727.771,N,735.49762,E,,,050408,,A*57
$GPZDA,120458,05,04,08,,*4B
$GPGGA,120459,4727.76968,N,735.49654,E,1,,,389.69,M,,M,,*4F
$GPWPL,4727.76968,N,735.49654,E,Position 21189*6A
$GPRMC,120459,A,4727.76968,N,735.49654,E,,,050408,,A*55
$GPZDA,120459,05,04,08,,*4A
$GPGGA,120500,4727.76842,N,735.49588,E,1,,,389.801,M,,M,,*7F
$GPWPL,4727.76842,N,735.49588,E,Position 21190*69
$GPRMC,120500,A,4727.76842,N,735.49588,E,,,050408,,A*53
$GPZDA,120500,05,04,08,,*47
$GPGGA,120501,4727.76734,N,735.49474,E,1,,,390.327,M,,M,,*75
$GPWPL,4727.76734,N,735.49474,E,Position 21191*64
$GPRMC,120501,A,4727.76734,N,735.49474,E,,,050408,,A*5E
$GPZDA,120501,05,04,08,,*46
$GPGGA,120502,4727.7662,N,735.49378,E,1,,,390.799,M,,M,,*48
$GPWPL,4727.7662,N,735.49378,E,Position 21192*58
$GPRMC,120502,A,4727.7662,N,735.49378,E,,,050408,,A*62
$GPZDA,120502,05,04,08,,*45
$GPGGA,120503,4727.76482,N,735.493,E,1,,,390.972,M,,M,,*77
$GPWPL,4727.76482,N,735.493,E,Position 21193*6C
$GPRMC,120503,A,4727.76482,N,735.493,E,,,050408,,A*56
$GPZDA,120503,05,04,08,,*44
$GPGGA,120504,4727.76338,N,735.49216,E,1,,,390.836,M,,M,,*71
$GPWPL,4727.76338,N,735.49216,E,Position 21194*6B
$GPRMC,120504,A,4727.76338,N,735.49216,E,,,050408,,A*51
$GPZDA,120504,05,04,08,,*43
$GPGGA,120505,4727.7617,N,735.4924,E,1,,,391.17,M,,M,,*47
$GPWPL,4727.7617,N,735.4924,E,Position 21195*67
$GPRMC,120505,A,4727.7617,N,735.4924,E,,,050408,,A*5D
$GPZDA,120505,05,04,08,,*42
$GPGGA,120506,4727.76062,N,735.49144,E,1,,,391.488,M,,M,,*73
$GPWPL,4727.76062,N,735.49144,E,Position 21196*61
$GPRMC,120506,A,4727.76062,N,735.49144,E,,,050408,,A*5B
$GPZDA,120506,05,04,08,,*41
$GPGGA,120507,4727.75942,N,735.49078,E,1,,,391.522,M,,M,,*75
$GPWPL,4727.75942,N,735.49078,E,Position 21197*66
$GPRMC,120507,A,4727.75942,N,735.49078,E,,,050408,,A*5C
$GPZDA,120507,05,04,08,,*40
$GPGGA,120508,4727.75834,N,735.49006,E,1,,,391.822,M,,M,,*7E
$GPWPL,4727.75834,N,735.49006,E,Position 21198*60
$GPRMC,120508,A,4727.75834,N,735.49006,E,,,050408,,A*5A
$GPZDA,120508,05,04,08,,*4F
$GPGGA,120509,4727.75708,N,735.48946,E,1,,,391.757,M,,M,,*7E
$GPWPL,4727.75708,N,735.48946,E,Position 21199*6D
$GPRMC,120509,A,4727.75708,N,735.48946,E,,,050408,,A*57
$GPZDA,120509,05,04,08,,*4E
$GPGGA,120510,4727.756,N,735.4888,E,1,,,391.818,M,,M,,*40
$GPWPL,4727.756,N,735.4888,E,Position 21200*5C
$GPRMC,120510,A,4727.756,N,735.4888,E,,,050408,,A*6D
$GPZDA,120510,05,04,08,,*46
$GPGGA,120511,4727.75498,N,735.4876,E,1,,,392.058,M,,M,,*4C
$GPWPL,4727.75498,N,735.4876,E,Position 21201*5F
$GPRMC,120511,A,4727.75498,N,735.4876,E,,,050408,,A*6E
$GPZDA,120511,05,04,08,,*47
$GPGGA,120512,4727.75408,N,735.48694,E,1,,,392.363,M,,M,,*77
$GPWPL,4727.75408,N,735.48694,E,Position 21202*6F
$GPRMC,120512,A,4727.75408,N,735.48694,E,,,050408,,A*5E
$GPZDA,120512,05,04,08,,*44
$GPGGA,120513,4727.753,N,735.48628,E,1,,,392.505,M,,M,,*78
$GPWPL,4727.753,N,735.48628,E,Position 21203*66
$GPRMC,120513,A,4727.753,N,735.48628,E,,,050408,,A*57
$GPZDA,120513,05,04,08,,*45
$GPGGA,120514,4727.75198,N,735.48604,E,1,,,392.946,M,,M,,*79
$GPWPL,4727.75198,N,735.48604,E,Position 21204*6C
$GPRMC,120514,A,4727.75198,N,735.48604,E,,,050408,,A*5D
$GPZDA,120514,05,04,08,,*42
$GPGGA,120515,4727.75084,N,735.48508,E,1,,,393.379,M,,M,,*7C
$GPWPL,4727.75084,N,735.48508,E,Position 21205*6E
$GPRMC,120515,A,4727.75084,N,735.48508,E,,,050408,,A*5F
$GPZDA,120515,05,04,08,,*43
$GPGGA,120516,4727.75,N,735.48406,E,1,,,394.03,M,,M,,*75
$GPWPL,4727.75,N,735.48406,E,Position 21206*5E
$GPRMC,120516,A,4727.75,N,735.48406,E,,,050408,,A*6F
$GPZDA,120516,05,04,08,,*40
$GPGGA,120519,4727.7497,N,735.4828,E,1,,,394.391,M,,M,,*75
$GPWPL,4727.7497,N,735.4828,E,Position 21207*68
$GPRMC,120519,A,4727.7497,N,735.4828,E,,,050408,,A*57
$GPZDA,120519,05,04,08,,*4F
$GPGGA,120520,4727.74994,N,735.47776,E,1,,,394.349,M,,M,,*73
$GPWPL,4727.74994,N,735.47776,E,Position 21208*6E
$GPRMC,120520,A,4727.74994,N,735.47776,E,,,050408,,A*54
$GPZDA,120520,05,04,08,,*45
$GPGGA,120521,4727.75,N,735.47602,E,1,,,394.372,M,,M,,*4D
$GPWPL,4727.75,N,735.47602,E,Position 21209*58
$GPRMC,120521,A,4727.75,N,735.47602,E,,,050408,,A*62
$GPZDA,120521,05,04,08,,*44
$GPGGA,120522,4727.75036,N,735.47428,E,1,,,394.007,M,,M,,*70
$GPWPL,4727.75036,N,735.47428,E,Position 21210*6F
$GPRMC,120522,A,4727.75036,N,735.47428,E,,,050408,,A*5E
$GPZDA,120522,05,04,08,,*47
$GPGGA,120523,4727.75084,N,735.47248,E,1,,,393.966,M,,M,,*71
$GPWPL,4727.75084,N,735.47248,E,Position 21211*67
$GPRMC,120523,A,4727.75084,N,735.47248,E,,,050408,,A*56
$GPZDA,120523,05,04,08,,*46
$GPGGA,120524,4727.75132,N,735.47032,E,1,,,394.037,M,,M,,*7F
$GPWPL,4727.75132,N,735.47032,E,Position 21212*67
$GPRMC,120524,A,4727.75132,N,735.47032,E,,,050408,,A*52
$GPZDA,120524,05,04,08,,*41
$GPGGA,120525,4727.75222,N,735.46828,E,1,,,394.569,M,,M,,*70
$GPWPL,4727.75222,N,735.46828,E,Position 21213*66
$GPRMC,120525,A,4727.75222,N,735.46828,E,,,050408,,A*53
$GPZDA,120525,05,04,08,,*40
$GPGGA,120526,4727.75306,N,735.46636,E,1,,,394.439,M,,M,,*71
$GPWPL,4727.75306,N,735.46636,E,Position 21214*67
$GPRMC,120526,A,4727.75306,N,735.46636,E,,,050408,,A*56
$GPZDA,120526,05,04,08,,*43
$GPGGA,120527,4727.75384,N,735.46426,E,1,,,394.702,M,,M,,*72
$GPWPL,4727.75384,N,735.46426,E,Position 21215*6F
$GPRMC,120527,A,4727.75384,N,735.46426,E,,,050408,,A*5E
$GPZDA,120527,05,04,08,,*42
$GPGGA,120528,4727.75468,N,735.46162,E,1,,,395.248,M,,M,,*77
$GPWPL,4727.75468,N,735.46162,E,Position 21216*6C
$GPRMC,120528,A,4727.75468,N,735.46162,E,,,050408,,A*51
$GPZDA,120528,05,04,08,,*4D
$GPGGA,120529,4727.7554,N,735.45892,E,1,,,395.568,M,,M,,*4D
$GPWPL,4727.7554,N,735.45892,E,Position 21217*53
$GPRMC,120529,A,4727.7554,N,735.45892,E,,,050408,,A*6E
$GPZDA,120529,05,04,08,,*4C
$GPGGA,120530,4727.75612,N,735.45658,E,1,,,395.881,M,,M,,*73
$GPWPL,4727.75612,N,735.45658,E,Position 21218*60
$GPRMC,120530,A,4727.75612,N,735.45658,E,,,050408,,A*5A
$GPZDA,120530,05,04,08,,*44
$GPGGA,120531,4727.75654,N,735.45454,E,1,,,396.13,M,,M,,*4E
$GPWPL,4727.75654,N,735.45454,E,Position 21219*6D
$GPRMC,120531,A,4727.75654,N,735.45454,E,,,050408,,A*57
$GPZDA,120531,05,04,08,,*45
$GPGGA,120532,4727.75702,N,735.45208,E,1,,,396.297,M,,M,,*7E
$GPWPL,4727.75702,N,735.45208,E,Position 21220*6A
$GPRMC,120532,A,4727.75702,N,735.45208,E,,,050408,,A*59
$GPZDA,120532,05,04,08,,*46
$GPGGA,120533,4727.75756,N,735.44974,E,1,,,396.528,M,,M,,*7C
$GPWPL,4727.75756,N,735.44974,E,Position 21221*6B
$GPRMC,120533,A,4727.75756,N,735.44974,E,,,050408,,A*58
$GPZDA,120533,05,04,08,,*47
$GPGGA,120534,4727.75792,N,735.44716,E,1,,,396.43,M,,M,,*41
$GPWPL,4727.75792,N,735.44716,E,Position 21222*6A
$GPRMC,120534,A,4727.75792,N,735.44716,E,,,050408,,A*5D
$GPZDA,120534,05,04,08,,*40
$GPGGA,120535,4727.75834,N,735.44422,E,1,,,396.131,M,,M,,*73
$GPWPL,4727.75834,N,735.44422,E,Position 21223*6C
$GPRMC,120535,A,4727.75834,N,735.44422,E,,,050408,,A*5B
$GPZDA,120535,05,04,08,,*41
$GPGGA,120536,4727.75828,N,735.4411,E,1,,,396.089,M,,M,,*4B
$GPWPL,4727.75828,N,735.4411,E,Position 21224*52
$GPRMC,120536,A,4727.75828,N,735.4411,E,,,050408,,A*61
$GPZDA,120536,05,04,08,,*42
$GPGGA,120537,4727.75792,N,735.43846,E,1,,,395.936,M,,M,,*77
$GPWPL,4727.75792,N,735.43846,E,Position 21225*60
$GPRMC,120537,A,4727.75792,N,735.43846,E,,,050408,,A*53
$GPZDA,120537,05,04,08,,*43
$GPGGA,120538,4727.75774,N,735.43552,E,1,,,395.968,M,,M,,*73
$GPWPL,4727.75774,N,735.43552,E,Position 21226*63
$GPRMC,120538,A,4727.75774,N,735.43552,E,,,050408,,A*5C
$GPZDA,120538,05,04,08,,*4C
$GPGGA,120539,4727.75756,N,735.43258,E,1,,,395.999,M,,M,,*71
$GPWPL,4727.75756,N,735.43258,E,Position 21227*6F
$GPRMC,120539,A,4727.75756,N,735.43258,E,,,050408,,A*50
$GPZDA,120539,05,04,08,,*4D
$GPGGA,120540,4727.75726,N,735.42934,E,1,,,396.618,M,,M,,*7D
$GPWPL,4727.75726,N,735.42934,E,Position 21228*67
$GPRMC,120540,A,4727.75726,N,735.42934,E,,,050408,,A*59
$GPZDA,120540,05,04,08,,*43
$GPGGA,120541,4727.75702,N,735.4264,E,1,,,396.616,M,,M,,*48
$GPWPL,4727.75702,N,735.4264,E,Position 21229*5C
$GPRMC,120541,A,4727.75702,N,735.4264,E,,,050408,,A*62
$GPZDA,120541,05,04,08,,*42
$GPGGA,120542,4727.75672,N,735.42346,E,1,,,396.886,M,,M,,*79
$GPWPL,4727.75672,N,735.42346,E,Position 21230*61
$GPRMC,120542,A,4727.75672,N,735.42346,E,,,050408,,A*54
$GPZDA,120542,05,04,08,,*41
$GPGGA,120543,4727.75666,N,735.42094,E,1,,,396.143,M,,M,,*71
$GPWPL,4727.75666,N,735.42094,E,Position 21231*69
$GPRMC,120543,A,4727.75666,N,735.42094,E,,,050408,,A*5C
$GPZDA,120543,05,04,08,,*40
$GPGGA,120544,4727.75636,N,735.41806,E,1,,,395.879,M,,M,,*70
$GPWPL,4727.75636,N,735.41806,E,Position 21232*6F
$GPRMC,120544,A,4727.75636,N,735.41806,E,,,050408,,A*5E
$GPZDA,120544,05,04,08,,*47
$GPGGA,120545,4727.7563,N,735.41512,E,1,,,395.356,M,,M,,*49
$GPWPL,4727.7563,N,735.41512,E,Position 21233*50
$GPRMC,120545,A,4727.7563,N,735.41512,E,,,050408,,A*61
$GPZDA,120545,05,04,08,,*46
$GPGGA,120546,4727.75624,N,735.41224,E,1,,,395.07,M,,M,,*4A
$GPWPL,4727.75624,N,735.41224,E,Position 21234*60
$GPRMC,120546,A,4727.75624,N,735.41224,E,,,050408,,A*55
$GPZDA,120546,05,04,08,,*45
$GPGGA,120547,4727.75612,N,735.40894,E,1,,,395.455,M,,M,,*7D
$GPWPL,4727.75612,N,735.40894,E,Position 21235*64
$GPRMC,120547,A,4727.75612,N,735.40894,E,,,050408,,A*51
$GPZDA,120547,05,04,08,,*44
$GPGGA,120548,4727.75606,N,735.40618,E,1,,,395.014,M,,M,,*7C
$GPWPL,4727.75606,N,735.40618,E,Position 21236*68
$GPRMC,120548,A,4727.75606,N,735.40618,E,,,050408,,A*51
$GPZDA,120548,05,04,08,,*4B
$GPGGA,120549,4727.75588,N,735.40372,E,1,,,394.943,M,,M,,*7B
$GPWPL,4727.75588,N,735.40372,E,Position 21237*65
$GPRMC,120549,A,4727.75588,N,735.40372,E,,,050408,,A*5C
$GPZDA,120549,05,04,08,,*4A
$GPGGA,120550,4727.7557,N,735.40102,E,1,,,395.594,M,,M,,*46
$GPWPL,4727.7557,N,735.40102,E,Position 21238*58
$GPRMC,120550,A,4727.7557,N,735.40102,E,,,050408,,A*66
$GPZDA,120550,05,04,08,,*42
$GPGGA,120551,4727.75546,N,735.39808,E,1,,,396.653,M,,M,,*74
$GPWPL,4727.75546,N,735.39808,E,Position 21239*61
$GPRMC,120551,A,4727.75546,N,735.39808,E,,,050408,,A*5F
$GPZDA,120551,05,04,08,,*43
$GPGGA,120552,4727.75462,N,735.3955,E,1,,,396.794,M,,M,,*4A
$GPWPL,4727.75462,N,735.3955,E,Position 21240*58
$GPRMC,120552,A,4727.75462,N,735.3955,E,,,050408,,A*6B
$GPZDA,120552,05,04,08,,*40
$GPGGA,120553,4727.75324,N,735.39364,E,1,,,396.824,M,,M,,*7B
$GPWPL,4727.75324,N,735.39364,E,Position 21241*6D
$GPRMC,120553,A,4727.75324,N,735.39364,E,,,050408,,A*5E
$GPZDA,120553,05,04,08,,*41
$GPGGA,120554,4727.75174,N,735.39244,E,1,,,396.877,M,,M,,*7E
$GPWPL,4727.75174,N,735.39244,E,Position 21242*6A
$GPRMC,120554,A,4727.75174,N,735.39244,E,,,050408,,A*5D
$GPZDA,120554,05,04,08,,*46
$GPGGA,120555,4727.75024,N,735.39142,E,1,,,397.277,M,,M,,*75
$GPWPL,4727.75024,N,735.39142,E,Position 21243*6A
$GPRMC,120555,A,4727.75024,N,735.39142,E,,,050408,,A*5D
$GPZDA,120555,05,04,08,,*47
$GPGGA,120556,4727.74886,N,735.39064,E,1,,,397.11,M,,M,,*40
$GPWPL,4727.74886,N,735.39064,E,Position 21244*69
$GPRMC,120556,A,4727.74886,N,735.39064,E,,,050408,,A*5A
$GPZDA,120556,05,04,08,,*44
$GPGGA,120557,4727.74748,N,735.39022,E,1,,,397.155,M,,M,,*7F
$GPWPL,4727.74748,N,735.39022,E,Position 21245*67
$GPRMC,120557,A,4727.74748,N,735.39022,E,,,050408,,A*54
$GPZDA,120557,05,04,08,,*45
$GPGGA,120558,4727.74592,N,735.38998,E,1,,,396.962,M,,M,,*71
$GPWPL,4727.74592,N,735.38998,E,Position 21246*68
$GPRMC,120558,A,4727.74592,N,735.38998,E,,,050408,,A*57
$GPZDA,120558,05,04,08,,*4A
$GPGGA,120559,4727.74472,N,735.38914,E,1,,,397.215,M,,M,,*71
$GPWPL,4727.74472,N,735.38914,E,Position 21247*62
$GPRMC,120559,A,4727.74472,N,735.38914,E,,,050408,,A*5D
$GPZDA,120559,05,04,08,,*4B
$GPGGA,120600,4727.7437,N,735.38824,E,1,,,397.601,M,,M,,*48
$GPWPL,4727.7437,N,735.38824,E,Position 21248*5A
$GPRMC,120600,A,4727.7437,N,735.38824,E,,,050408,,A*65
$GPZDA,120600,05,04,08,,*44
$GPGGA,120601,4727.74256,N,735.38728,E,1,,,397.915,M,,M,,*75
$GPWPL,4727.74256,N,735.38728,E,Position 21249*6D
$GPRMC,120601,A,4727.74256,N,735.38728,E,,,050408,,A*52
$GPZDA,120601,05,04,08,,*45
$GPGGA,120602,4727.74166,N,735.38632,E,1,,,398.177,M,,M,,*7F
$GPWPL,4727.74166,N,735.38632,E,Position 21250*6F
$GPRMC,120602,A,4727.74166,N,735.38632,E,,,050408,,A*5B
$GPZDA,120602,05,04,08,,*46
$GPGGA,120603,4727.7407,N,735.38578,E,1,,,398.818,M,,M,,*45
$GPWPL,4727.7407,N,735.38578,E,Position 21251*55
$GPRMC,120603,A,4727.7407,N,735.38578,E,,,050408,,A*61
$GPZDA,120603,05,04,08,,*47
$GPGGA,120604,4727.73938,N,735.38512,E,1,,,398.267,M,,M,,*7E
$GPWPL,4727.73938,N,735.38512,E,Position 21252*68
$GPRMC,120604,A,4727.73938,N,735.38512,E,,,050408,,A*58
$GPZDA,120604,05,04,08,,*40
$GPGGA,120605,4727.73818,N,735.38422,E,1,,,398.194,M,,M,,*71
$GPWPL,4727.73818,N,735.38422,E,Position 21253*68
$GPRMC,120605,A,4727.73818,N,735.38422,E,,,050408,,A*58
$GPZDA,120605,05,04,08,,*41
$GPGGA,120606,4727.73674,N,735.3838,E,1,,,398.607,M,,M,,*44
$GPWPL,4727.73674,N,735.3838,E,Position 21254*54
$GPRMC,120606,A,4727.73674,N,735.3838,E,,,050408,,A*60
$GPZDA,120606,05,04,08,,*42
$GPGGA,120607,4727.73554,N,735.38326,E,1,,,398.628,M,,M,,*75
$GPWPL,4727.73554,N,735.38326,E,Position 21255*68
$GPRMC,120607,A,4727.73554,N,735.38326,E,,,050408,,A*5C
$GPZDA,120607,05,04,08,,*43
$GPGGA,120608,4727.7344,N,735.38278,E,1,,,399.037,M,,M,,*4D
$GPWPL,4727.7344,N,735.38278,E,Position 21256*55
$GPRMC,120608,A,4727.7344,N,735.38278,E,,,050408,,A*6D
$GPZDA,120608,05,04,08,,*4C
$GPGGA,120609,4727.73338,N,735.38248,E,1,,,399.348,M,,M,,*7C
$GPWPL,4727.73338,N,735.38248,E,Position 21257*6F
$GPRMC,120609,A,4727.73338,N,735.38248,E,,,050408,,A*57
$GPZDA,120609,05,04,08,,*4D
$GPGGA,120610,4727.73206,N,735.38242,E,1,,,399.676,M,,M,,*7A
$GPWPL,4727.73206,N,735.38242,E,Position 21258*66
$GPRMC,120610,A,4727.73206,N,735.38242,E,,,050408,,A*59
$GPZDA,120610,05,04,08,,*45
$GPGGA,120611,4727.7311,N,735.3817,E,1,,,399.646,M,,M,,*7E
$GPWPL,4727.7311,N,735.3817,E,Position 21259*61
$GPRMC,120611,A,4727.7311,N,735.3817,E,,,050408,,A*5E
$GPZDA,120611,05,04,08,,*44
$GPGGA,120612,4727.7302,N,735.3808,E,1,,,400.345,M,,M,,*70
$GPWPL,4727.7302,N,735.3808,E,Position 21260*67
$GPRMC,120612,A,4727.7302,N,735.3808,E,,,050408,,A*51
$GPZDA,120612,05,04,08,,*47
$GPGGA,120613,4727.72912,N,735.38038,E,1,,,400.348,M,,M,,*76
$GPWPL,4727.72912,N,735.38038,E,Position 21261*6C
$GPRMC,120613,A,4727.72912,N,735.38038,E,,,050408,,A*5A
$GPZDA,120613,05,04,08,,*46
$GPGGA,120614,4727.72798,N,735.37966,E,1,,,400.506,M,,M,,*7C
$GPWPL,4727.72798,N,735.37966,E,Position 21262*6E
$GPRMC,120614,A,4727.72798,N,735.37966,E,,,050408,,A*5C
$GPZDA,120614,05,04,08,,*41
$GPGGA,120615,4727.72708,N,735.37882,E,1,,,400.57,M,,M,,*4E
$GPWPL,4727.72708,N,735.37882,E,Position 21263*6D
$GPRMC,120615,A,4727.72708,N,735.37882,E,,,050408,,A*5F
$GPZDA,120615,05,04,08,,*40
$GPGGA,120616,4727.72582,N,735.37858,E,1,,,401.162,M,,M,,*7C
$GPWPL,4727.72582,N,735.37858,E,Position 21264*6D
$GPRMC,120616,A,4727.72582,N,735.37858,E,,,050408,,A*5B
$GPZDA,120616,05,04,08,,*43
$GPGGA,120617,4727.72504,N,735.37822,E,1,,,401.42,M,,M,,*4D
$GPWPL,4727.72504,N,735.37822,E,Position 21265*6F
$GPRMC,120617,A,4727.72504,N,735.37822,E,,,050408,,A*59
$GPZDA,120617,05,04,08,,*42
$GPGGA,120618,4727.72444,N,735.37786,E,1,,,401.583,M,,M,,*7E
$GPWPL,4727.72444,N,735.37786,E,Position 21266*68
$GPRMC,120618,A,4727.72444,N,735.37786,E,,,050408,,A*52
$GPZDA,120618,05,04,08,,*4D
$GPGGA,120619,4727.72372,N,735.3775,E,1,,,401.678,M,,M,,*41
$GPWPL,4727.72372,N,735.3775,E,Position 21267*50
$GPRMC,120619,A,4727.72372,N,735.3775,E,,,050408,,A*6A
$GPZDA,120619,05,04,08,,*4C
$GPGGA,120620,4727.72282,N,735.37654,E,1,,,401.7,M,,M,,*7E
$GPWPL,4727.72282,N,735.37654,E,Position 21268*64
$GPRMC,120620,A,4727.72282,N,735.37654,E,,,050408,,A*5B
$GPZDA,120620,05,04,08,,*46
$GPGGA,120621,4727.72246,N,735.3754,E,1,,,402.433,M,,M,,*41
$GPWPL,4727.72246,N,735.3754,E,Position 21269*5B
$GPRMC,120621,A,4727.72246,N,735.3754,E,,,050408,,A*64
$GPZDA,120621,05,04,08,,*47
$GPGGA,120622,4727.72132,N,735.37456,E,1,,,402.599,M,,M,,*75
$GPWPL,4727.72132,N,735.37456,E,Position 21270*65
$GPRMC,120622,A,4727.72132,N,735.37456,E,,,050408,,A*51
$GPZDA,120622,05,04,08,,*44
$GPGGA,120623,4727.72018,N,735.37384,E,1,,,402.899,M,,M,,*78
$GPWPL,4727.72018,N,735.37384,E,Position 21271*65
$GPRMC,120623,A,4727.72018,N,735.37384,E,,,050408,,A*51
$GPZDA,120623,05,04,08,,*45
$GPGGA,120624,4727.7191,N,735.3733,E,1,,,403.42,M,,M,,*4D
$GPWPL,4727.7191,N,735.3733,E,Position 21272*6B
$GPRMC,120624,A,4727.7191,N,735.3733,E,,,050408,,A*5B
$GPZDA,120624,05,04,08,,*42
$GPGGA,120625,4727.71754,N,735.37312,E,1,,,403.467,M,,M,,*71
$GPWPL,4727.71754,N,735.37312,E,Position 21273*64
$GPRMC,120625,A,4727.71754,N,735.37312,E,,,050408,,A*54
$GPZDA,120625,05,04,08,,*43
$GPGGA,120626,4727.7164,N,735.3727,E,1,,,404.167,M,,M,,*71
$GPWPL,4727.7164,N,735.3727,E,Position 21274*62
$GPRMC,120626,A,4727.7164,N,735.3727,E,,,050408,,A*56
$GPZDA,120626,05,04,08,,*40
$GPGGA,120627,4727.71508,N,735.37246,E,1,,,404.471,M,,M,,*78
$GPWPL,4727.71508,N,735.37246,E,Position 21275*69
$GPRMC,120627,A,4727.71508,N,735.37246,E,,,050408,,A*5D
$GPZDA,120627,05,04,08,,*41
$GPGGA,120628,4727.7137,N,735.3721,E,1,,,404.526,M,,M,,*7E
$GPWPL,4727.7137,N,735.3721,E,Position 21276*60
$GPRMC,120628,A,4727.7137,N,735.3721,E,,,050408,,A*58
$GPZDA,120628,05,04,08,,*4E
$GPGGA,120629,4727.71256,N,735.37144,E,1,,,404.977,M,,M,,*70
$GPWPL,4727.71256,N,735.37144,E,Position 21277*66
$GPRMC,120629,A,4727.71256,N,735.37144,E,,,050408,,A*5E
$GPZDA,120629,05,04,08,,*4F
$GPGGA,120630,4727.71118,N,735.37072,E,1,,,404.575,M,,M,,*7B
$GPWPL,4727.71118,N,735.37072,E,Position 21278*64
$GPRMC,120630,A,4727.71118,N,735.37072,E,,,050408,,A*5B
$GPZDA,120630,05,04,08,,*47
$GPGGA,120631,4727.70998,N,735.37018,E,1,,,404.862,M,,M,,*7C
$GPWPL,4727.70998,N,735.37018,E,Position 21279*68
$GPRMC,120631,A,4727.70998,N,735.37018,E,,,050408,,A*57
$GPZDA,120631,05,04,08,,*46
$GPGGA,120632,4727.70884,N,735.3697,E,1,,,405.091,M,,M,,*40
$GPWPL,4727.70884,N,735.3697,E,Position 21280*54
$GPRMC,120632,A,4727.70884,N,735.3697,E,,,050408,,A*6E
$GPZDA,120632,05,04,08,,*45
$GPGGA,120633,4727.7077,N,735.36922,E,1,,,405.496,M,,M,,*41
$GPWPL,4727.7077,N,735.36922,E,Position 21281*56
$GPRMC,120633,A,4727.7077,N,735.36922,E,,,050408,,A*6C
$GPZDA,120633,05,04,08,,*44
$GPGGA,120634,4727.70638,N,735.36844,E,1,,,405.858,M,,M,,*74
$GPWPL,4727.70638,N,735.36844,E,Position 21282*69
$GPRMC,120634,A,4727.70638,N,735.36844,E,,,050408,,A*57
$GPZDA,120634,05,04,08,,*43
$GPGGA,120635,4727.7053,N,735.36772,E,1,,,405.704,M,,M,,*42
$GPWPL,4727.7053,N,735.36772,E,Position 21283*59
$GPRMC,120635,A,4727.7053,N,735.36772,E,,,050408,,A*67
$GPZDA,120635,05,04,08,,*42
$GPGGA,120636,4727.7041,N,735.367,E,1,,,406.199,M,,M,,*46
$GPWPL,4727.7041,N,735.367,E,Position 21284*58
$GPRMC,120636,A,4727.7041,N,735.367,E,,,050408,,A*62
$GPZDA,120636,05,04,08,,*41
$GPGGA,120637,4727.70284,N,735.36652,E,1,,,405.992,M,,M,,*7A
$GPWPL,4727.70284,N,735.36652,E,Position 21285*64
$GPRMC,120637,A,4727.70284,N,735.36652,E,,,050408,,A*5E
$GPZDA,120637,05,04,08,,*40
$GPGGA,120638,4727.7017,N,735.36622,E,1,,,406.223,M,,M,,*48
$GPWPL,4727.7017,N,735.36622,E,Position 21286*58
$GPRMC,120638,A,4727.7017,N,735.36622,E,,,050408,,A*6E
$GPZDA,120638,05,04,08,,*4F
$GPGGA,120639,4727.70068,N,735.36514,E,1,,,406.57,M,,M,,*46
$GPWPL,4727.70068,N,735.36514,E,Position 21287*67
$GPRMC,120639,A,4727.70068,N,735.36514,E,,,050408,,A*51
$GPZDA,120639,05,04,08,,*4E
$GPGGA,120640,4727.69984,N,735.36394,E,1,,,407.194,M,,M,,*7A
$GPWPL,4727.69984,N,735.36394,E,Position 21288*65
$GPRMC,120640,A,4727.69984,N,735.36394,E,,,050408,,A*52
$GPZDA,120640,05,04,08,,*40
$GPGGA,120641,4727.69858,N,735.3634,E,1,,,407.576,M,,M,,*4A
$GPWPL,4727.69858,N,735.3634,E,Position 21289*5D
$GPRMC,120641,A,4727.69858,N,735.3634,E,,,050408,,A*6A
$GPZDA,120641,05,04,08,,*41
$GPGGA,120642,4727.69738,N,735.36298,E,1,,,408.038,M,,M,,*74
$GPWPL,4727.69738,N,735.36298,E,Position 21290*68
$GPRMC,120642,A,4727.69738,N,735.36298,E,,,050408,,A*54
$GPZDA,120642,05,04,08,,*42
$GPGGA,120643,4727.69624,N,735.3625,E,1,,,407.995,M,,M,,*4C
$GPWPL,4727.69624,N,735.3625,E,Position 21291*51
$GPRMC,120643,A,4727.69624,N,735.3625,E,,,050408,,A*6D
$GPZDA,120643,05,04,08,,*43
$GPGGA,120644,4727.6954,N,735.36178,E,1,,,408.45,M,,M,,*78
$GPWPL,4727.6954,N,735.36178,E,Position 21292*5A
$GPRMC,120644,A,4727.6954,N,735.36178,E,,,050408,,A*62
$GPZDA,120644,05,04,08,,*44
$GPGGA,120645,4727.69426,N,735.36118,E,1,,,408.676,M,,M,,*78
$GPWPL,4727.69426,N,735.36118,E,Position 21293*6C
$GPRMC,120645,A,4727.69426,N,735.36118,E,,,050408,,A*54
$GPZDA,120645,05,04,08,,*45
$GPGGA,120646,4727.69318,N,735.36052,E,1,,,409.855,M,,M,,*70
$GPWPL,4727.69318,N,735.36052,E,Position 21294*6E
$GPRMC,120646,A,4727.69318,N,735.36052,E,,,050408,,A*52
$GPZDA,120646,05,04,08,,*46
$GPGGA,120647,4727.69216,N,735.3601,E,1,,,410.231,M,,M,,*48
$GPWPL,4727.69216,N,735.3601,E,Position 21295*56
$GPRMC,120647,A,4727.69216,N,735.3601,E,,,050408,,A*6A
$GPZDA,120647,05,04,08,,*47
$GPGGA,120648,4727.6912,N,735.35926,E,1,,,410.908,M,,M,,*4F
$GPWPL,4727.6912,N,735.35926,E,Position 21296*5C
$GPRMC,120648,A,4727.6912,N,735.35926,E,,,050408,,A*6C
$GPZDA,120648,05,04,08,,*48
$GPGGA,120649,4727.69024,N,735.35884,E,1,,,410.962,M,,M,,*7E
$GPWPL,4727.69024,N,735.35884,E,Position 21297*61
$GPRMC,120649,A,4727.69024,N,735.35884,E,,,050408,,A*51
$GPZDA,120649,05,04,08,,*49
$GPGGA,120650,4727.68892,N,735.35872,E,1,,,411.241,M,,M,,*70
$GPWPL,4727.68892,N,735.35872,E,Position 21298*63
$GPRMC,120650,A,4727.68892,N,735.35872,E,,,050408,,A*54
$GPZDA,120650,05,04,08,,*41
$GPGGA,120651,4727.68796,N,735.35854,E,1,,,411.65,M,,M,,*4A
$GPWPL,4727.68796,N,735.35854,E,Position 21299*6D
$GPRMC,120651,A,4727.68796,N,735.35854,E,,,050408,,A*5A
$GPZDA,120651,05,04,08,,*40
$GPGGA,120652,4727.687,N,735.35818,E,1,,,412.153,M,,M,,*79
$GPWPL,4727.687,N,735.35818,E,Position 21300*6B
$GPRMC,120652,A,4727.687,N,735.35818,E,,,050408,,A*5E
$GPZDA,120652,05,04,08,,*43
$GPGGA,120653,4727.6858,N,735.358,E,1,,,412.61,M,,M,,*7B
$GPWPL,4727.6858,N,735.358,E,Position 21301*59
$GPRMC,120653,A,4727.6858,N,735.358,E,,,050408,,A*6C
$GPZDA,120653,05,04,08,,*42
$GPGGA,120654,4727.68472,N,735.35752,E,1,,,412.659,M,,M,,*75
$GPWPL,4727.68472,N,735.35752,E,Position 21302*6E
$GPRMC,120654,A,4727.68472,N,735.35752,E,,,050408,,A*5F
$GPZDA,120654,05,04,08,,*45
$GPGGA,120655,4727.6837,N,735.35758,E,1,,,412.729,M,,M,,*4D
$GPWPL,4727.6837,N,735.35758,E,Position 21303*50
$GPRMC,120655,A,4727.6837,N,735.35758,E,,,050408,,A*61
$GPZDA,120655,05,04,08,,*44
$GPGGA,120656,4727.68304,N,735.3571,E,1,,,413.389,M,,M,,*4E
$GPWPL,4727.68304,N,735.3571,E,Position 21304*58
$GPRMC,120656,A,4727.68304,N,735.3571,E,,,050408,,A*6D
$GPZDA,120656,05,04,08,,*47
$GPGGA,120657,4727.68232,N,735.35656,E,1,,,414.062,M,,M,,*79
$GPWPL,4727.68232,N,735.35656,E,Position 21305*6E
$GPRMC,120657,A,4727.68232,N,735.35656,E,,,050408,,A*5B
$GPZDA,120657,05,04,08,,*46
$GPGGA,120658,4727.68148,N,735.35602,E,1,,,414.793,M,,M,,*70
$GPWPL,4727.68148,N,735.35602,E,Position 21306*62
$GPRMC,120658,A,4727.68148,N,735.35602,E,,,050408,,A*5B
$GPZDA,120658,05,04,08,,*49
$GPGGA,120659,4727.6804,N,735.35548,E,1,,,415.061,M,,M,,*4E
$GPWPL,4727.6804,N,735.35548,E,Position 21307*57
$GPRMC,120659,A,4727.6804,N,735.35548,E,,,050408,,A*6E
$GPZDA,120659,05,04,08,,*48
$GPGGA,120700,4727.67944,N,735.35488,E,1,,,415.267,M,,M,,*78
$GPWPL,4727.67944,N,735.35488,E,Position 21308*67
$GPRMC,120700,A,4727.67944,N,735.35488,E,,,050408,,A*5C
$GPZDA,120700,05,04,08,,*45
$GPGGA,120701,4727.6786,N,735.35464,E,1,,,415.273,M,,M,,*49
$GPWPL,4727.6786,N,735.35464,E,Position 21309*53
$GPRMC,120701,A,4727.6786,N,735.35464,E,,,050408,,A*68
$GPZDA,120701,05,04,08,,*44
$GPGGA,120702,4727.6777,N,735.3541,E,1,,,414.956,M,,M,,*7A
$GPWPL,4727.6777,N,735.3541,E,Position 21310*66
$GPRMC,120702,A,4727.6777,N,735.3541,E,,,050408,,A*56
$GPZDA,120702,05,04,08,,*47
$GPGGA,120703,4727.67728,N,735.35332,E,1,,,415.054,M,,M,,*7B
$GPWPL,4727.67728,N,735.35332,E,Position 21311*6D
$GPRMC,120703,A,4727.67728,N,735.35332,E,,,050408,,A*5D
$GPZDA,120703,05,04,08,,*46
$GPGGA,120704,4727.67662,N,735.3529,E,1,,,415.255,M,,M,,*49
$GPWPL,4727.67662,N,735.3529,E,Position 21312*58
$GPRMC,120704,A,4727.67662,N,735.3529,E,,,050408,,A*6C
$GPZDA,120704,05,04,08,,*41
$GPGGA,120705,4727.67554,N,735.35212,E,1,,,415.118,M,,M,,*7E
$GPWPL,4727.67554,N,735.35212,E,Position 21313*65
$GPRMC,120705,A,4727.67554,N,735.35212,E,,,050408,,A*51
$GPZDA,120705,05,04,08,,*40
$GPGGA,120706,4727.67494,N,735.3517,E,1,,,415.216,M,,M,,*4A
$GPWPL,4727.67494,N,735.3517,E,Position 21314*58
$GPRMC,120706,A,4727.67494,N,735.3517,E,,,050408,,A*68
$GPZDA,120706,05,04,08,,*43
$GPGGA,120707,4727.67446,N,735.35098,E,1,,,415.272,M,,M,,*71
$GPWPL,4727.67446,N,735.35098,E,Position 21315*61
$GPRMC,120707,A,4727.67446,N,735.35098,E,,,050408,,A*51
$GPZDA,120707,05,04,08,,*42
$GPGGA,120708,4727.6738,N,735.34996,E,1,,,415.746,M,,M,,*47
$GPWPL,4727.6738,N,735.34996,E,Position 21316*59
$GPRMC,120708,A,4727.6738,N,735.34996,E,,,050408,,A*65
$GPZDA,120708,05,04,08,,*4D
$GPGGA,120709,4727.67314,N,735.34918,E,1,,,415.885,M,,M,,*7D
$GPWPL,4727.67314,N,735.34918,E,Position 21317*63
$GPRMC,120709,A,4727.67314,N,735.34918,E,,,050408,,A*5F
$GPZDA,120709,05,04,08,,*4C
$GPGGA,120711,4727.6723,N,735.34876,E,1,,,415.828,M,,M,,*4D
$GPWPL,4727.6723,N,735.34876,E,Position 21318*52
$GPRMC,120711,A,4727.6723,N,735.34876,E,,,050408,,A*68
$GPZDA,120711,05,04,08,,*45
$GPGGA,120712,4727.67044,N,735.34864,E,1,,,416.167,M,,M,,*7D
$GPWPL,4727.67044,N,735.34864,E,Position 21319*61
$GPRMC,120712,A,4727.67044,N,735.34864,E,,,050408,,A*59
$GPZDA,120712,05,04,08,,*46
$GPGGA,120713,4727.66966,N,735.34822,E,1,,,415.893,M,,M,,*77
$GPWPL,4727.66966,N,735.34822,E,Position 21320*61
$GPRMC,120713,A,4727.66966,N,735.34822,E,,,050408,,A*52
$GPZDA,120713,05,04,08,,*47
$GPGGA,120714,4727.66864,N,735.34798,E,1,,,415.87,M,,M,,*40
$GPWPL,4727.66864,N,735.34798,E,Position 21321*6D
$GPRMC,120714,A,4727.66864,N,735.34798,E,,,050408,,A*58
$GPZDA,120714,05,04,08,,*40
$GPGGA,120715,4727.66792,N,735.34732,E,1,,,416.088,M,,M,,*7B
$GPWPL,4727.66792,N,735.34732,E,Position 21322*68
$GPRMC,120715,A,4727.66792,N,735.34732,E,,,050408,,A*5F
$GPZDA,120715,05,04,08,,*41
$GPGGA,120716,4727.66726,N,735.34678,E,1,,,416.382,M,,M,,*71
$GPWPL,4727.66726,N,735.34678,E,Position 21323*69
$GPRMC,120716,A,4727.66726,N,735.34678,E,,,050408,,A*5C
$GPZDA,120716,05,04,08,,*42
$GPGGA,120717,4727.6666,N,735.34618,E,1,,,416.486,M,,M,,*46
$GPWPL,4727.6666,N,735.34618,E,Position 21324*5B
$GPRMC,120717,A,4727.6666,N,735.34618,E,,,050408,,A*68
$GPZDA,120717,05,04,08,,*43
$GPGGA,120718,4727.66576,N,735.34576,E,1,,,416.577,M,,M,,*79
$GPWPL,4727.66576,N,735.34576,E,Position 21325*65
$GPRMC,120718,A,4727.66576,N,735.34576,E,,,050408,,A*58
$GPZDA,120718,05,04,08,,*4C
$GPGGA,120719,4727.66462,N,735.34552,E,1,,,416.986,M,,M,,*78
$GPWPL,4727.66462,N,735.34552,E,Position 21326*64
$GPRMC,120719,A,4727.66462,N,735.34552,E,,,050408,,A*5B
$GPZDA,120719,05,04,08,,*4D
$GPGGA,120720,4727.66396,N,735.34486,E,1,,,417.31,M,,M,,*42
$GPWPL,4727.66396,N,735.34486,E,Position 21327*61
$GPRMC,120720,A,4727.66396,N,735.34486,E,,,050408,,A*55
$GPZDA,120720,05,04,08,,*47
$GPGGA,120721,4727.66294,N,735.34414,E,1,,,417.166,M,,M,,*78
$GPWPL,4727.66294,N,735.34414,E,Position 21328*66
$GPRMC,120721,A,4727.66294,N,735.34414,E,,,050408,,A*5C
$GPZDA,120721,05,04,08,,*46
$GPGGA,120722,4727.66186,N,735.34354,E,1,,,417.154,M,,M,,*79
$GPWPL,4727.66186,N,735.34354,E,Position 21329*64
$GPRMC,120722,A,4727.66186,N,735.34354,E,,,050408,,A*5C
$GPZDA,120722,05,04,08,,*45
$GPGGA,120723,4727.66102,N,735.34282,E,1,,,417.282,M,,M,,*76
$GPWPL,4727.66102,N,735.34282,E,Position 21330*6A
$GPRMC,120723,A,4727.66102,N,735.34282,E,,,050408,,A*5B
$GPZDA,120723,05,04,08,,*44
$GPGGA,120724,4727.65988,N,735.34216,E,1,,,417.434,M,,M,,*7E
$GPWPL,4727.65988,N,735.34216,E,Position 21331*6F
$GPRMC,120724,A,4727.65988,N,735.34216,E,,,050408,,A*58
$GPZDA,120724,05,04,08,,*43
$GPGGA,120725,4727.65904,N,735.34132,E,1,,,417.805,M,,M,,*70
$GPWPL,4727.65904,N,735.34132,E,Position 21332*6D
$GPRMC,120725,A,4727.65904,N,735.34132,E,,,050408,,A*58
$GPZDA,120725,05,04,08,,*42
$GPGGA,120726,4727.65832,N,735.34048,E,1,,,418.016,M,,M,,*7E
$GPWPL,4727.65832,N,735.34048,E,Position 21333*64
$GPRMC,120726,A,4727.65832,N,735.34048,E,,,050408,,A*53
$GPZDA,120726,05,04,08,,*41
$GPGGA,120727,4727.65766,N,735.33952,E,1,,,417.938,M,,M,,*7E
$GPWPL,4727.65766,N,735.33952,E,Position 21334*68
$GPRMC,120727,A,4727.65766,N,735.33952,E,,,050408,,A*59
$GPZDA,120727,05,04,08,,*40
$GPGGA,120728,4727.65724,N,735.33814,E,1,,,418.298,M,,M,,*7A
$GPWPL,4727.65724,N,735.33814,E,Position 21335*6C
$GPRMC,120728,A,4727.65724,N,735.33814,E,,,050408,,A*53
$GPZDA,120728,05,04,08,,*4F
$GPGGA,120729,4727.65634,N,735.3373,E,1,,,418.856,M,,M,,*4A
$GPWPL,4727.65634,N,735.3373,E,Position 21336*56
$GPRMC,120729,A,4727.65634,N,735.3373,E,,,050408,,A*6B
$GPZDA,120729,05,04,08,,*4E
$GPGGA,120730,4727.65544,N,735.33634,E,1,,,418.824,M,,M,,*76
$GPWPL,4727.65544,N,735.33634,E,Position 21337*66
$GPRMC,120730,A,4727.65544,N,735.33634,E,,,050408,,A*52
$GPZDA,120730,05,04,08,,*46
$GPGGA,120731,4727.65454,N,735.3355,E,1,,,418.989,M,,M,,*40
$GPWPL,4727.65454,N,735.3355,E,Position 21338*58
$GPRMC,120731,A,4727.65454,N,735.3355,E,,,050408,,A*62
$GPZDA,120731,05,04,08,,*47
$GPGGA,120732,4727.65358,N,735.33478,E,1,,,419.241,M,,M,,*7D
$GPWPL,4727.65358,N,735.33478,E,Position 21339*69
$GPRMC,120732,A,4727.65358,N,735.33478,E,,,050408,,A*51
$GPZDA,120732,05,04,08,,*44
$GPGGA,120733,4727.65262,N,735.334,E,1,,,419.542,M,,M,,*7F
$GPWPL,4727.65262,N,735.334,E,Position 21340*60
$GPRMC,120733,A,4727.65262,N,735.334,E,,,050408,,A*57
$GPZDA,120733,05,04,08,,*45
$GPGGA,120734,4727.65178,N,735.3328,E,1,,,419.507,M,,M,,*4F
$GPWPL,4727.65178,N,735.3328,E,Position 21341*57
$GPRMC,120734,A,4727.65178,N,735.3328,E,,,050408,,A*66
$GPZDA,120734,05,04,08,,*42
$GPGGA,120735,4727.6513,N,735.33202,E,1,,,420.242,M,,M,,*44
$GPWPL,4727.6513,N,735.33202,E,Position 21342*52
$GPRMC,120735,A,4727.6513,N,735.33202,E,,,050408,,A*61
$GPZDA,120735,05,04,08,,*43
$GPGGA,120736,4727.65022,N,735.3313,E,1,,,420.607,M,,M,,*42
$GPWPL,4727.65022,N,735.3313,E,Position 21343*53
$GPRMC,120736,A,4727.65022,N,735.3313,E,,,050408,,A*62
$GPZDA,120736,05,04,08,,*40
$GPGGA,120737,4727.6492,N,735.33088,E,1,,,420.839,M,,M,,*48
$GPWPL,4727.6492,N,735.33088,E,Position 21344*5C
$GPRMC,120737,A,4727.6492,N,735.33088,E,,,050408,,A*6B
$GPZDA,120737,05,04,08,,*41
$GPGGA,120738,4727.6483,N,735.32992,E,1,,,421.304,M,,M,,*40
$GPWPL,4727.6483,N,735.32992,E,Position 21345*5E
$GPRMC,120738,A,4727.6483,N,735.32992,E,,,050408,,A*67
$GPZDA,120738,05,04,08,,*4E
$GPGGA,120739,4727.64728,N,735.32884,E,1,,,421.802,M,,M,,*7C
$GPWPL,4727.64728,N,735.32884,E,Position 21346*6D
$GPRMC,120739,A,4727.64728,N,735.32884,E,,,050408,,A*56
$GPZDA,120739,05,04,08,,*4F
$GPGGA,120740,4727.6465,N,735.32794,E,1,,,422.145,M,,M,,*4B
$GPWPL,4727.6465,N,735.32794,E,Position 21347*5C
$GPRMC,120740,A,4727.6465,N,735.32794,E,,,050408,,A*68
$GPZDA,120740,05,04,08,,*41
$GPGGA,120741,4727.64566,N,735.32746,E,1,,,422.522,M,,M,,*76
$GPWPL,4727.64566,N,735.32746,E,Position 21348*6A
$GPRMC,120741,A,4727.64566,N,735.32746,E,,,050408,,A*50
$GPZDA,120741,05,04,08,,*40
$GPGGA,120742,4727.6444,N,735.3265,E,1,,,422.78,M,,M,,*4C
$GPWPL,4727.6444,N,735.3265,E,Position 21349*68
$GPRMC,120742,A,4727.6444,N,735.3265,E,,,050408,,A*50
$GPZDA,120742,05,04,08,,*43
$GPGGA,120743,4727.64356,N,735.32596,E,1,,,422.943,M,,M,,*75
$GPWPL,4727.64356,N,735.32596,E,Position 21350*69
$GPRMC,120743,A,4727.64356,N,735.32596,E,,,050408,,A*58
$GPZDA,120743,05,04,08,,*42
$GPGGA,120744,4727.6429,N,735.3253,E,1,,,423.464,M,,M,,*7C
$GPWPL,4727.6429,N,735.3253,E,Position 21351*6F
$GPRMC,120744,A,4727.6429,N,735.3253,E,,,050408,,A*58
$GPZDA,120744,05,04,08,,*45
$GPGGA,120745,4727.64206,N,735.32446,E,1,,,423.526,M,,M,,*75
$GPWPL,4727.64206,N,735.32446,E,Position 21352*63
$GPRMC,120745,A,4727.64206,N,735.32446,E,,,050408,,A*56
$GPZDA,120745,05,04,08,,*44
$GPGGA,120746,4727.64116,N,735.32398,E,1,,,423.361,M,,M,,*75
$GPWPL,4727.64116,N,735.32398,E,Position 21353*64
$GPRMC,120746,A,4727.64116,N,735.32398,E,,,050408,,A*53
$GPZDA,120746,05,04,08,,*47
$GPGGA,120747,4727.64038,N,735.32356,E,1,,,423.872,M,,M,,*72
$GPWPL,4727.64038,N,735.32356,E,Position 21354*6C
$GPRMC,120747,A,4727.64038,N,735.32356,E,,,050408,,A*5D
$GPZDA,120747,05,04,08,,*46
$GPGGA,120748,4727.63942,N,735.32314,E,1,,,424.132,M,,M,,*72
$GPWPL,4727.63942,N,735.32314,E,Position 21355*68
$GPRMC,120748,A,4727.63942,N,735.32314,E,,,050408,,A*57
$GPZDA,120748,05,04,08,,*49
$GPGGA,120749,4727.63876,N,735.3223,E,1,,,424.31,M,,M,,*70
$GPWPL,4727.63876,N,735.3223,E,Position 21356*5A
$GPRMC,120749,A,4727.63876,N,735.3223,E,,,050408,,A*67
$GPZDA,120749,05,04,08,,*48
$GPGGA,120750,4727.6375,N,735.3217,E,1,,,424.532,M,,M,,*72
$GPWPL,4727.6375,N,735.3217,E,Position 21357*67
$GPRMC,120750,A,4727.6375,N,735.3217,E,,,050408,,A*53
$GPZDA,120750,05,04,08,,*40
$GPGGA,120751,4727.63648,N,735.3211,E,1,,,425.013,M,,M,,*4A
$GPWPL,4727.63648,N,735.3211,E,Position 21358*56
$GPRMC,120751,A,4727.63648,N,735.3211,E,,,050408,,A*6C
$GPZDA,120751,05,04,08,,*41
$GPGGA,120752,4727.63564,N,735.32032,E,1,,,425.453,M,,M,,*75
$GPWPL,4727.63564,N,735.32032,E,Position 21359*6B
$GPRMC,120752,A,4727.63564,N,735.32032,E,,,050408,,A*53
$GPZDA,120752,05,04,08,,*42
$GPGGA,120753,4727.63498,N,735.31966,E,1,,,425.715,M,,M,,*7C
$GPWPL,4727.63498,N,735.31966,E,Position 21360*68
$GPRMC,120753,A,4727.63498,N,735.31966,E,,,050408,,A*5B
$GPZDA,120753,05,04,08,,*43
$GPGGA,120754,4727.63414,N,735.31882,E,1,,,425.889,M,,M,,*7E
$GPWPL,4727.63414,N,735.31882,E,Position 21361*66
$GPRMC,120754,A,4727.63414,N,735.31882,E,,,050408,,A*53
$GPZDA,120754,05,04,08,,*44
$GPGGA,120755,4727.6333,N,735.31816,E,1,,,426.151,M,,M,,*4C
$GPWPL,4727.6333,N,735.31816,E,Position 21362*59
$GPRMC,120755,A,4727.6333,N,735.31816,E,,,050408,,A*6E
$GPZDA,120755,05,04,08,,*45
$GPGGA,120756,4727.63264,N,735.31792,E,1,,,426.253,M,,M,,*7D
$GPWPL,4727.63264,N,735.31792,E,Position 21363*6B
$GPRMC,120756,A,4727.63264,N,735.31792,E,,,050408,,A*5E
$GPZDA,120756,05,04,08,,*46
$GPGGA,120757,4727.63168,N,735.3175,E,1,,,426.746,M,,M,,*4C
$GPWPL,4727.63168,N,735.3175,E,Position 21364*5D
$GPRMC,120757,A,4727.63168,N,735.3175,E,,,050408,,A*6E
$GPZDA,120757,05,04,08,,*47
$GPGGA,120758,4727.6306,N,735.31726,E,1,,,427.013,M,,M,,*4D
$GPWPL,4727.6306,N,735.31726,E,Position 21365*54
$GPRMC,120758,A,4727.6306,N,735.31726,E,,,050408,,A*69
$GPZDA,120758,05,04,08,,*48
$GPGGA,120759,4727.62958,N,735.31678,E,1,,,427.656,M,,M,,*72
$GPWPL,4727.62958,N,735.31678,E,Position 21366*6E
$GPRMC,120759,A,4727.62958,N,735.31678,E,,,050408,,A*51
$GPZDA,120759,05,04,08,,*49
$GPGGA,120800,4727.62886,N,735.31588,E,1,,,427.716,M,,M,,*7A
$GPWPL,4727.62886,N,735.31588,E,Position 21367*61
$GPRMC,120800,A,4727.62886,N,735.31588,E,,,050408,,A*5C
$GPZDA,120800,05,04,08,,*4A
$GPGGA,120801,4727.6282,N,735.31504,E,1,,,428.279,M,,M,,*40
$GPWPL,4727.6282,N,735.31504,E,Position 21368*56
$GPRMC,120801,A,4727.6282,N,735.31504,E,,,050408,,A*65
$GPZDA,120801,05,04,08,,*4B
$GPGGA,120802,4727.62724,N,735.31408,E,1,,,428.316,M,,M,,*7D
$GPWPL,4727.62724,N,735.31408,E,Position 21369*61
$GPRMC,120802,A,4727.62724,N,735.31408,E,,,050408,,A*50
$GPZDA,120802,05,04,08,,*48
$GPGGA,120803,4727.62652,N,735.31312,E,1,,,428.671,M,,M,,*74
$GPWPL,4727.62652,N,735.31312,E,Position 21370*65
$GPRMC,120803,A,4727.62652,N,735.31312,E,,,050408,,A*5D
$GPZDA,120803,05,04,08,,*49
$GPGGA,120804,4727.62586,N,735.31228,E,1,,,429.068,M,,M,,*7E
$GPWPL,4727.62586,N,735.31228,E,Position 21371*66
$GPRMC,120804,A,4727.62586,N,735.31228,E,,,050408,,A*58
$GPZDA,120804,05,04,08,,*4E
$GPGGA,120806,4727.62496,N,735.31162,E,1,,,429.737,M,,M,,*7C
$GPWPL,4727.62496,N,735.31162,E,Position 21372*68
$GPRMC,120806,A,4727.62496,N,735.31162,E,,,050408,,A*57
$GPZDA,120806,05,04,08,,*4C
$GPGGA,120807,4727.62328,N,735.31054,E,1,,,430.031,M,,M,,*72
$GPWPL,4727.62328,N,735.31054,E,Position 21373*6F
$GPRMC,120807,A,4727.62328,N,735.31054,E,,,050408,,A*50
$GPZDA,120807,05,04,08,,*4D
$GPGGA,120808,4727.62244,N,735.30994,E,1,,,430.295,M,,M,,*7E
$GPWPL,4727.62244,N,735.30994,E,Position 21374*67
$GPRMC,120808,A,4727.62244,N,735.30994,E,,,050408,,A*50
$GPZDA,120808,05,04,08,,*42
$GPGGA,120809,4727.62136,N,735.30958,E,1,,,430.72,M,,M,,*42
$GPWPL,4727.62136,N,735.30958,E,Position 21375*60
$GPRMC,120809,A,4727.62136,N,735.30958,E,,,050408,,A*57
$GPZDA,120809,05,04,08,,*43
$GPGGA,120810,4727.62046,N,735.30898,E,1,,,430.929,M,,M,,*76
$GPWPL,4727.62046,N,735.30898,E,Position 21376*68
$GPRMC,120810,A,4727.62046,N,735.30898,E,,,050408,,A*54
$GPZDA,120810,05,04,08,,*4B
$GPGGA,120811,4727.61968,N,735.30826,E,1,,,431.223,M,,M,,*74
$GPWPL,4727.61968,N,735.30826,E,Position 21377*6A
$GPRMC,120811,A,4727.61968,N,735.30826,E,,,050408,,A*56
$GPZDA,120811,05,04,08,,*4A
$GPGGA,120812,4727.61914,N,735.30736,E,1,,,432.075,M,,M,,*70
$GPWPL,4727.61914,N,735.30736,E,Position 21378*60
$GPRMC,120812,A,4727.61914,N,735.30736,E,,,050408,,A*50
$GPZDA,120812,05,04,08,,*49
$GPGGA,120813,4727.61818,N,735.30658,E,1,,,431.638,M,,M,,*79
$GPWPL,4727.61818,N,735.30658,E,Position 21379*65
$GPRMC,120813,A,4727.61818,N,735.30658,E,,,050408,,A*55
$GPZDA,120813,05,04,08,,*48
$GPGGA,120814,4727.61746,N,735.30574,E,1,,,431.946,M,,M,,*71
$GPWPL,4727.61746,N,735.30574,E,Position 21380*6A
$GPRMC,120814,A,4727.61746,N,735.30574,E,,,050408,,A*5B
$GPZDA,120814,05,04,08,,*4F
$GPGGA,120815,4727.61686,N,735.3052,E,1,,,432.236,M,,M,,*43
$GPWPL,4727.61686,N,735.3052,E,Position 21381*57
$GPRMC,120815,A,4727.61686,N,735.3052,E,,,050408,,A*66
$GPZDA,120815,05,04,08,,*4E
$GPGGA,120816,4727.61638,N,735.30442,E,1,,,433.099,M,,M,,*76
$GPWPL,4727.61638,N,735.30442,E,Position 21382*64
$GPRMC,120816,A,4727.61638,N,735.30442,E,,,050408,,A*55
$GPZDA,120816,05,04,08,,*4D
$GPGGA,120817,4727.61572,N,735.304,E,1,,,433.888,M,,M,,*74
$GPWPL,4727.61572,N,735.304,E,Position 21383*6E
$GPRMC,120817,A,4727.61572,N,735.304,E,,,050408,,A*5F
$GPZDA,120817,05,04,08,,*4C
$GPGGA,120818,4727.61488,N,735.3037,E,1,,,434.628,M,,M,,*4C
$GPWPL,4727.61488,N,735.3037,E,Position 21384*5D
$GPRMC,120818,A,4727.61488,N,735.3037,E,,,050408,,A*64
$GPZDA,120818,05,04,08,,*43
$GPGGA,120819,4727.61356,N,735.30346,E,1,,,434.692,M,,M,,*7D
$GPWPL,4727.61356,N,735.30346,E,Position 21385*6D
$GPRMC,120819,A,4727.61356,N,735.30346,E,,,050408,,A*54
$GPZDA,120819,05,04,08,,*42
$GPGGA,120820,4727.6129,N,735.30298,E,1,,,435.448,M,,M,,*4A
$GPWPL,4727.6129,N,735.30298,E,Position 21386*57
$GPRMC,120820,A,4727.6129,N,735.30298,E,,,050408,,A*67
$GPZDA,120820,05,04,08,,*48
$GPGGA,120821,4727.61236,N,735.30214,E,1,,,435.839,M,,M,,*79
$GPWPL,4727.61236,N,735.30214,E,Position 21387*6E
$GPRMC,120821,A,4727.61236,N,735.30214,E,,,050408,,A*5E
$GPZDA,120821,05,04,08,,*49
$GPGGA,120822,4727.61182,N,735.30142,E,1,,,436.058,M,,M,,*7A
$GPWPL,4727.61182,N,735.30142,E,Position 21388*6D
$GPRMC,120822,A,4727.61182,N,735.30142,E,,,050408,,A*51
$GPZDA,120822,05,04,08,,*4A
$GPGGA,120823,4727.61104,N,735.3007,E,1,,,436.646,M,,M,,*4C
$GPWPL,4727.61104,N,735.3007,E,Position 21389*52
$GPRMC,120823,A,4727.61104,N,735.3007,E,,,050408,,A*6E
$GPZDA,120823,05,04,08,,*4B
$GPGGA,120824,4727.61026,N,735.30016,E,1,,,436.857,M,,M,,*74
$GPWPL,4727.61026,N,735.30016,E,Position 21390*6B
$GPRMC,120824,A,4727.61026,N,735.30016,E,,,050408,,A*58
$GPZDA,120824,05,04,08,,*4C
$GPGGA,120825,4727.60942,N,735.29926,E,1,,,436.978,M,,M,,*71
$GPWPL,4727.60942,N,735.29926,E,Position 21391*62
$GPRMC,120825,A,4727.60942,N,735.29926,E,,,050408,,A*51
$GPZDA,120825,05,04,08,,*4D
$GPGGA,120826,4727.60846,N,735.29854,E,1,,,437.248,M,,M,,*7A
$GPWPL,4727.60846,N,735.29854,E,Position 21392*60
$GPRMC,120826,A,4727.60846,N,735.29854,E,,,050408,,A*53
$GPZDA,120826,05,04,08,,*4E
$GPGGA,120827,4727.60738,N,735.2977,E,1,,,437.346,M,,M,,*4B
$GPWPL,4727.60738,N,735.2977,E,Position 21393*5E
$GPRMC,120827,A,4727.60738,N,735.2977,E,,,050408,,A*6D
$GPZDA,120827,05,04,08,,*4F
$GPGGA,120828,4727.60654,N,735.29698,E,1,,,437.468,M,,M,,*73
$GPWPL,4727.60654,N,735.29698,E,Position 21394*65
$GPRMC,120828,A,4727.60654,N,735.29698,E,,,050408,,A*5E
$GPZDA,120828,05,04,08,,*40
$GPGGA,120829,4727.60588,N,735.29614,E,1,,,437.862,M,,M,,*72
$GPWPL,4727.60588,N,735.29614,E,Position 21395*62
$GPRMC,120829,A,4727.60588,N,735.29614,E,,,050408,,A*59
$GPZDA,120829,05,04,08,,*41
$GPGGA,120830,4727.60534,N,735.29554,E,1,,,438.343,M,,M,,*7D
$GPWPL,4727.60534,N,735.29554,E,Position 21396*61
$GPRMC,120830,A,4727.60534,N,735.29554,E,,,050408,,A*51
$GPZDA,120830,05,04,08,,*49
$GPGGA,120831,4727.60486,N,735.2944,E,1,,,438.783,M,,M,,*48
$GPWPL,4727.60486,N,735.2944,E,Position 21397*5C
$GPRMC,120831,A,4727.60486,N,735.2944,E,,,050408,,A*6C
$GPZDA,120831,05,04,08,,*48
$GPGGA,120832,4727.60462,N,735.2932,E,1,,,438.994,M,,M,,*48
$GPWPL,4727.60462,N,735.2932,E,Position 21398*58
$GPRMC,120832,A,4727.60462,N,735.2932,E,,,050408,,A*64
$GPZDA,120832,05,04,08,,*4B
$GPGGA,120833,4727.60408,N,735.29212,E,1,,,439.291,M,,M,,*7A
$GPWPL,4727.60408,N,735.29212,E,Position 21399*65
$GPRMC,120833,A,4727.60408,N,735.29212,E,,,050408,,A*59
$GPZDA,120833,05,04,08,,*4A
$GPGGA,120834,4727.60354,N,735.29164,E,1,,,439.643,M,,M,,*7A
$GPWPL,4727.60354,N,735.29164,E,Position 21400*6E
$GPRMC,120834,A,4727.60354,N,735.29164,E,,,050408,,A*52
$GPZDA,120834,05,04,08,,*4D
$GPGGA,120835,4727.60288,N,735.29068,E,1,,,439.602,M,,M,,*73
$GPWPL,4727.60288,N,735.29068,E,Position 21401*62
$GPRMC,120835,A,4727.60288,N,735.29068,E,,,050408,,A*5E
$GPZDA,120835,05,04,08,,*4C
$GPGGA,120836,4727.60246,N,735.2893,E,1,,,439.543,M,,M,,*41
$GPWPL,4727.60246,N,735.2893,E,Position 21402*56
$GPRMC,120836,A,4727.60246,N,735.2893,E,,,050408,,A*6A
$GPZDA,120836,05,04,08,,*4F
$GPGGA,120837,4727.60198,N,735.28858,E,1,,,439.393,M,,M,,*74
$GPWPL,4727.60198,N,735.28858,E,Position 21403*68
$GPRMC,120837,A,4727.60198,N,735.28858,E,,,050408,,A*54
$GPZDA,120837,05,04,08,,*4E
$GPGGA,120838,4727.60126,N,735.2878,E,1,,,439.186,M,,M,,*42
$GPWPL,4727.60126,N,735.2878,E,Position 21404*50
$GPRMC,120838,A,4727.60126,N,735.2878,E,,,050408,,A*64
$GPZDA,120838,05,04,08,,*41
$GPGGA,120839,4727.60072,N,735.28684,E,1,,,439.226,M,,M,,*7F
$GPWPL,4727.60072,N,735.28684,E,Position 21405*64
$GPRMC,120839,A,4727.60072,N,735.28684,E,,,050408,,A*50
$GPZDA,120839,05,04,08,,*40
$GPGGA,120840,4727.6003,N,735.28588,E,1,,,439.076,M,,M,,*4F
$GPWPL,4727.6003,N,735.28588,E,Position 21406*5E
$GPRMC,120840,A,4727.6003,N,735.28588,E,,,050408,,A*67
$GPZDA,120840,05,04,08,,*4E
$GPGGA,120841,4727.59976,N,735.28516,E,1,,,439.291,M,,M,,*73
$GPWPL,4727.59976,N,735.28516,E,Position 21407*69
$GPRMC,120841,A,4727.59976,N,735.28516,E,,,050408,,A*50
$GPZDA,120841,05,04,08,,*4F
$GPGGA,120842,4727.5994,N,735.2845,E,1,,,439.675,M,,M,,*78
$GPWPL,4727.5994,N,735.2845,E,Position 21408*60
$GPRMC,120842,A,4727.5994,N,735.2845,E,,,050408,,A*55
$GPZDA,120842,05,04,08,,*4C
$GPGGA,120843,4727.5988,N,735.28378,E,1,,,439.564,M,,M,,*4A
$GPWPL,4727.5988,N,735.28378,E,Position 21409*51
