$GPGGA,083525.129,5125.7397,N,00239.8817,W,1,08,01.1,50.7,M,51.6,M,,*42
$GPRMC,083525.129,A,5125.7397,N,00239.8817,W,0.00,142.10,140705,,,A*79
$GPVTG,142.10,T,,,0.00,N,0.00,K,A*76
$GPGGA,083526.129,5125.7397,N,00239.8817,W,1,08,01.1,50.7,M,51.6,M,,*41
$GPGSA,A,3,04,07,11,13,20,23,24,25,,,,,1.8,1.1,1.5*3C
$GPGSV,3,1,09,01,08,042,,004,047,298,34,07,33,240,31,11,14,141,24*7A
$GPGSV,3,2,09,13,42,198,30,20,57,076,44,23,70,150,44,24,79,185,46*73
$GPGSV,3,3,09,25,19,043,34,,,,,,,,,,,,*4F
$GPRMC,083526.129,A,5125.7397,N,00239.8817,W,0.00,142.10,140705,,,A*7A
$GPVTG,142.10,T,,,0.00,N,0.00,K,A*76
$GPGGA,083527.129,5125.7397,N,00239.8816,W,1,08,01.1,50.7,M,51.6,M,,*41
$GPRMC,083527.129,A,5125.7397,N,00239.8816,W,0.00,142.10,140705,,,A*7A
$GPVTG,142.10,T,,,0.00,N,0.00,K,A*76
$GPGGA,083528.128,5125.7397,N,00239.8816,W,1,08,01.1,50.8,M,51.6,M,,*40
$GPRMC,083528.128,A,5125.7397,N,00239.8816,W,0.00,142.10,140705,,,A*74
$GPVTG,142.10,T,,,0.00,N,0.00,K,A*76
$GPGGA,083529.128,5125.7397,N,00239.8815,W,1,08,01.1,50.8,M,51.6,M,,*42
$GPGSA,A,3,04,07,11,13,20,23,24,25,,,,,1.8,1.1,1.5*3C
$GPGSV,3,1,09,01,08,042,,004,047,298,34,07,33,240,31,11,14,141,24*7A
$GPGSV,3,2,09,13,43,198,30,20,57,076,43,23,70,150,44,24,79,185,46*75
$GPGSV,3,3,09,25,19,043,34,,,,,,,,,,,,*4F
$GPRMC,083529.128,A,5125.7397,N,00239.8815,W,0.00,142.10,140705,,,A*76
$GPVTG,142.10,T,,,0.00,N,0.00,K,A*76
$GPGGA,083530.128,5125.7396,N,00239.8815,W,1,08,01.1,50.8,M,51.6,M,,*4B
$GPRMC,083530.128,A,5125.7396,N,00239.8815,W,0.00,142.10,140705,,,A*7F
$GPVTG,142.10,T,,,0.00,N,0.00,K,A*76
$GPGGA,083531.128,5125.7396,N,00239.8814,W,1,08,01.1,50.8,M,51.6,M,,*4B
$GPRMC,083531.128,A,5125.7396,N,00239.8814,W,0.00,142.10,140705,,,A*7F
$GPVTG,142.10,T,,,0.00,N,0.00,K,A*76
$GPGGA,083532.128,5125.7396,N,00239.8813,W,1,08,01.1,50.8,M,51.6,M,,*4F
$GPGSA,A,3,04,07,11,13,20,23,24,25,,,,,1.8,1.1,1.5*3C
$GPGSV,3,1,09,01,08,042,,004,047,298,34,07,33,240,30,11,14,141,25*7A
$GPGSV,3,2,09,13,43,198,30,20,57,076,43,23,70,150,44,24,79,185,46*75
$GPGSV,3,3,09,25,19,043,34,,,,,,,,,,,,*4F
$GPRMC,083532.128,A,5125.7396,N,00239.8813,W,0.00,142.10,140705,,,A*7B
$GPVTG,142.10,T,,,0.00,N,0.00,K,A*76
$GPGGA,083533.127,5125.7396,N,00239.8813,W,1,07,01.3,50.8,M,51.6,M,,*4C
$GPRMC,083533.127,A,5125.7396,N,00239.8813,W,0.00,142.10,140705,,,A*75
$GPVTG,142.10,T,,,0.00,N,0.00,K,A*76
$GPGGA,083534.127,5125.7396,N,00239.8812,W,1,07,01.3,50.8,M,51.6,M,,*4A
$GPRMC,083534.127,A,5125.7396,N,00239.8812,W,0.00,142.10,140705,,,A*73
$GPVTG,142.10,T,,,0.00,N,0.00,K,A*76
$GPGGA,083535.127,5125.7396,N,00239.8812,W,1,07,01.3,50.9,M,51.6,M,,*4A
$GPGSA,A,3,04,11,13,20,23,24,25,,,,,,2.1,1.3,1.6*30
$GPGSV,3,1,09,01,08,042,,004,047,298,34,07,33,240,30,11,14,141,25*7A
$GPGSV,3,2,09,13,43,198,30,20,57,076,43,23,70,150,44,24,79,185,46*75
$GPGSV,3,3,09,25,19,043,34,,,,,,,,,,,,*4F
$GPRMC,083535.127,A,5125.7396,N,00239.8812,W,0.00,142.10,140705,,,A*72
$GPVTG,142.10,T,,,0.00,N,0.00,K,A*76
$GPGGA,083536.127,5125.7395,N,00239.8811,W,1,07,01.3,50.9,M,51.6,M,,*49
$GPRMC,083536.127,A,5125.7395,N,00239.8811,W,0.00,142.10,140705,,,A*71
$GPVTG,142.10,T,,,0.00,N,0.00,K,A*76
$GPGGA,083537.126,5125.7395,N,00239.8811,W,1,07,01.3,50.8,M,51.6,M,,*48
$GPRMC,083537.126,A,5125.7395,N,00239.8811,W,0.00,142.10,140705,,,A*71
$GPVTG,142.10,T,,,0.00,N,0.00,K,A*76
$GPGGA,083538.126,5125.7395,N,00239.8811,W,1,07,01.3,50.8,M,51.6,M,,*47
$GPGSA,A,3,04,11,13,20,23,24,25,,,,,,2.1,1.3,1.6*30
$GPGSV,3,1,09,01,08,042,,004,047,298,34,07,33,240,29,11,14,141,25*72
$GPGSV,3,2,09,13,43,198,30,20,57,076,43,23,70,150,44,24,79,185,45*76
$GPGSV,3,3,09,25,19,043,34,,,,,,,,,,,,*4F
$GPRMC,083538.126,A,5125.7395,N,00239.8811,W,0.00,142.10,140705,,,A*7E
$GPVTG,142.10,T,,,0.00,N,0.00,K,A*76
$GPGGA,083539.126,5125.7395,N,00239.8810,W,1,07,01.3,50.8,M,51.6,M,,*47
$GPRMC,083539.126,A,5125.7395,N,00239.8810,W,0.00,142.10,140705,,,A*7E
$GPVTG,142.10,T,,,0.00,N,0.00,K,A*76
$GPGGA,083540.126,5125.7395,N,00239.8810,W,1,07,01.3,50.8,M,51.6,M,,*49
$GPRMC,083540.126,A,5125.7395,N,00239.8810,W,0.00,142.10,140705,,,A*70
$GPVTG,142.10,T,,,0.00,N,0.00,K,A*76
$GPGGA,083541.126,5125.7395,N,00239.8810,W,1,07,01.3,50.9,M,51.6,M,,*49
$GPGSA,A,3,04,11,13,20,23,24,25,,,,,,2.1,1.3,1.6*30
$GPGSV,3,1,09,01,08,042,,004,047,298,34,07,33,240,29,11,14,141,26*71
$GPGSV,3,2,09,13,43,198,29,20,57,076,44,23,70,150,44,24,79,184,45*78
$GPGSV,3,3,09,25,19,043,34,,,,,,,,,,,,*4F
$GPRMC,083541.126,A,5125.7395,N,00239.8810,W,0.00,142.10,140705,,,A*71
$GPVTG,142.10,T,,,0.00,N,0.00,K,A*76
$GPGGA,083542.125,5125.7395,N,00239.8809,W,1,07,01.3,50.9,M,51.6,M,,*41
$GPRMC,083542.125,A,5125.7395,N,00239.8809,W,0.00,142.10,140705,,,A*79
$GPVTG,142.10,T,,,0.00,N,0.00,K,A*76
$GPGGA,083543.125,5125.7395,N,00239.8809,W,1,07,01.3,50.9,M,51.6,M,,*40
$GPRMC,083543.125,A,5125.7395,N,00239.8809,W,0.00,142.10,140705,,,A*78
$GPVTG,142.10,T,,,0.00,N,0.00,K,A*76
$GPGGA,083544.125,5125.7396,N,00239.8809,W,1,07,01.3,50.9,M,51.6,M,,*44
$GPGSA,A,3,04,11,13,20,23,24,25,,,,,,2.1,1.3,1.6*30
$GPGSV,3,1,09,01,08,042,,004,047,298,33,07,33,240,29,11,14,141,26*76
$GPGSV,3,2,09,13,43,198,29,20,57,076,43,23,70,150,44,24,79,184,45*7F
$GPGSV,3,3,09,25,19,043,34,,,,,,,,,,,,*4F
$GPRMC,083544.125,A,5125.7396,N,00239.8809,W,0.00,142.10,140705,,,A*7C
$GPVTG,142.10,T,,,0.00,N,0.00,K,A*76
$GPGGA,083545.125,5125.7396,N,00239.8809,W,1,07,01.3,50.9,M,51.6,M,,*45
$GPRMC,083545.125,A,5125.7396,N,00239.8809,W,0.00,142.10,140705,,,A*7D
$GPVTG,142.10,T,,,0.00,N,0.00,K,A*76
$GPGGA,083546.124,5125.7396,N,00239.8809,W,1,07,01.3,50.9,M,51.6,M,,*47
$GPRMC,083546.124,A,5125.7396,N,00239.8809,W,0.00,142.10,140705,,,A*7F
$GPVTG,142.10,T,,,0.00,N,0.00,K,A*76
$GPGGA,083547.124,5125.7396,N,00239.8809,W,1,07,01.3,50.9,M,51.6,M,,*46
$GPGSA,A,3,04,11,13,20,23,24,25,,,,,,2.1,1.3,1.6*30
$GPGSV,3,1,09,01,08,042,,004,047,298,32,07,33,240,29,11,14,141,26*77
$GPGSV,3,2,09,13,43,198,29,20,57,076,43,23,70,150,44,24,79,184,45*7F
$GPGSV,3,3,09,25,19,043,34,,,,,,,,,,,,*4F
$GPRMC,083547.124,A,5125.7396,N,00239.8809,W,0.00,142.10,140705,,,A*7E
$GPVTG,142.10,T,,,0.00,N,0.00,K,A*76
$GPGGA,083548.124,5125.7396,N,00239.8809,W,1,07,01.3,50.9,M,51.6,M,,*49
$GPRMC,083548.124,A,5125.7396,N,00239.8809,W,0.00,142.10,140705,,,A*71
$GPVTG,142.10,T,,,0.00,N,0.00,K,A*76
$GPGGA,083549.124,5125.7396,N,00239.8809,W,1,07,01.3,50.9,M,51.6,M,,*48
$GPRMC,083549.124,A,5125.7396,N,00239.8809,W,0.00,142.10,140705,,,A*70
$GPVTG,142.10,T,,,0.00,N,0.00,K,A*76
$GPGGA,083550.124,5125.7397,N,00239.8809,W,1,07,01.3,50.9,M,51.6,M,,*41
$GPGSA,A,3,04,11,13,20,23,24,25,,,,,,2.1,1.3,1.6*30
$GPGSV,3,1,09,01,08,042,,004,047,298,33,07,33,240,29,11,14,141,26*76
$GPGSV,3,2,09,13,43,198,28,20,57,076,43,23,70,150,45,24,79,184,45*7F
$GPGSV,3,3,09,25,19,043,34,,,,,,,,,,,,*4F
$GPRMC,083550.124,A,5125.7397,N,00239.8809,W,0.00,142.10,140705,,,A*79
$GPVTG,142.10,T,,,0.00,N,0.00,K,A*76
$GPGGA,083551.123,5125.7397,N,00239.8808,W,1,07,01.3,51.1,M,51.6,M,,*4F
$GPRMC,083551.123,A,5125.7397,N,00239.8808,W,0.00,142.10,140705,,,A*7E
$GPVTG,142.10,T,,,0.00,N,0.00,K,A*76
$GPGGA,083552.123,5125.7397,N,00239.8808,W,1,07,01.3,51.1,M,51.6,M,,*4C
$GPRMC,083552.123,A,5125.7397,N,00239.8808,W,0.00,142.10,140705,,,A*7D
$GPVTG,142.10,T,,,0.00,N,0.00,K,A*76
$GPGGA,083553.123,5125.7397,N,00239.8808,W,1,07,01.3,51.1,M,51.6,M,,*4D
$GPGSA,A,3,04,11,13,20,23,24,25,,,,,,2.1,1.3,1.6*30
$GPGSV,3,1,09,01,08,042,,004,047,298,32,07,33,240,29,11,14,141,26*77
$GPGSV,3,2,09,13,43,198,27,20,57,076,43,23,70,149,44,24,79,184,44*78
$GPGSV,3,3,09,25,19,043,33,,,,,,,,,,,,*48
$GPRMC,083553.123,A,5125.7397,N,00239.8808,W,0.00,142.10,140705,,,A*7C
$GPVTG,142.10,T,,,0.00,N,0.00,K,A*76
$GPGGA,083554.123,5125.7397,N,00239.8808,W,1,07,01.3,51.1,M,51.6,M,,*4A
$GPRMC,083554.123,A,5125.7397,N,00239.8808,W,0.00,142.10,140705,,,A*7B
$GPVTG,142.10,T,,,0.00,N,0.00,K,A*76
$GPGGA,083555.123,5125.7397,N,00239.8810,W,1,07,01.3,51.1,M,51.6,M,,*42
$GPRMC,083555.123,A,5125.7397,N,00239.8810,W,0.00,142.10,140705,,,A*73
$GPVTG,142.10,T,,,0.00,N,0.00,K,A*76
$GPGGA,083556.122,5125.7397,N,00239.8810,W,1,07,01.3,51.1,M,51.6,M,,*40
$GPGSA,A,3,04,11,13,20,23,24,25,,,,,,2.1,1.3,1.6*30
$GPGSV,3,1,09,01,08,042,,004,047,298,32,07,33,240,27,11,14,141,26*79
$GPGSV,3,2,09,13,43,198,27,20,57,076,43,23,70,149,44,24,79,184,43*7F
$GPGSV,3,3,09,25,19,043,34,,,,,,,,,,,,*4F
$GPRMC,083556.122,A,5125.7397,N,00239.8810,W,0.00,142.10,140705,,,A*71
$GPVTG,142.10,T,,,0.00,N,0.00,K,A*76
$GPGGA,083557.122,5125.7398,N,00239.8810,W,1,07,01.3,51.1,M,51.6,M,,*4E
$GPRMC,083557.122,A,5125.7398,N,00239.8810,W,0.00,142.10,140705,,,A*7F
$GPVTG,142.10,T,,,0.00,N,0.00,K,A*76
$GPGGA,083558.122,5125.7398,N,00239.8810,W,1,07,01.3,51.1,M,51.6,M,,*41
$GPRMC,083558.122,A,5125.7398,N,00239.8810,W,0.00,142.10,140705,,,A*70
$GPVTG,142.10,T,,,0.00,N,0.00,K,A*76
$GPGGA,083559.122,5125.7398,N,00239.8810,W,1,07,01.3,51.2,M,51.6,M,,*43
$GPGSA,A,3,04,11,13,20,23,24,25,,,,,,2.1,1.3,1.6*30
$GPGSV,3,1,09,01,07,042,,004,047,298,33,07,33,240,26,11,14,141,26*76
$GPGSV,3,2,09,13,43,198,27,20,57,076,44,23,70,149,44,24,79,184,44*7F
$GPGSV,3,3,09,25,18,043,34,,,,,,,,,,,,*4E
$GPRMC,083559.122,A,5125.7398,N,00239.8810,W,0.00,142.10,140705,,,A*71
$GPVTG,142.10,T,,,0.00,N,0.00,K,A*76
$GPGGA,083600.121,5125.7398,N,00239.8810,W,1,07,01.3,51.2,M,51.6,M,,*4F
$GPRMC,083600.121,A,5125.7398,N,00239.8810,W,0.00,142.10,140705,,,A*7D
$GPVTG,142.10,T,,,0.00,N,0.00,K,A*76
$GPGGA,083601.121,5125.7398,N,00239.8810,W,1,07,01.3,51.2,M,51.6,M,,*4E
$GPRMC,083601.121,A,5125.7398,N,00239.8810,W,0.00,142.10,140705,,,A*7C
$GPVTG,142.10,T,,,0.00,N,0.00,K,A*76
$GPGGA,083602.121,5125.7398,N,00239.8810,W,1,07,01.3,51.2,M,51.6,M,,*4D
$GPGSA,A,3,04,11,13,20,23,24,25,,,,,,2.1,1.3,1.6*30
$GPGSV,3,1,09,01,07,042,,004,047,298,33,07,33,240,27,11,14,142,27*75
$GPGSV,3,2,09,13,43,198,28,20,57,076,45,23,70,149,45,24,79,184,45*71
$GPGSV,3,3,09,25,18,043,35,,,,,,,,,,,,*4F
$GPRMC,083602.121,A,5125.7398,N,00239.8810,W,0.00,142.10,140705,,,A*7F
$GPVTG,142.10,T,,,0.00,N,0.00,K,A*76
$GPGGA,083603.121,5125.7398,N,00239.8811,W,1,07,01.3,51.2,M,51.6,M,,*4D
$GPRMC,083603.121,A,5125.7398,N,00239.8811,W,0.00,142.10,140705,,,A*7F
$GPVTG,142.10,T,,,0.00,N,0.00,K,A*76
$GPGGA,083604.121,5125.7398,N,00239.8811,W,1,07,01.3,51.2,M,51.6,M,,*4A
$GPRMC,083604.121,A,5125.7398,N,00239.8811,W,0.00,142.10,140705,,,A*78
$GPVTG,142.10,T,,,0.00,N,0.00,K,A*76
$GPGGA,083605.120,5125.7398,N,00239.8811,W,1,07,01.3,51.2,M,51.6,M,,*4A
$GPGSA,A,3,04,11,13,20,23,24,25,,,,,,2.1,1.3,1.6*30
$GPGSV,3,1,09,01,07,042,,004,047,298,34,07,33,240,27,11,14,142,27*72
$GPGSV,3,2,09,13,43,198,28,20,57,076,45,23,70,149,45,24,79,184,45*71
$GPGSV,3,3,09,25,18,043,35,,,,,,,,,,,,*4F
$GPRMC,083605.120,A,5125.7398,N,00239.8811,W,0.00,142.10,140705,,,A*78
$GPVTG,142.10,T,,,0.00,N,0.00,K,A*76
$GPGGA,083606.120,5125.7398,N,00239.8811,W,1,07,01.3,51.2,M,51.6,M,,*49
$GPRMC,083606.120,A,5125.7398,N,00239.8811,W,0.00,142.10,140705,,,A*7B
$GPVTG,142.10,T,,,0.00,N,0.00,K,A*76
$GPGGA,083607.120,5125.7398,N,00239.8811,W,1,07,01.3,51.3,M,51.6,M,,*49
$GPRMC,083607.120,A,5125.7398,N,00239.8811,W,0.00,142.10,140705,,,A*7A
$GPVTG,142.10,T,,,0.00,N,0.00,K,A*76
$GPGGA,083608.120,5125.7398,N,00239.8811,W,1,07,01.3,51.3,M,51.6,M,,*46
$GPGSA,A,3,04,11,13,20,23,24,25,,,,,,2.1,1.3,1.6*30
$GPGSV,3,1,09,01,07,042,,004,047,298,34,07,33,240,27,11,14,142,26*73
$GPGSV,3,2,09,13,43,198,29,20,57,076,45,23,70,149,45,24,79,184,45*70
$GPGSV,3,3,09,25,18,043,36,,,,,,,,,,,,*4C
$GPRMC,083608.120,A,5125.7398,N,00239.8811,W,0.00,142.10,140705,,,A*75
$GPVTG,142.10,T,,,0.00,N,0.00,K,A*76
$GPGGA,083609.119,5125.7398,N,00239.8811,W,1,07,01.3,51.3,M,51.6,M,,*4D
$GPRMC,083609.119,A,5125.7398,N,00239.8811,W,0.00,142.10,140705,,,A*7E
$GPVTG,142.10,T,,,0.00,N,0.00,K,A*76
$GPGGA,083610.119,5125.7398,N,00239.8812,W,1,07,01.3,51.3,M,51.6,M,,*46
$GPRMC,083610.119,A,5125.7398,N,00239.8812,W,0.00,142.10,140705,,,A*75
$GPVTG,142.10,T,,,0.00,N,0.00,K,A*76
$GPGGA,083611.119,5125.7398,N,00239.8812,W,1,07,01.3,51.4,M,51.6,M,,*40
$GPGSA,A,3,04,11,13,20,23,24,25,,,,,,2.1,1.3,1.6*30
$GPGSV,3,1,09,01,07,042,,004,048,298,34,07,33,240,27,11,14,142,26*7C
$GPGSV,3,2,09,13,43,198,29,20,57,076,45,23,70,149,45,24,79,184,45*70
$GPGSV,3,3,09,25,18,043,36,,,,,,,,,,,,*4C
$GPRMC,083611.119,A,5125.7398,N,00239.8812,W,0.00,142.10,140705,,,A*74
$GPVTG,142.10,T,,,0.00,N,0.00,K,A*76
$GPGGA,083612.119,5125.7398,N,00239.8812,W,1,07,01.3,51.4,M,51.6,M,,*43
$GPRMC,083612.119,A,5125.7398,N,00239.8812,W,0.00,142.10,140705,,,A*77
$GPVTG,142.10,T,,,0.00,N,0.00,K,A*76
$GPGGA,083613.119,5125.7398,N,00239.8812,W,1,07,01.3,51.4,M,51.6,M,,*42
$GPRMC,083613.119,A,5125.7398,N,00239.8812,W,0.00,142.10,140705,,,A*76
$GPVTG,142.10,T,,,0.00,N,0.00,K,A*76
$GPGGA,083614.118,5125.7398,N,00239.8812,W,1,07,01.3,51.5,M,51.6,M,,*45
$GPGSA,A,3,04,11,13,20,23,24,25,,,,,,2.1,1.3,1.6*30
$GPGSV,3,1,09,01,07,042,,004,048,298,33,07,33,240,27,11,14,142,26*7B
$GPGSV,3,2,09,13,43,198,29,20,57,076,45,23,70,149,45,24,79,184,45*70
$GPGSV,3,3,09,25,18,043,36,,,,,,,,,,,,*4C
$GPRMC,083614.118,A,5125.7398,N,00239.8812,W,0.00,142.10,140705,,,A*70
$GPVTG,142.10,T,,,0.00,N,0.00,K,A*76
$GPGGA,083615.118,5125.7398,N,00239.8811,W,1,07,01.3,51.5,M,51.6,M,,*47
$GPRMC,083615.118,A,5125.7398,N,00239.8811,W,0.00,142.10,140705,,,A*72
$GPVTG,142.10,T,,,0.00,N,0.00,K,A*76
$GPGGA,083616.118,5125.7399,N,00239.8811,W,1,07,01.3,51.5,M,51.6,M,,*45
$GPRMC,083616.118,A,5125.7399,N,00239.8811,W,0.00,142.10,140705,,,A*70
$GPVTG,142.10,T,,,0.00,N,0.00,K,A*76
$GPGGA,083617.118,5125.7399,N,00239.8812,W,1,07,01.3,51.6,M,51.6,M,,*44
$GPGSA,A,3,04,11,13,20,23,24,25,,,,,,2.1,1.3,1.6*30
$GPGSV,3,1,09,01,07,042,,004,048,298,33,07,32,240,28,11,14,142,26*75
$GPGSV,3,2,09,13,43,198,29,20,57,076,45,23,70,149,45,24,79,184,45*70
$GPGSV,3,3,09,25,18,043,36,,,,,,,,,,,,*4C
$GPRMC,083617.118,A,5125.7399,N,00239.8812,W,0.00,142.10,140705,,,A*72
$GPVTG,142.10,T,,,0.00,N,0.00,K,A*76
$GPGGA,083618.117,5125.7399,N,00239.8812,W,1,07,01.3,51.6,M,51.6,M,,*44
$GPRMC,083618.117,A,5125.7399,N,00239.8812,W,0.00,142.10,140705,,,A*72
$GPVTG,142.10,T,,,0.00,N,0.00,K,A*76
$GPGGA,083619.117,5125.7399,N,00239.8812,W,1,07,01.3,51.6,M,51.6,M,,*45
$GPRMC,083619.117,A,5125.7399,N,00239.8812,W,0.00,142.10,140705,,,A*73
$GPVTG,142.10,T,,,0.00,N,0.00,K,A*76
$GPGGA,083620.117,5125.7398,N,00239.8812,W,1,07,01.3,51.6,M,51.6,M,,*4E
$GPGSA,A,3,04,11,13,20,23,24,25,,,,,,2.1,1.3,1.6*30
$GPGSV,3,1,09,01,07,042,,004,048,298,34,07,32,240,28,11,14,142,27*73
$GPGSV,3,2,09,13,43,198,29,20,57,076,45,23,70,149,45,24,79,183,45*77
$GPGSV,3,3,09,25,18,043,36,,,,,,,,,,,,*4C
$GPRMC,083620.117,A,5125.7398,N,00239.8812,W,0.00,142.10,140705,,,A*78
$GPVTG,142.10,T,,,0.00,N,0.00,K,A*76
$GPGGA,083621.117,5125.7398,N,00239.8811,W,1,07,01.3,51.6,M,51.6,M,,*4C
$GPRMC,083621.117,A,5125.7398,N,00239.8811,W,0.00,142.10,140705,,,A*7A
$GPVTG,142.10,T,,,0.00,N,0.00,K,A*76
$GPGGA,083622.117,5125.7399,N,00239.8811,W,1,07,01.3,51.7,M,51.6,M,,*4F
$GPRMC,083622.117,A,5125.7399,N,00239.8811,W,0.00,142.10,140705,,,A*78
$GPVTG,142.10,T,,,0.00,N,0.00,K,A*76
$GPGGA,083623.116,5125.7399,N,00239.8812,W,1,07,01.3,51.7,M,51.6,M,,*4C
$GPGSA,A,3,04,11,13,20,23,24,25,,,,,,2.1,1.3,1.6*30
$GPGSV,3,1,09,01,07,042,,004,048,298,35,07,32,240,29,11,14,142,27*73
$GPGSV,3,2,09,13,43,198,29,20,57,076,45,23,70,149,46,24,79,183,45*74
$GPGSV,3,3,09,25,18,043,35,,,,,,,,,,,,*4F
$GPRMC,083623.116,A,5125.7399,N,00239.8812,W,0.00,142.10,140705,,,A*7B
$GPVTG,142.10,T,,,0.00,N,0.00,K,A*76
$GPGGA,083624.116,5125.7399,N,00239.8812,W,1,07,01.3,51.7,M,51.6,M,,*4B
$GPRMC,083624.116,A,5125.7399,N,00239.8812,W,0.00,142.10,140705,,,A*7C
$GPVTG,142.10,T,,,0.00,N,0.00,K,A*76
$GPGGA,083625.116,5125.7399,N,00239.8812,W,1,07,01.3,51.7,M,51.6,M,,*4A
$GPRMC,083625.116,A,5125.7399,N,00239.8812,W,0.00,142.10,140705,,,A*7D
$GPVTG,142.10,T,,,0.00,N,0.00,K,A*76
$GPGGA,083626.116,5125.7399,N,00239.8812,W,1,07,01.3,51.7,M,51.6,M,,*49
$GPGSA,A,3,04,11,13,20,23,24,25,,,,,,2.1,1.3,1.6*30
$GPGSV,3,1,09,01,07,042,,004,048,298,34,07,32,240,29,11,14,142,26*73
$GPGSV,3,2,09,13,43,198,29,20,57,076,45,23,70,149,46,24,79,183,45*74
$GPGSV,3,3,09,25,18,042,35,,,,,,,,,,,,*4E
$GPRMC,083626.116,A,5125.7399,N,00239.8812,W,0.00,142.10,140705,,,A*7E
$GPVTG,142.10,T,,,0.00,N,0.00,K,A*76
$GPGGA,083627.116,5125.7399,N,00239.8812,W,1,07,01.3,51.7,M,51.6,M,,*48
$GPRMC,083627.116,A,5125.7399,N,00239.8812,W,0.00,142.10,140705,,,A*7F
$GPVTG,142.10,T,,,0.00,N,0.00,K,A*76
$GPGGA,083628.115,5125.7399,N,00239.8812,W,1,07,01.3,51.7,M,51.6,M,,*44
$GPRMC,083628.115,A,5125.7399,N,00239.8812,W,0.00,142.10,140705,,,A*73
$GPVTG,142.10,T,,,0.00,N,0.00,K,A*76
$GPGGA,083629.115,5125.7399,N,00239.8812,W,1,07,01.3,51.7,M,51.6,M,,*45
$GPGSA,A,3,04,11,13,20,23,24,25,,,,,,2.1,1.3,1.6*30
$GPGSV,3,1,09,01,07,042,,004,048,298,34,07,32,239,29,11,14,142,26*7D
$GPGSV,3,2,09,13,43,198,29,20,57,076,45,23,70,149,46,24,79,183,45*74
$GPGSV,3,3,09,25,18,042,35,,,,,,,,,,,,*4E
$GPRMC,083629.115,A,5125.7399,N,00239.8812,W,0.00,142.10,140705,,,A*72
$GPVTG,142.10,T,,,0.00,N,0.00,K,A*76
$GPGGA,083630.115,5125.7399,N,00239.8812,W,1,07,01.3,51.7,M,51.6,M,,*4D
$GPRMC,083630.115,A,5125.7399,N,00239.8812,W,0.00,142.10,140705,,,A*7A
$GPVTG,142.10,T,,,0.00,N,0.00,K,A*76
$GPGGA,083631.115,5125.7399,N,00239.8812,W,1,07,01.3,51.8,M,51.6,M,,*43
$GPRMC,083631.115,A,5125.7399,N,00239.8812,W,0.00,142.10,140705,,,A*7B
$GPVTG,142.10,T,,,0.00,N,0.00,K,A*76
$GPGGA,083632.114,5125.7400,N,00239.8813,W,1,07,01.3,51.8,M,51.6,M,,*47
$GPGSA,A,3,04,11,13,20,23,24,25,,,,,,2.1,1.3,1.6*30
$GPGSV,3,1,09,01,07,042,,004,048,298,35,07,32,239,29,11,14,142,26*7C
$GPGSV,3,2,09,13,43,198,28,20,57,076,45,23,70,149,46,24,79,183,45*75
$GPGSV,3,3,09,25,18,042,35,,,,,,,,,,,,*4E
$GPRMC,083632.114,A,5125.7400,N,00239.8813,W,0.00,142.10,140705,,,A*7F
$GPVTG,142.10,T,,,0.00,N,0.00,K,A*76
$GPGGA,083633.114,5125.7402,N,00239.8814,W,1,07,01.3,51.8,M,51.6,M,,*43
$GPRMC,083633.114,A,5125.7402,N,00239.8814,W,0.00,142.10,140705,,,A*7B
$GPVTG,142.10,T,,,0.00,N,0.00,K,A*76
$GPGGA,083634.114,5125.7403,N,00239.8814,W,1,07,01.3,51.7,M,51.6,M,,*4A
$GPRMC,083634.114,A,5125.7403,N,00239.8814,W,0.00,142.10,140705,,,A*7D
$GPVTG,142.10,T,,,0.00,N,0.00,K,A*76
$GPGGA,083635.114,5125.7403,N,00239.8814,W,1,07,01.3,51.8,M,51.6,M,,*44
$GPGSA,A,3,04,11,13,20,23,24,25,,,,,,2.1,1.3,1.6*30
$GPGSV,3,1,09,01,07,042,,004,048,298,34,07,32,239,29,11,14,142,26*7D
$GPGSV,3,2,09,13,43,198,29,20,57,076,45,23,70,149,46,24,79,183,45*74
$GPGSV,3,3,09,25,18,042,37,,,,,,,,,,,,*4C
$GPRMC,083635.114,A,5125.7403,N,00239.8814,W,0.00,142.10,140705,,,A*7C
$GPVTG,142.10,T,,,0.00,N,0.00,K,A*76
$GPGGA,083636.114,5125.7403,N,00239.8813,W,1,07,01.3,51.8,M,51.6,M,,*40
$GPRMC,083636.114,A,5125.7403,N,00239.8813,W,0.00,142.10,140705,,,A*78
$GPVTG,142.10,T,,,0.00,N,0.00,K,A*76
$GPGGA,083637.113,5125.7403,N,00239.8813,W,1,07,01.3,51.8,M,51.6,M,,*46
$GPRMC,083637.113,A,5125.7403,N,00239.8813,W,0.00,142.10,140705,,,A*7E
$GPVTG,142.10,T,,,0.00,N,0.00,K,A*76
$GPGGA,083638.113,5125.7405,N,00239.8816,W,1,07,01.3,51.8,M,51.6,M,,*4A
$GPGSA,A,3,04,11,13,20,23,24,25,,,,,,2.1,1.3,1.6*30
$GPGSV,3,1,09,01,07,042,,004,048,297,36,07,32,239,27,11,14,142,23*7B
$GPGSV,3,2,09,13,43,198,30,20,57,076,46,23,70,149,45,24,79,183,46*7F
$GPGSV,3,3,09,25,18,042,39,,,,,,,,,,,,*42
$GPRMC,083638.113,A,5125.7405,N,00239.8816,W,0.00,142.10,140705,,,A*72
$GPVTG,142.10,T,,,0.00,N,0.00,K,A*76
$GPGGA,083639.113,5125.7411,N,00239.8820,W,1,07,01.3,51.8,M,51.6,M,,*4B
$GPRMC,083639.113,A,5125.7411,N,00239.8820,W,1.50,354.82,140705,,,A*79
$GPVTG,354.82,T,,,1.50,N,2.78,K,A*71
$GPGGA,083640.113,5125.7419,N,00239.8824,W,1,07,01.3,51.8,M,51.6,M,,*49
$GPRMC,083640.113,A,5125.7419,N,00239.8824,W,2.29,354.06,140705,,,A*7A
$GPVTG,354.06,T,,,2.29,N,4.24,K,A*7F
$GPGGA,083641.112,5125.7425,N,00239.8828,W,1,07,01.3,51.8,M,51.6,M,,*4A
$GPGSA,A,3,04,11,13,20,23,24,25,,,,,,2.1,1.3,1.6*30
$GPGSV,3,1,09,01,07,042,,004,048,297,37,07,32,239,27,11,14,142,22*7B
$GPGSV,3,2,09,13,43,198,30,20,57,076,46,23,70,149,46,24,79,183,45*7F
$GPGSV,3,3,09,25,18,042,39,,,,,,,,,,,,*42
$GPRMC,083641.112,A,5125.7425,N,00239.8828,W,2.20,350.85,140705,,,A*7F
$GPVTG,350.85,T,,,2.20,N,4.07,K,A*78
$GPGGA,083642.112,5125.7433,N,00239.8834,W,1,07,01.3,51.8,M,51.6,M,,*43
$GPRMC,083642.112,A,5125.7433,N,00239.8834,W,2.22,347.73,140705,,,A*7B
$GPVTG,347.73,T,,,2.22,N,4.10,K,A*73
$GPGGA,083643.112,5125.7435,N,00239.8836,W,1,08,01.1,51.7,M,51.6,M,,*44
$GPRMC,083643.112,A,5125.7435,N,00239.8836,W,1.86,346.02,140705,,,A*74
$GPVTG,346.02,T,,,1.86,N,3.45,K,A*7E
$GPGGA,083644.112,5125.7436,N,00239.8837,W,1,08,01.1,51.7,M,51.6,M,,*41
$GPGSA,A,3,04,07,11,13,20,23,24,25,,,,,1.8,1.1,1.4*3D
$GPGSV,3,1,09,01,07,042,,004,048,297,41,07,32,239,32,11,14,142,24*78
$GPGSV,3,2,09,13,43,198,32,20,57,077,46,23,70,148,45,24,79,183,44*7F
$GPGSV,3,3,09,25,18,042,36,,,,,,,,,,,,*4D
$GPRMC,083644.112,A,5125.7436,N,00239.8837,W,0.00,346.02,140705,,,A*7E
$GPVTG,346.02,T,,,0.00,N,0.00,K,A*73
$GPGGA,083645.112,5125.7438,N,00239.8839,W,1,08,01.1,51.5,M,51.6,M,,*42
$GPRMC,083645.112,A,5125.7438,N,00239.8839,W,0.00,346.02,140705,,,A*7F
$GPVTG,346.02,T,,,0.00,N,0.00,K,A*73
$GPGGA,083646.111,5125.7440,N,00239.8841,W,1,07,01.5,51.4,M,51.6,M,,*48
$GPRMC,083646.111,A,5125.7440,N,00239.8841,W,0.00,333.16,140705,,,A*78
$GPVTG,333.16,T,,,0.00,N,0.00,K,A*74
$GPGGA,083647.111,5125.7445,N,00239.8844,W,1,07,01.5,51.2,M,51.6,M,,*4F
$GPGSA,A,3,04,07,11,13,20,23,24,,,,,,2.5,1.5,2.0*37
$GPGSV,3,1,09,01,07,042,,004,048,297,42,07,32,239,35,11,14,142,26*7E
$GPGSV,3,2,09,13,43,198,35,20,57,077,46,23,70,148,45,24,79,183,44*78
$GPGSV,3,3,09,25,18,042,32,,,,,,,,,,,,*49
$GPRMC,083647.111,A,5125.7445,N,00239.8844,W,0.98,339.89,140705,,,A*74
$GPVTG,339.89,T,,,0.98,N,1.81,K,A*71
$GPGGA,083648.111,5125.7450,N,00239.8847,W,1,08,01.1,51.0,M,51.6,M,,*4E
$GPRMC,083648.111,A,5125.7450,N,00239.8847,W,1.18,343.37,140705,,,A*7D
$GPVTG,343.37,T,,,1.18,N,2.18,K,A*73
$GPGGA,083649.111,5125.7452,N,00239.8849,W,1,08,01.1,50.8,M,51.6,M,,*4A
$GPRMC,083649.111,A,5125.7452,N,00239.8849,W,1.05,344.04,140705,,,A*7B
$GPVTG,344.04,T,,,1.05,N,1.95,K,A*7E
$GPGGA,083650.111,5125.7453,N,00239.8850,W,1,07,01.5,50.6,M,51.6,M,,*4E
$GPGSA,A,3,04,07,11,13,20,23,24,,,,,,2.5,1.5,2.0*37
$GPGSV,3,1,09,01,07,042,,004,048,297,43,07,32,239,37,11,14,142,29*72
$GPGSV,3,2,09,13,43,198,39,20,57,077,44,23,70,148,44,24,79,183,44*77
$GPGSV,3,3,09,25,18,042,31,,,,,,,,,,,,*4A
$GPRMC,083650.111,A,5125.7453,N,00239.8850,W,0.00,344.72,140705,,,A*7F
$GPVTG,344.72,T,,,0.00,N,0.00,K,A*76
$GPGGA,083651.110,5125.7452,N,00239.8851,W,1,07,01.5,50.3,M,51.6,M,,*4B
$GPRMC,083651.110,A,5125.7452,N,00239.8851,W,0.00,343.90,140705,,,A*74
$GPVTG,343.90,T,,,0.00,N,0.00,K,A*7D
$GPGGA,083652.110,5125.7451,N,00239.8851,W,1,07,01.5,50.2,M,51.6,M,,*4A
$GPRMC,083652.110,A,5125.7451,N,00239.8851,W,0.00,342.53,140705,,,A*7A
$GPVTG,342.53,T,,,0.00,N,0.00,K,A*73
$GPGGA,083653.110,5125.7450,N,00239.8852,W,1,07,01.5,50.0,M,51.6,M,,*4B
$GPGSA,A,3,04,07,11,13,20,23,24,,,,,,2.5,1.5,2.0*37
$GPGSV,3,1,09,01,07,042,,004,048,297,43,07,32,239,39,11,14,142,29*7C
$GPGSV,3,2,09,13,43,198,41,20,57,077,45,23,70,148,44,24,79,183,45*78
$GPGSV,3,3,09,25,18,042,28,,,,,,,,,,,,*42
$GPRMC,083653.110,A,5125.7450,N,00239.8852,W,0.00,341.35,140705,,,A*7A
$GPVTG,341.35,T,,,0.00,N,0.00,K,A*70
$GPGGA,083654.110,5125.7450,N,00239.8852,W,1,07,01.5,49.9,M,51.6,M,,*4D
$GPRMC,083654.110,A,5125.7450,N,00239.8852,W,0.00,341.35,140705,,,A*7D
$GPVTG,341.35,T,,,0.00,N,0.00,K,A*70
$GPGGA,083655.109,5125.7450,N,00239.8853,W,1,07,01.5,49.7,M,51.6,M,,*4B
$GPRMC,083655.109,A,5125.7450,N,00239.8853,W,0.00,341.35,140705,,,A*75
$GPVTG,341.35,T,,,0.00,N,0.00,K,A*70
$GPGGA,083656.109,5125.7449,N,00239.8853,W,1,07,01.5,49.6,M,51.6,M,,*41
$GPGSA,A,3,04,07,11,13,20,23,24,,,,,,2.5,1.5,2.0*37
$GPGSV,3,1,09,01,07,042,,004,048,297,44,07,32,239,39,11,14,142,28*7A
$GPGSV,3,2,09,13,43,198,42,20,57,077,46,23,70,148,44,24,79,183,44*79
$GPGSV,3,3,09,25,18,042,27,,,,,,,,,,,,*4D
$GPRMC,083656.109,A,5125.7449,N,00239.8853,W,0.00,341.35,140705,,,A*7E
$GPVTG,341.35,T,,,0.00,N,0.00,K,A*70
$GPGGA,083657.109,5125.7448,N,00239.8853,W,1,07,01.5,49.4,M,51.6,M,,*43
$GPRMC,083657.109,A,5125.7448,N,00239.8853,W,0.00,341.35,140705,,,A*7E
$GPVTG,341.35,T,,,0.00,N,0.00,K,A*70
$GPGGA,083658.109,5125.7448,N,00239.8853,W,1,07,01.5,49.3,M,51.6,M,,*4B
$GPRMC,083658.109,A,5125.7448,N,00239.8853,W,0.00,341.35,140705,,,A*71
$GPVTG,341.35,T,,,0.00,N,0.00,K,A*70
$GPGGA,083659.109,5125.7448,N,00239.8853,W,1,07,01.5,49.2,M,51.6,M,,*4B
$GPGSA,A,3,04,07,11,13,20,23,24,,,,,,2.5,1.5,2.0*37
$GPGSV,3,1,09,01,07,042,,004,048,297,44,07,32,239,40,11,14,142,27*7B
$GPGSV,3,2,09,13,43,198,42,20,56,077,46,23,70,148,44,24,79,182,44*79
$GPGSV,3,3,09,25,18,042,28,,,,,,,,,,,,*42
$GPRMC,083659.109,A,5125.7448,N,00239.8853,W,0.00,341.35,140705,,,A*70
$GPVTG,341.35,T,,,0.00,N,0.00,K,A*70
$GPGGA,083700.108,5125.7447,N,00239.8853,W,1,07,01.5,49.1,M,51.6,M,,*4B
$GPRMC,083700.108,A,5125.7447,N,00239.8853,W,0.00,341.35,140705,,,A*73
$GPVTG,341.35,T,,,0.00,N,0.00,K,A*70
$GPGGA,083701.108,5125.7447,N,00239.8853,W,1,07,01.5,49.0,M,51.6,M,,*4B
$GPRMC,083701.108,A,5125.7447,N,00239.8853,W,0.00,341.35,140705,,,A*72
$GPVTG,341.35,T,,,0.00,N,0.00,K,A*70
$GPGGA,083702.108,5125.7447,N,00239.8853,W,1,07,01.5,48.9,M,51.6,M,,*40
$GPGSA,A,3,04,07,11,13,20,23,24,,,,,,2.5,1.5,2.0*37
$GPGSV,3,1,09,01,07,042,,004,048,297,44,07,32,239,40,11,14,142,27*7B
$GPGSV,3,2,09,13,43,198,42,20,56,077,47,23,70,148,44,24,79,182,44*78
$GPGSV,3,3,09,25,18,042,28,,,,,,,,,,,,*42
$GPRMC,083702.108,A,5125.7447,N,00239.8853,W,0.00,341.35,140705,,,A*71
$GPVTG,341.35,T,,,0.00,N,0.00,K,A*70
$GPGGA,083703.108,5125.7446,N,00239.8853,W,1,07,01.5,48.8,M,51.6,M,,*41
$GPRMC,083703.108,A,5125.7446,N,00239.8853,W,0.00,341.35,140705,,,A*71
$GPVTG,341.35,T,,,0.00,N,0.00,K,A*70
$GPGGA,083704.107,5125.7446,N,00239.8853,W,1,07,01.5,48.8,M,51.6,M,,*49
$GPRMC,083704.107,A,5125.7446,N,00239.8853,W,0.00,341.35,140705,,,A*79
$GPVTG,341.35,T,,,0.00,N,0.00,K,A*70
$GPGGA,083705.107,5125.7446,N,00239.8853,W,1,07,01.5,48.7,M,51.6,M,,*47
$GPGSA,A,3,04,07,11,13,20,23,24,,,,,,2.5,1.5,2.0*37
$GPGSV,3,1,09,01,07,042,,004,048,297,44,07,32,239,40,11,14,142,26*7A
$GPGSV,3,2,09,13,43,198,42,20,56,077,47,23,70,148,44,24,79,182,44*78
$GPGSV,3,3,09,25,18,042,29,,,,,,,,,,,,*43
$GPRMC,083705.107,A,5125.7446,N,00239.8853,W,0.00,341.35,140705,,,A*78
$GPVTG,341.35,T,,,0.00,N,0.00,K,A*70
$GPGGA,083706.107,5125.7446,N,00239.8853,W,1,07,01.5,48.6,M,51.6,M,,*45
$GPRMC,083706.107,A,5125.7446,N,00239.8853,W,0.00,341.35,140705,,,A*7B
$GPVTG,341.35,T,,,0.00,N,0.00,K,A*70
$GPGGA,083707.107,5125.7445,N,00239.8853,W,1,07,01.5,48.6,M,51.6,M,,*47
$GPRMC,083707.107,A,5125.7445,N,00239.8853,W,0.00,341.35,140705,,,A*79
$GPVTG,341.35,T,,,0.00,N,0.00,K,A*70
$GPGGA,083708.107,5125.7445,N,00239.8853,W,1,07,01.5,48.5,M,51.6,M,,*4B
$GPGSA,A,3,04,07,11,13,20,23,24,,,,,,2.5,1.5,2.0*37
$GPGSV,3,1,09,01,07,042,,004,048,297,44,07,32,239,40,11,13,142,26*7D
$GPGSV,3,2,09,13,43,198,42,20,56,077,47,23,70,148,44,24,79,182,44*78
$GPGSV,3,3,09,25,18,042,29,,,,,,,,,,,,*43
$GPRMC,083708.107,A,5125.7445,N,00239.8853,W,0.00,341.35,140705,,,A*76
$GPVTG,341.35,T,,,0.00,N,0.00,K,A*70
$GPGGA,083709.106,5125.7445,N,00239.8853,W,1,07,01.5,48.5,M,51.6,M,,*4B
$GPRMC,083709.106,A,5125.7445,N,00239.8853,W,0.00,341.35,140705,,,A*76
$GPVTG,341.35,T,,,0.00,N,0.00,K,A*70
$GPGGA,083710.106,5125.7444,N,00239.8853,W,1,07,01.5,48.4,M,51.6,M,,*43
$GPRMC,083710.106,A,5125.7444,N,00239.8853,W,0.00,341.35,140705,,,A*7F
$GPVTG,341.35,T,,,0.00,N,0.00,K,A*70
$GPGGA,083711.106,5125.7444,N,00239.8853,W,1,07,01.5,48.2,M,51.6,M,,*44
$GPGSA,A,3,04,07,11,13,20,23,24,,,,,,2.5,1.5,2.0*37
$GPGSV,3,1,09,01,07,042,,004,048,297,44,07,32,239,40,11,13,142,25*7E
$GPGSV,3,2,09,13,43,198,42,20,56,077,47,23,70,148,44,24,79,182,44*78
$GPGSV,3,3,09,25,18,042,29,,,,,,,,,,,,*43
$GPRMC,083711.106,A,5125.7444,N,00239.8853,W,0.00,341.35,140705,,,A*7E
$GPVTG,341.35,T,,,0.00,N,0.00,K,A*70
$GPGGA,083712.106,5125.7444,N,00239.8853,W,1,07,01.5,48.2,M,51.6,M,,*47
$GPRMC,083712.106,A,5125.7444,N,00239.8853,W,0.00,341.35,140705,,,A*7D
$GPVTG,341.35,T,,,0.00,N,0.00,K,A*70
$GPGGA,083713.106,5125.7443,N,00239.8853,W,1,07,01.5,48.1,M,51.6,M,,*42
$GPRMC,083713.106,A,5125.7443,N,00239.8853,W,0.00,341.35,140705,,,A*7B
$GPVTG,341.35,T,,,0.00,N,0.00,K,A*70
$GPGGA,083714.105,5125.7443,N,00239.8853,W,1,07,01.5,48.0,M,51.6,M,,*47
$GPGSA,A,3,04,07,11,13,20,23,24,,,,,,2.5,1.5,2.0*37
$GPGSV,3,1,09,01,07,042,,004,048,297,44,07,32,239,40,11,13,142,24*7F
$GPGSV,3,2,09,13,43,198,42,20,56,077,47,23,70,148,44,24,79,182,44*78
$GPGSV,3,3,09,25,18,042,29,,,,,,,,,,,,*43
$GPRMC,083714.105,A,5125.7443,N,00239.8853,W,0.00,341.35,140705,,,A*7F
$GPVTG,341.35,T,,,0.00,N,0.00,K,A*70
$GPGGA,083715.105,5125.7443,N,00239.8853,W,1,07,01.5,47.9,M,51.6,M,,*40
$GPRMC,083715.105,A,5125.7443,N,00239.8853,W,0.00,341.35,140705,,,A*7E
$GPVTG,341.35,T,,,0.00,N,0.00,K,A*70
$GPGGA,083716.105,5125.7443,N,00239.8853,W,1,07,01.5,47.8,M,51.6,M,,*42
$GPRMC,083716.105,A,5125.7443,N,00239.8853,W,0.00,341.35,140705,,,A*7D
$GPVTG,341.35,T,,,0.00,N,0.00,K,A*70
$GPGGA,083717.105,5125.7443,N,00239.8853,W,1,07,01.5,47.8,M,51.6,M,,*43
$GPGSA,A,3,04,07,11,13,20,23,24,,,,,,2.5,1.5,2.0*37
$GPGSV,3,1,09,01,07,042,,004,048,297,44,07,32,239,40,11,13,142,22*79
$GPGSV,3,2,09,13,43,198,42,20,56,077,47,23,70,148,44,24,79,182,44*78
$GPGSV,3,3,09,25,18,042,29,,,,,,,,,,,,*43
$GPRMC,083717.105,A,5125.7443,N,00239.8853,W,0.00,341.35,140705,,,A*7C
$GPVTG,341.35,T,,,0.00,N,0.00,K,A*70
$GPGGA,083718.104,5125.7443,N,00239.8853,W,1,07,01.5,47.7,M,51.6,M,,*42
$GPRMC,083718.104,A,5125.7443,N,00239.8853,W,0.00,341.35,140705,,,A*72
$GPVTG,341.35,T,,,0.00,N,0.00,K,A*70
$GPGGA,083719.104,5125.7443,N,00239.8853,W,1,07,01.5,47.6,M,51.6,M,,*42
$GPRMC,083719.104,A,5125.7443,N,00239.8853,W,0.00,341.35,140705,,,A*73
$GPVTG,341.35,T,,,0.00,N,0.00,K,A*70
$GPGGA,083720.104,5125.7443,N,00239.8854,W,1,07,01.5,47.5,M,51.6,M,,*4C
$GPGSA,A,3,04,07,11,13,20,23,24,,,,,,2.5,1.5,2.0*37
$GPGSV,3,1,09,01,07,042,,004,048,297,44,07,32,239,39,11,13,142,22*77
$GPGSV,3,2,09,13,43,198,42,20,56,077,47,23,70,148,44,24,79,182,45*79
$GPGSV,3,3,09,25,18,042,29,,,,,,,,,,,,*43
$GPRMC,083720.104,A,5125.7443,N,00239.8854,W,0.00,341.35,140705,,,A*7E
$GPVTG,341.35,T,,,0.00,N,0.00,K,A*70
$GPGGA,083721.104,5125.7441,N,00239.8854,W,1,07,01.5,47.3,M,51.6,M,,*49
$GPRMC,083721.104,A,5125.7441,N,00239.8854,W,0.00,341.35,140705,,,A*7D
$GPVTG,341.35,T,,,0.00,N,0.00,K,A*70
$GPGGA,083722.104,5125.7438,N,00239.8853,W,1,07,01.5,47.2,M,51.6,M,,*42
$GPRMC,083722.104,A,5125.7438,N,00239.8853,W,0.00,173.22,140705,,,A*72
$GPVTG,173.22,T,,,0.00,N,0.00,K,A*75
$GPGGA,083723.103,5125.7436,N,00239.8853,W,1,07,01.5,47.1,M,51.6,M,,*49
$GPGSA,A,3,04,07,11,13,20,23,24,,,,,,2.5,1.5,2.0*37
$GPGSV,3,1,09,01,07,042,,004,048,297,44,07,32,239,39,11,13,142,24*71
$GPGSV,3,2,09,13,43,198,42,20,56,077,47,23,70,148,44,24,79,182,45*79
$GPGSV,3,3,09,25,18,042,29,,,,,,,,,,,,*43
$GPRMC,083723.103,A,5125.7436,N,00239.8853,W,0.00,169.30,140705,,,A*72
$GPVTG,169.30,T,,,0.00,N,0.00,K,A*7D
$GPGGA,083724.103,5125.7433,N,00239.8852,W,1,08,01.1,47.0,M,51.6,M,,*40
$GPRMC,083724.103,A,5125.7433,N,00239.8852,W,0.00,167.12,140705,,,A*7F
$GPVTG,167.12,T,,,0.00,N,0.00,K,A*73
$GPGGA,083725.103,5125.7431,N,00239.8851,W,1,08,01.1,47.0,M,51.6,M,,*40
$GPRMC,083725.103,A,5125.7431,N,00239.8851,W,0.00,166.06,140705,,,A*7B
$GPVTG,166.06,T,,,0.00,N,0.00,K,A*77
$GPGGA,083726.103,5125.7429,N,00239.8851,W,1,07,01.5,46.9,M,51.6,M,,*49
$GPGSA,A,3,04,07,11,13,20,23,24,,,,,,2.5,1.5,2.0*37
$GPGSV,3,1,10,01,07,042,,002,,,,004,048,297,43,07,32,239,37*71
$GPGSV,3,2,10,11,13,142,27,13,43,198,41,20,56,077,44,23,70,148,44*73
$GPGSV,3,3,10,24,79,182,44,25,18,042,30,,,,,,,,*70
$GPRMC,083726.103,A,5125.7429,N,00239.8851,W,0.00,165.61,140705,,,A*73
$GPVTG,165.61,T,,,0.00,N,0.00,K,A*75
$GPGGA,083727.102,5125.7429,N,00239.8851,W,1,06,01.9,46.9,M,51.6,M,,*44
$GPRMC,083727.102,A,5125.7429,N,00239.8851,W,0.00,166.96,140705,,,A*78
$GPVTG,166.96,T,,,0.00,N,0.00,K,A*7E
$GPGGA,083728.102,5125.7429,N,00239.8851,W,1,07,01.4,46.8,M,51.6,M,,*46
$GPRMC,083728.102,A,5125.7429,N,00239.8851,W,0.00,168.07,140705,,,A*71
$GPVTG,168.07,T,,,0.00,N,0.00,K,A*78
$GPGGA,083729.102,5125.7429,N,00239.8851,W,1,07,01.4,46.8,M,51.6,M,,*47
$GPGSA,A,3,04,07,13,20,23,24,25,,,,,,2.4,1.4,2.0*30
$GPGSV,3,1,10,01,07,042,,002,,,,004,048,297,44,07,32,239,38*79
$GPGSV,3,2,10,11,13,142,25,13,43,198,40,20,56,077,44,23,70,148,44*70
$GPGSV,3,3,10,24,79,182,44,25,18,042,31,,,,,,,,*71
$GPRMC,083729.102,A,5125.7429,N,00239.8851,W,0.00,168.07,140705,,,A*70
$GPVTG,168.07,T,,,0.00,N,0.00,K,A*78
$GPGGA,083730.102,5125.7428,N,00239.8851,W,1,07,01.4,46.7,M,51.6,M,,*41
$GPRMC,083730.102,A,5125.7428,N,00239.8851,W,0.00,168.07,140705,,,A*79
$GPVTG,168.07,T,,,0.00,N,0.00,K,A*78
$GPGGA,083731.102,5125.7428,N,00239.8851,W,1,07,01.4,46.6,M,51.6,M,,*41
$GPRMC,083731.102,A,5125.7428,N,00239.8851,W,0.00,168.07,140705,,,A*78
$GPVTG,168.07,T,,,0.00,N,0.00,K,A*78
$GPGGA,083732.101,5125.7428,N,00239.8852,W,1,07,01.4,46.6,M,51.6,M,,*42
$GPGSA,A,3,04,07,13,20,23,24,25,,,,,,2.4,1.4,2.0*30
$GPGSV,3,1,10,01,07,042,,002,,,,004,048,297,44,07,32,239,39*78
$GPGSV,3,2,10,11,13,142,,013,043,198,39,20,56,077,44,23,70,148,44*79
$GPGSV,3,3,10,24,79,182,44,25,18,042,32,,,,,,,,*72
$GPRMC,083732.101,A,5125.7428,N,00239.8852,W,0.00,168.07,140705,,,A*7B
$GPVTG,168.07,T,,,0.00,N,0.00,K,A*78
$GPGGA,083733.101,5125.7431,N,00239.8853,W,1,07,01.4,46.5,M,51.6,M,,*49
$GPRMC,083733.101,A,5125.7431,N,00239.8853,W,0.00,168.07,140705,,,A*73
$GPVTG,168.07,T,,,0.00,N,0.00,K,A*78
$GPGGA,083734.101,5125.7435,N,00239.8855,W,1,07,01.4,46.4,M,51.6,M,,*4D
$GPRMC,083734.101,A,5125.7435,N,00239.8855,W,1.46,355.50,140705,,,A*7B
$GPVTG,355.50,T,,,1.46,N,2.70,K,A*70
$GPGGA,083735.101,5125.7438,N,00239.8856,W,1,08,01.1,46.4,M,51.6,M,,*48
$GPGSA,A,3,04,07,11,13,20,23,24,25,,,,,1.8,1.1,1.4*3D
$GPGSV,3,1,10,01,07,042,,002,,,,004,048,297,43,07,32,239,38*7E
$GPGSV,3,2,10,11,13,142,23,13,43,198,40,20,56,077,43,23,70,148,44*71
$GPGSV,3,3,10,24,79,182,44,25,18,042,32,,,,,,,,*72
$GPRMC,083735.101,A,5125.7438,N,00239.8856,W,1.39,353.46,140705,,,A*7D
$GPVTG,353.46,T,,,1.39,N,2.57,K,A*7C
$GPGGA,083736.100,5125.7439,N,00239.8856,W,1,08,01.1,46.3,M,51.6,M,,*4C
$GPRMC,083736.100,A,5125.7439,N,00239.8856,W,1.02,352.20,140705,,,A*77
$GPVTG,352.20,T,,,1.02,N,1.89,K,A*75
$GPGGA,083737.100,5125.7441,N,00239.8857,W,1,08,01.1,46.2,M,51.6,M,,*42
$GPRMC,083737.100,A,5125.7441,N,00239.8857,W,0.00,351.31,140705,,,A*78
$GPVTG,351.31,T,,,0.00,N,0.00,K,A*75
$GPGGA,083738.100,5125.7443,N,00239.8858,W,1,07,01.5,46.2,M,51.6,M,,*4B
$GPGSA,A,3,04,07,11,13,20,23,24,,,,,,2.5,1.5,2.0*37
$GPGSV,3,1,10,01,07,042,,002,,,,004,048,297,43,07,32,239,39*7F
$GPGSV,3,2,10,11,13,142,26,13,43,198,40,20,56,077,43,23,70,147,44*7B
$GPGSV,3,3,10,24,78,181,44,25,18,042,31,,,,,,,,*73
$GPRMC,083738.100,A,5125.7443,N,00239.8858,W,0.00,350.13,140705,,,A*7B
$GPVTG,350.13,T,,,0.00,N,0.00,K,A*74
$GPGGA,083739.100,5125.7443,N,00239.8858,W,1,07,01.5,46.1,M,51.6,M,,*49
$GPRMC,083739.100,A,5125.7443,N,00239.8858,W,0.00,349.34,140705,,,A*77
$GPVTG,349.34,T,,,0.00,N,0.00,K,A*79
$GPGGA,083740.100,5125.7444,N,00239.8859,W,1,07,01.5,46.0,M,51.6,M,,*40
$GPRMC,083740.100,A,5125.7444,N,00239.8859,W,0.00,348.10,140705,,,A*78
$GPVTG,348.10,T,,,0.00,N,0.00,K,A*7E
$GPGGA,083741.099,5125.7447,N,00239.8859,W,1,07,01.5,45.9,M,51.6,M,,*49
$GPGSA,A,3,04,07,11,13,20,23,24,,,,,,2.5,1.5,2.0*37
$GPGSV,3,1,10,01,07,042,,002,,,,004,048,297,43,07,32,239,40*71
$GPGSV,3,2,10,11,13,142,26,13,44,198,41,20,56,077,45,23,70,147,43*7C
$GPGSV,3,3,10,24,78,181,44,25,18,042,27,,,,,,,,*74
$GPRMC,083741.099,A,5125.7447,N,00239.8859,W,0.00,350.94,140705,,,A*7E
$GPVTG,350.94,T,,,0.00,N,0.00,K,A*7B
$GPGGA,083742.099,5125.7453,N,00239.8860,W,1,07,01.5,45.8,M,51.6,M,,*44
$GPRMC,083742.099,A,5125.7453,N,00239.8860,W,2.10,357.35,140705,,,A*7D
$GPVTG,357.35,T,,,2.10,N,3.89,K,A*76
$GPGGA,083743.099,5125.7462,N,00239.8855,W,1,07,01.5,45.8,M,51.6,M,,*41
$GPRMC,083743.099,A,5125.7462,N,00239.8855,W,3.56,3.11,140705,,,A*7F
$GPVTG,3.11,T,,,3.56,N,6.59,K,A*79
$GPGGA,083744.099,5125.7472,N,00239.8842,W,1,07,01.5,45.8,M,51.6,M,,*41
$GPGSA,A,3,04,07,11,13,20,23,24,,,,,,2.5,1.5,2.0*37
$GPGSV,3,1,10,01,07,042,,002,,,,004,048,297,42,07,32,239,40*70
$GPGSV,3,2,10,11,13,142,24,13,44,198,40,20,56,077,45,23,70,147,44*78
$GPGSV,3,3,10,24,78,181,44,25,18,042,27,,,,,,,,*74
$GPRMC,083744.099,A,5125.7472,N,00239.8842,W,4.71,40.60,140705,,,A*4C
$GPVTG,40.60,T,,,4.71,N,8.72,K,A*4D
$GPGGA,083745.099,5125.7481,N,00239.8818,W,1,07,01.5,45.8,M,51.6,M,,*43
$GPRMC,083745.099,A,5125.7481,N,00239.8818,W,6.21,56.78,140705,,,A*47
$GPVTG,56.78,T,,,6.21,N,11.50,K,A*7C
$GPGGA,083746.098,5125.7490,N,00239.8784,W,1,07,01.5,45.8,M,51.6,M,,*4B
$GPRMC,083746.098,A,5125.7490,N,00239.8784,W,8.46,66.98,140705,,,A*4D
$GPVTG,66.98,T,,,8.46,N,15.66,K,A*7F
$GPGGA,083747.098,5125.7498,N,00239.8742,W,1,07,01.5,45.8,M,51.6,M,,*48
$GPGSA,A,3,04,07,11,13,20,23,24,,,,,,2.5,1.5,2.0*37
$GPGSV,3,1,10,01,07,042,,002,,,,004,048,297,42,07,32,239,38*7F
$GPGSV,3,2,10,11,13,142,24,13,44,198,39,20,56,077,44,23,70,147,44*77
$GPGSV,3,3,10,24,78,181,43,25,18,042,26,,,,,,,,*72
$GPRMC,083747.098,A,5125.7498,N,00239.8742,W,10.06,71.19,140705,,,A*7C
$GPVTG,71.19,T,,,10.06,N,18.64,K,A*42
$GPGGA,083748.098,5125.7506,N,00239.8691,W,1,07,01.5,45.9,M,51.6,M,,*4F
$GPRMC,083748.098,A,5125.7506,N,00239.8691,W,11.90,74.86,140705,,,A*77
$GPVTG,74.86,T,,,11.90,N,22.04,K,A*40
$GPGGA,083749.098,5125.7516,N,00239.8639,W,1,06,02.3,45.9,M,51.6,M,,*49
$GPRMC,083749.098,A,5125.7516,N,00239.8639,W,12.33,73.02,140705,,,A*74
$GPVTG,73.02,T,,,12.33,N,22.84,K,A*49
$GPGGA,083750.097,5125.7526,N,00239.8589,W,1,07,01.5,45.9,M,51.6,M,,*41
$GPGSA,A,3,04,07,11,13,20,23,24,,,,,,2.5,1.5,2.0*37
$GPGSV,3,1,10,01,07,042,,002,,,,004,048,297,40,07,32,239,37*72
$GPGSV,3,2,10,11,13,142,24,13,44,198,39,20,56,077,44,23,70,147,45*76
$GPGSV,3,3,10,24,78,181,43,25,18,042,,,,,,,,,*76
$GPRMC,083750.097,A,5125.7526,N,00239.8589,W,11.71,72.32,140705,,,A*7F
$GPVTG,72.32,T,,,11.71,N,21.68,K,A*4F
$GPGGA,083751.097,5125.7537,N,00239.8537,W,1,07,01.5,45.9,M,51.6,M,,*45
$GPRMC,083751.097,A,5125.7537,N,00239.8537,W,12.48,72.99,140705,,,A*73
$GPVTG,72.99,T,,,12.48,N,23.12,K,A*48
$GPGGA,083752.097,5125.7549,N,00239.8479,W,1,07,01.5,46.0,M,51.6,M,,*4E
$GPRMC,083752.097,A,5125.7549,N,00239.8479,W,13.70,73.77,140705,,,A*79
$GPVTG,73.77,T,,,13.70,N,25.37,K,A*42
$GPGGA,083753.097,5125.7556,N,00239.8413,W,1,07,01.5,46.0,M,51.6,M,,*4D
$GPGSA,A,3,04,07,11,13,20,23,24,,,,,,2.5,1.5,2.0*37
$GPGSV,3,1,10,01,07,042,,002,,,,004,048,297,39,07,32,239,36*7D
$GPGSV,3,2,10,11,13,142,24,13,44,198,39,20,56,077,43,23,70,147,45*71
$GPGSV,3,3,10,24,78,181,43,25,18,042,,,,,,,,,*76
$GPRMC,083753.097,A,5125.7556,N,00239.8413,W,15.17,78.63,140705,,,A*73
$GPVTG,78.63,T,,,15.17,N,28.09,K,A*4B
$GPGGA,083754.097,5125.7569,N,00239.8350,W,1,06,02.3,46.1,M,51.6,M,,*43
$GPRMC,083754.097,A,5125.7569,N,00239.8350,W,14.93,73.24,140705,,,A*7D
$GPVTG,73.24,T,,,14.93,N,27.65,K,A*4B
$GPGGA,083755.096,5125.7579,N,00239.8280,W,1,07,01.5,46.1,M,51.6,M,,*4A
$GPRMC,083755.096,A,5125.7579,N,00239.8280,W,15.95,76.08,140705,,,A*7C
$GPVTG,76.08,T,,,15.95,N,29.54,K,A*4B
$GPGGA,083756.096,5125.7592,N,00239.8212,W,1,07,01.5,46.2,M,51.6,M,,*44
$GPGSA,A,3,04,07,11,13,20,23,24,,,,,,2.5,1.5,2.0*37
$GPGSV,3,1,10,01,07,042,,002,,,,004,048,297,39,07,32,239,35*7E
$GPGSV,3,2,10,11,13,142,24,13,44,198,39,20,56,077,43,23,70,147,45*71
$GPGSV,3,3,10,24,78,181,43,25,18,042,19,,,,,,,,*7E
$GPRMC,083756.096,A,5125.7592,N,00239.8212,W,16.22,74.31,140705,,,A*76
$GPVTG,74.31,T,,,16.22,N,30.03,K,A*46
$GPGGA,083757.096,5125.7606,N,00239.8142,W,1,07,01.5,46.1,M,51.6,M,,*4E
$GPRMC,083757.096,A,5125.7606,N,00239.8142,W,16.50,72.48,140705,,,A*72
$GPVTG,72.48,T,,,16.50,N,30.55,K,A*48
$GPGGA,083758.096,5125.7620,N,00239.8069,W,1,07,01.5,46.2,M,51.6,M,,*4E
$GPRMC,083758.096,A,5125.7620,N,00239.8069,W,16.80,72.37,140705,,,A*74
$GPVTG,72.37,T,,,16.80,N,31.10,K,A*4D
$GPGGA,083759.095,5125.7634,N,00239.7994,W,1,07,01.5,46.2,M,51.6,M,,*4D
$GPGSA,A,3,04,07,11,13,20,23,24,,,,,,2.5,1.5,2.0*37
$GPGSV,3,1,10,01,07,042,,002,,,,004,048,297,41,07,32,239,32*76
$GPGSV,3,2,10,11,13,142,23,13,44,198,40,20,56,077,43,23,70,147,45*78
$GPGSV,3,3,10,24,78,181,43,25,18,042,23,,,,,,,,*77
$GPRMC,083759.095,A,5125.7634,N,00239.7994,W,17.02,72.64,140705,,,A*7A
$GPVTG,72.64,T,,,17.02,N,31.52,K,A*46
$GPGGA,083800.095,5125.7648,N,00239.7921,W,1,07,01.5,46.3,M,51.6,M,,*4A
$GPRMC,083800.095,A,5125.7648,N,00239.7921,W,17.07,72.67,140705,,,A*7A
$GPVTG,72.67,T,,,17.07,N,31.62,K,A*43
$GPGGA,083801.095,5125.7663,N,00239.7844,W,1,07,01.5,46.3,M,51.6,M,,*40
$GPRMC,083801.095,A,5125.7663,N,00239.7844,W,17.37,72.81,140705,,,A*7B
$GPVTG,72.81,T,,,17.37,N,32.16,K,A*48
$GPGGA,083802.095,5125.7680,N,00239.7757,W,1,07,01.5,46.3,M,51.6,M,,*43
$GPGSA,A,3,04,07,11,13,20,23,24,,,,,,2.5,1.5,2.0*37
$GPGSV,3,1,10,01,07,042,,002,,,,004,048,297,43,07,32,239,32*74
$GPGSV,3,2,10,11,13,142,22,13,44,198,41,20,56,077,44,23,71,147,45*7E
$GPGSV,3,3,10,24,78,181,43,25,18,042,25,,,,,,,,*71
$GPRMC,083802.095,A,5125.7680,N,00239.7757,W,20.36,74.78,140705,,,A*7D
$GPVTG,74.78,T,,,20.36,N,37.71,K,A*49
$GPGGA,083803.095,5125.7700,N,00239.7659,W,1,07,01.5,46.4,M,51.6,M,,*43
$GPRMC,083803.095,A,5125.7700,N,00239.7659,W,23.06,73.23,140705,,,A*73
$GPVTG,73.23,T,,,23.06,N,42.70,K,A*43
$GPGGA,083804.094,5125.7719,N,00239.7562,W,1,07,01.5,46.4,M,51.6,M,,*46
$GPRMC,083804.094,A,5125.7719,N,00239.7562,W,23.01,72.83,140705,,,A*7A
$GPVTG,72.83,T,,,23.01,N,42.62,K,A*4C
$GPGGA,083805.094,5125.7740,N,00239.7463,W,1,07,01.5,46.5,M,51.6,M,,*4A
$GPGSA,A,3,04,07,11,13,20,23,24,,,,,,2.5,1.5,2.0*37
$GPGSV,3,1,10,01,07,042,,002,,,,004,048,297,44,07,32,239,32*73
$GPGSV,3,2,10,11,13,142,23,13,44,198,41,20,56,077,44,23,71,147,45*7F
$GPGSV,3,3,10,24,78,181,43,25,18,042,26,,,,,,,,*72
$GPRMC,083805.094,A,5125.7740,N,00239.7463,W,23.40,72.58,140705,,,A*74
$GPVTG,72.58,T,,,23.40,N,43.35,K,A*4C
$GPGGA,083806.094,5125.7764,N,00239.7359,W,1,07,01.5,46.5,M,51.6,M,,*41
$GPRMC,083806.094,A,5125.7764,N,00239.7359,W,24.82,69.71,140705,,,A*77
$GPVTG,69.71,T,,,24.82,N,45.96,K,A*4B
$GPGGA,083807.094,5125.7791,N,00239.7252,W,1,07,01.5,46.6,M,51.6,M,,*43
$GPRMC,083807.094,A,5125.7791,N,00239.7252,W,26.05,68.62,140705,,,A*78
$GPVTG,68.62,T,,,26.05,N,48.24,K,A*41
$GPGGA,083808.094,5125.7817,N,00239.7144,W,1,07,01.5,46.6,M,51.6,M,,*49
$GPGSA,A,3,04,07,11,13,20,23,24,,,,,,2.5,1.5,2.0*37
$GPGSV,3,1,10,01,07,042,,002,,,,004,048,297,42,07,32,239,34*73
$GPGSV,3,2,10,11,13,142,25,13,44,198,40,20,56,077,43,23,71,147,45*7F
$GPGSV,3,3,10,24,78,181,42,25,18,042,25,,,,,,,,*70
$GPRMC,083808.094,A,5125.7817,N,00239.7144,W,26.11,68.75,140705,,,A*71
$GPVTG,68.75,T,,,26.11,N,48.35,K,A*42
$GPGGA,083809.093,5125.7846,N,00239.7039,W,1,07,01.5,46.7,M,51.6,M,,*41
$GPRMC,083809.093,A,5125.7846,N,00239.7039,W,25.99,68.15,140705,,,A*7D
$GPVTG,68.15,T,,,25.99,N,48.13,K,A*43
$GPGGA,083810.093,5125.7874,N,00239.6933,W,1,07,01.5,46.7,M,51.6,M,,*4A
$GPRMC,083810.093,A,5125.7874,N,00239.6933,W,25.98,67.91,140705,,,A*74
$GPVTG,67.91,T,,,25.98,N,48.12,K,A*40
$GPGGA,083811.093,5125.7902,N,00239.6830,W,1,07,01.5,46.7,M,51.6,M,,*49
$GPGSA,A,3,04,07,11,13,20,23,24,,,,,,2.5,1.5,2.0*37
$GPGSV,3,1,10,01,07,042,,002,,,,004,048,297,43,07,32,239,35*73
$GPGSV,3,2,10,11,13,142,25,13,44,198,37,20,56,077,43,23,71,147,45*7F
$GPGSV,3,3,10,24,78,181,42,25,18,042,25,,,,,,,,*70
$GPRMC,083811.093,A,5125.7902,N,00239.6830,W,25.86,67.55,140705,,,A*70
$GPVTG,67.55,T,,,25.86,N,47.89,K,A*4A
$GPGGA,083812.093,5125.7928,N,00239.6726,W,1,08,01.1,46.8,M,51.6,M,,*4E
$GPRMC,083812.093,A,5125.7928,N,00239.6726,W,25.72,67.79,140705,,,A*76
$GPVTG,67.79,T,,,25.72,N,47.63,K,A*4B
$GPGGA,083813.092,5125.7955,N,00239.6623,W,1,08,01.1,46.8,M,51.6,M,,*40
$GPRMC,083813.092,A,5125.7955,N,00239.6623,W,25.60,67.77,140705,,,A*75
$GPVTG,67.77,T,,,25.60,N,47.41,K,A*46
$GPGGA,083814.092,5125.7978,N,00239.6525,W,1,07,01.5,46.8,M,51.6,M,,*46
$GPGSA,A,3,04,07,11,13,20,23,24,,,,,,2.5,1.5,2.0*37
$GPGSV,3,1,10,01,07,042,,002,,,,004,048,297,43,07,32,239,34*72
$GPGSV,3,2,10,11,13,142,26,13,44,198,36,20,56,077,44,23,71,147,45*7A
$GPGSV,3,3,10,24,78,181,42,25,18,042,30,,,,,,,,*74
$GPRMC,083814.092,A,5125.7978,N,00239.6525,W,24.78,70.72,140705,,,A*73
$GPVTG,70.72,T,,,24.78,N,45.89,K,A*4B
$GPGGA,083815.092,5125.7995,N,00239.6429,W,1,08,01.1,46.8,M,51.6,M,,*42
$GPRMC,083815.092,A,5125.7995,N,00239.6429,W,22.61,73.92,140705,,,A*7F
$GPVTG,73.92,T,,,22.61,N,41.88,K,A*4D
$GPGGA,083816.092,5125.8011,N,00239.6321,W,1,08,01.1,46.7,M,51.6,M,,*4B
$GPRMC,083816.092,A,5125.8011,N,00239.6321,W,25.00,76.38,140705,,,A*7C
$GPVTG,76.38,T,,,25.00,N,46.29,K,A*44
$GPGGA,083817.092,5125.8032,N,00239.6211,W,1,08,01.1,46.8,M,51.6,M,,*46
$GPGSA,A,3,04,07,11,13,20,23,24,25,,,,,1.8,1.1,1.4*3D
$GPGSV,3,1,10,01,07,042,,002,,,,004,048,297,43,07,32,239,34*72
$GPGSV,3,2,10,11,13,142,26,13,44,198,37,20,56,077,43,23,71,147,45*7C
$GPGSV,3,3,10,24,78,181,42,25,18,042,34,,,,,,,,*70
$GPRMC,083817.092,A,5125.8032,N,00239.6211,W,26.06,73.45,140705,,,A*74
$GPVTG,73.45,T,,,26.06,N,48.26,K,A*4F
$GPGGA,083818.091,5125.8058,N,00239.6104,W,1,08,01.1,46.7,M,51.6,M,,*4E
$GPRMC,083818.091,A,5125.8058,N,00239.6104,W,25.78,69.05,140705,,,A*76
$GPVTG,69.05,T,,,25.78,N,47.74,K,A*42
$GPGGA,083819.091,5125.8085,N,00239.5997,W,1,08,01.1,46.7,M,51.6,M,,*4E
$GPRMC,083819.091,A,5125.8085,N,00239.5997,W,26.20,68.41,140705,,,A*79
$GPVTG,68.41,T,,,26.20,N,48.52,K,A*46
$GPGGA,083820.091,5125.8108,N,00239.5887,W,1,08,01.1,46.6,M,51.6,M,,*41
$GPGSA,A,3,04,07,11,13,20,23,24,25,,,,,1.8,1.1,1.4*3D
$GPGSV,3,1,10,01,07,042,,002,,,,004,048,297,43,07,32,239,34*72
$GPGSV,3,2,10,11,13,142,26,13,44,198,37,20,56,077,44,23,71,147,44*7A
$GPGSV,3,3,10,24,78,181,42,25,18,042,35,,,,,,,,*71
$GPRMC,083820.091,A,5125.8108,N,00239.5887,W,25.94,71.08,140705,,,A*7E
$GPVTG,71.08,T,,,25.94,N,48.05,K,A*4D
$GPGGA,083821.091,5125.8131,N,00239.5779,W,1,08,01.1,46.6,M,51.6,M,,*44
$GPRMC,083821.091,A,5125.8131,N,00239.5779,W,25.76,72.18,140705,,,A*75
$GPVTG,72.18,T,,,25.76,N,47.71,K,A*4F
$GPGGA,083822.090,5125.8155,N,00239.5669,W,1,08,01.1,46.6,M,51.6,M,,*44
$GPRMC,083822.090,A,5125.8155,N,00239.5669,W,26.01,71.16,140705,,,A*7B
$GPVTG,71.16,T,,,26.01,N,48.17,K,A*4E
$GPGGA,083823.090,5125.8179,N,00239.5559,W,1,07,01.5,46.6,M,51.6,M,,*40
$GPGSA,A,3,04,07,11,13,20,23,24,,,,,,2.5,1.5,1.9*3D
$GPGSV,3,1,10,01,07,042,,002,,,,004,048,297,44,07,32,239,34*75
$GPGSV,3,2,10,11,13,142,24,13,44,198,38,20,56,077,44,23,71,147,44*77
$GPGSV,3,3,10,24,78,181,42,25,18,042,33,,,,,,,,*77
$GPRMC,083823.090,A,5125.8179,N,00239.5559,W,26.12,71.12,140705,,,A*72
$GPVTG,71.12,T,,,26.12,N,48.37,K,A*4A
$GPGGA,083824.090,5125.8200,N,00239.5449,W,1,07,01.5,46.6,M,51.6,M,,*4A
$GPRMC,083824.090,A,5125.8200,N,00239.5449,W,26.07,71.70,140705,,,A*78
$GPVTG,71.70,T,,,26.07,N,48.28,K,A*44
$GPGGA,083825.090,5125.8216,N,00239.5339,W,1,08,01.1,46.6,M,51.6,M,,*47
$GPRMC,083825.090,A,5125.8216,N,00239.5339,W,25.40,77.18,140705,,,A*76
$GPVTG,77.18,T,,,25.40,N,47.03,K,A*4A
$GPGGA,083826.090,5125.8227,N,00239.5229,W,1,08,01.1,46.5,M,51.6,M,,*45
$GPGSA,A,3,04,07,11,13,20,23,24,25,,,,,1.8,1.1,1.4*3D
$GPGSV,3,1,10,01,07,042,,002,,,,004,048,297,43,07,32,239,34*72
$GPGSV,3,2,10,11,13,142,29,13,44,198,40,20,56,077,44,23,71,147,45*74
$GPGSV,3,3,10,24,78,181,42,25,18,042,31,,,,,,,,*75
$GPRMC,083826.090,A,5125.8227,N,00239.5229,W,25.09,81.10,140705,,,A*7B
$GPVTG,81.10,T,,,25.09,N,46.47,K,A*47
$GPGGA,083827.089,5125.8234,N,00239.5118,W,1,06,01.9,46.5,M,51.6,M,,*49
$GPRMC,083827.089,A,5125.8234,N,00239.5118,W,24.97,84.02,140705,,,A*71
$GPVTG,84.02,T,,,24.97,N,46.25,K,A*43
$GPGGA,083828.089,5125.8238,N,00239.5009,W,1,07,01.5,46.4,M,51.6,M,,*47
$GPRMC,083828.089,A,5125.8238,N,00239.5009,W,24.89,86.38,140705,,,A*77
$GPVTG,86.38,T,,,24.89,N,46.10,K,A*41
$GPGGA,083829.089,5125.8244,N,00239.4898,W,1,07,01.5,46.3,M,51.6,M,,*4B
$GPGSA,A,3,04,07,13,20,23,24,25,,,,,,2.4,1.5,2.0*31
$GPGSV,3,1,10,01,07,042,,002,,,,004,048,297,42,07,32,239,33*74
$GPGSV,3,2,10,11,13,142,33,13,44,198,41,20,56,077,41,23,71,146,45*7A
$GPGSV,3,3,10,24,78,180,42,25,18,042,30,,,,,,,,*75
$GPRMC,083829.089,A,5125.8244,N,00239.4898,W,24.95,85.57,140705,,,A*7B
$GPVTG,85.57,T,,,24.95,N,46.21,K,A*44
$GPGGA,083830.089,5125.8251,N,00239.4786,W,1,08,01.1,46.3,M,51.6,M,,*4C
$GPRMC,083830.089,A,5125.8251,N,00239.4786,W,25.01,85.12,140705,,,A*7A
$GPVTG,85.12,T,,,25.01,N,46.33,K,A*4A
$GPGGA,083831.088,5125.8258,N,00239.4672,W,1,06,01.9,46.3,M,51.6,M,,*49
$GPRMC,083831.088,A,5125.8258,N,00239.4672,W,25.20,84.72,140705,,,A*7D
$GPVTG,84.72,T,,,25.20,N,46.67,K,A*4F
$GPGGA,083832.088,5125.8269,N,00239.4553,W,1,07,01.5,46.2,M,51.6,M,,*44
$GPGSA,A,3,04,07,11,13,20,23,24,,,,,,2.5,1.5,1.9*3D
$GPGSV,3,1,10,01,07,042,,002,,,,004,048,297,41,07,32,239,34*70
$GPGSV,3,2,10,11,13,142,34,13,44,198,41,20,56,077,40,23,71,146,45*7C
$GPGSV,3,3,10,24,78,180,42,25,18,042,29,,,,,,,,*7D
$GPRMC,083832.088,A,5125.8269,N,00239.4553,W,27.16,81.90,140705,,,A*72
$GPVTG,81.90,T,,,27.16,N,50.30,K,A*44
$GPGGA,083833.088,5125.8283,N,00239.4435,W,1,07,01.5,46.1,M,51.6,M,,*43
$GPRMC,083833.088,A,5125.8283,N,00239.4435,W,27.16,79.87,140705,,,A*77
$GPVTG,79.87,T,,,27.16,N,50.30,K,A*45
$GPGGA,083834.088,5125.8301,N,00239.4318,W,1,08,01.1,46.0,M,51.5,M,,*4E
$GPRMC,083834.088,A,5125.8301,N,00239.4318,W,27.33,76.67,140705,,,A*75
$GPVTG,76.67,T,,,27.33,N,50.61,K,A*47
$GPGGA,083835.088,5125.8321,N,00239.4201,W,1,08,01.1,45.8,M,51.5,M,,*4F
$GPGSA,A,3,04,07,11,13,20,23,24,25,,,,,1.8,1.1,1.4*3D
$GPGSV,3,1,10,01,06,042,,002,,,,004,049,297,41,07,32,239,35*71
$GPGSV,3,2,10,11,13,142,32,13,44,198,40,20,56,077,40,23,71,146,45*7B
$GPGSV,3,3,10,24,78,180,42,25,18,042,32,,,,,,,,*77
$GPRMC,083835.088,A,5125.8321,N,00239.4201,W,27.49,74.78,140705,,,A*7E
$GPVTG,74.78,T,,,27.49,N,50.91,K,A*49
$GPGGA,083836.087,5125.8348,N,00239.4089,W,1,08,01.1,45.8,M,51.5,M,,*4E
$GPRMC,083836.087,A,5125.8348,N,00239.4089,W,27.91,70.12,140705,,,A*72
$GPVTG,70.12,T,,,27.91,N,51.69,K,A*42
$GPGGA,083837.087,5125.8376,N,00239.3974,W,1,07,01.3,45.7,M,51.5,M,,*4C
$GPRMC,083837.087,A,5125.8376,N,00239.3974,W,28.03,68.94,140705,,,A*71
$GPVTG,68.94,T,,,28.03,N,51.91,K,A*46
$GPGGA,083838.087,5125.8411,N,00239.3870,W,1,08,01.1,45.7,M,51.5,M,,*4D
$GPGSA,A,3,04,07,11,13,20,23,24,25,,,,,1.8,1.1,1.4*3D
$GPGSV,3,1,10,01,06,042,,002,,,,004,049,297,42,07,32,239,34*73
$GPGSV,3,2,10,11,13,142,29,13,44,198,38,20,56,077,41,23,71,146,45*7F
$GPGSV,3,3,10,24,78,180,42,25,18,042,32,,,,,,,,*77
$GPRMC,083838.087,A,5125.8411,N,00239.3870,W,26.89,62.56,140705,,,A*75
$GPVTG,62.56,T,,,26.89,N,49.81,K,A*46
$GPGGA,083839.087,5125.8449,N,00239.3766,W,1,08,01.1,45.7,M,51.5,M,,*49
$GPRMC,083839.087,A,5125.8449,N,00239.3766,W,26.98,60.54,140705,,,A*71
$GPVTG,60.54,T,,,26.98,N,49.97,K,A*41
$GPGGA,083840.087,5125.8486,N,00239.3663,W,1,08,01.1,45.5,M,51.5,M,,*42
$GPRMC,083840.087,A,5125.8486,N,00239.3663,W,26.94,60.44,140705,,,A*75
$GPVTG,60.44,T,,,26.94,N,49.90,K,A*4B
$GPGGA,083841.086,5125.8523,N,00239.3560,W,1,07,01.5,45.5,M,51.5,M,,*47
$GPGSA,A,3,04,07,11,13,20,23,24,,,,,,2.5,1.5,1.9*3D
$GPGSV,3,1,10,01,06,042,,002,,,,004,049,297,42,07,32,239,32*75
$GPGSV,3,2,10,11,13,142,29,13,44,198,37,20,56,077,42,23,71,146,44*72
$GPGSV,3,3,10,24,78,180,42,25,18,042,32,,,,,,,,*77
$GPRMC,083841.086,A,5125.8523,N,00239.3560,W,26.87,60.25,140705,,,A*7E
$GPVTG,60.25,T,,,26.87,N,49.77,K,A*47
$GPGGA,083842.086,5125.8561,N,00239.3460,W,1,06,01.8,45.6,M,51.5,M,,*4C
$GPRMC,083842.086,A,5125.8561,N,00239.3460,W,26.80,59.72,140705,,,A*75
$GPVTG,59.72,T,,,26.80,N,49.64,K,A*4A
$GPGGA,083843.086,5125.8598,N,00239.3365,W,1,06,01.7,45.6,M,51.5,M,,*46
$GPRMC,083843.086,A,5125.8598,N,00239.3365,W,25.36,57.98,140705,,,A*74
$GPVTG,57.98,T,,,25.36,N,46.97,K,A*4D
$GPGGA,083844.086,5125.8634,N,00239.3269,W,1,06,01.7,45.6,M,51.5,M,,*49
$GPGSA,A,3,04,11,13,20,23,24,,,,,,,2.7,1.7,2.0*30
$GPGSV,3,1,10,01,06,042,,002,,,,004,049,297,40,07,32,239,30*75
$GPGSV,3,2,10,11,13,142,27,13,44,198,35,20,56,077,42,23,71,146,42*78
$GPGSV,3,3,10,24,78,180,41,25,18,042,30,,,,,,,,*76
$GPRMC,083844.086,A,5125.8634,N,00239.3269,W,25.40,58.25,140705,,,A*73
$GPVTG,58.25,T,,,25.40,N,47.04,K,A*4E
$GPGGA,083845.085,5125.8667,N,00239.3174,W,1,06,01.7,45.5,M,51.5,M,,*41
$GPRMC,083845.085,A,5125.8667,N,00239.3174,W,24.74,60.52,140705,,,A*75
$GPVTG,60.52,T,,,24.74,N,45.82,K,A*4F
$GPGGA,083846.085,5125.8701,N,00239.3085,W,1,06,01.7,45.5,M,51.5,M,,*4C
$GPRMC,083846.085,A,5125.8701,N,00239.3085,W,24.40,60.09,140705,,,A*71
$GPVTG,60.09,T,,,24.40,N,45.19,K,A*44
$GPGGA,083847.085,5125.8734,N,00239.2997,W,1,06,01.7,45.5,M,51.5,M,,*40
$GPGSA,A,3,04,11,13,20,23,24,,,,,,,2.7,1.7,2.0*30
$GPGSV,3,1,10,01,06,042,,002,,,,004,049,297,40,07,32,239,28*7C
$GPGSV,3,2,10,11,13,142,26,13,44,198,33,20,56,077,42,23,71,146,41*7C
$GPGSV,3,3,10,24,78,180,41,25,18,042,27,,,,,,,,*70
$GPRMC,083847.085,A,5125.8734,N,00239.2997,W,24.15,59.80,140705,,,A*76
$GPVTG,59.80,T,,,24.15,N,44.73,K,A*42
$GPGGA,083848.085,5125.8771,N,00239.2904,W,1,04,02.7,45.5,M,51.5,M,,*45
$GPRMC,083848.085,A,5125.8771,N,00239.2904,W,24.58,58.04,140705,,,A*76
$GPVTG,58.04,T,,,24.58,N,45.53,K,A*45
$GPGGA,083849.085,5125.8803,N,00239.2813,W,1,04,08.9,45.5,M,51.5,M,,*4D
$GPRMC,083849.085,A,5125.8803,N,00239.2813,W,23.93,59.86,140705,,,A*71
$GPVTG,59.86,T,,,23.93,N,44.31,K,A*4B
$GPGGA,083850.084,5125.8839,N,00239.2713,W,1,06,01.7,45.4,M,51.5,M,,*46
$GPGSA,A,3,04,11,13,20,23,24,,,,,,,2.7,1.7,2.0*30
$GPGSV,3,1,10,01,06,042,,002,,,,004,049,297,39,07,32,239,29*73
$GPGSV,3,2,10,11,13,142,26,13,44,198,33,20,56,077,42,23,71,146,41*7C
$GPGSV,3,3,10,24,78,180,40,25,18,042,25,,,,,,,,*73
$GPRMC,083850.084,A,5125.8839,N,00239.2713,W,25.25,60.73,140705,,,A*75
$GPVTG,60.73,T,,,25.25,N,46.76,K,A*41
$GPGGA,083851.084,5125.8870,N,00239.2607,W,1,06,01.7,45.4,M,51.5,M,,*4E
$GPRMC,083851.084,A,5125.8870,N,00239.2607,W,26.42,64.05,140705,,,A*7A
$GPVTG,64.05,T,,,26.42,N,48.92,K,A*42
$GPGGA,083852.084,5125.8895,N,00239.2498,W,1,06,01.7,45.4,M,51.5,M,,*42
$GPRMC,083852.084,A,5125.8895,N,00239.2498,W,26.35,69.02,140705,,,A*7C
$GPVTG,69.02,T,,,26.35,N,48.79,K,A*4D
$GPGGA,083853.084,5125.8924,N,00239.2410,W,1,06,01.6,45.5,M,51.5,M,,*48
$GPGSA,A,3,04,07,11,13,20,23,,,,,,,2.7,1.6,2.3*33
$GPGSV,3,1,10,01,06,042,,002,,,,004,049,297,38,07,32,239,30*7A
$GPGSV,3,2,10,11,13,142,27,13,44,198,35,20,56,077,42,23,71,146,42*78
$GPGSV,3,3,10,24,78,180,40,25,18,042,25,,,,,,,,*73
$GPRMC,083853.084,A,5125.8924,N,00239.2410,W,22.36,63.63,140705,,,A*7C
$GPVTG,63.63,T,,,22.36,N,41.40,K,A*44
$GPGGA,083854.083,5125.8963,N,00239.2323,W,1,07,01.5,45.5,M,51.5,M,,*4E
$GPRMC,083854.083,A,5125.8963,N,00239.2323,W,23.96,55.73,140705,,,A*77
$GPVTG,55.73,T,,,23.96,N,44.37,K,A*4E
$GPGGA,083855.083,5125.8984,N,00239.2213,W,1,06,01.7,45.5,M,51.5,M,,*47
$GPRMC,083855.083,A,5125.8984,N,00239.2213,W,25.40,68.40,140705,,,A*7E
$GPVTG,68.40,T,,,25.40,N,47.04,K,A*4E
$GPGGA,083856.083,5125.9002,N,00239.2095,W,1,06,01.7,45.5,M,51.5,M,,*4E
$GPGSA,A,3,04,11,13,20,23,24,,,,,,,2.7,1.7,2.0*30
$GPGSV,3,1,10,01,06,042,,002,,,,004,049,297,37,07,32,239,30*75
$GPGSV,3,2,10,11,13,142,26,13,44,198,37,20,56,077,41,23,71,146,42*78
$GPGSV,3,3,10,24,78,180,39,25,18,042,26,,,,,,,,*7E
$GPRMC,083856.083,A,5125.9002,N,00239.2095,W,26.59,72.97,140705,,,A*7D
$GPVTG,72.97,T,,,26.59,N,49.25,K,A*49
$GPGGA,083857.083,5125.9023,N,00239.1981,W,1,07,01.5,45.5,M,51.5,M,,*40
$GPRMC,083857.083,A,5125.9023,N,00239.1981,W,26.83,73.24,140705,,,A*7E
$GPVTG,73.24,T,,,26.83,N,49.69,K,A*4F
$GPGGA,083858.083,5125.9047,N,00239.1866,W,1,07,01.5,45.4,M,51.5,M,,*44
$GPRMC,083858.083,A,5125.9047,N,00239.1866,W,27.15,71.70,140705,,,A*76
$GPVTG,71.70,T,,,27.15,N,50.28,K,A*4F
$GPGGA,083859.082,5125.9076,N,00239.1751,W,1,08,01.1,45.4,M,51.5,M,,*46
$GPGSA,A,3,04,07,11,13,20,23,24,25,,,,,1.8,1.1,1.4*3D
$GPGSV,3,1,10,01,06,042,,002,,,,004,049,297,40,07,32,239,32*77
$GPGSV,3,2,10,11,13,142,24,13,44,198,38,20,56,077,42,23,71,146,44*70
$GPGSV,3,3,10,24,78,180,41,25,18,042,28,,,,,,,,*7F
$GPRMC,083859.082,A,5125.9076,N,00239.1751,W,27.75,67.87,140705,,,A*76
$GPVTG,67.87,T,,,27.75,N,51.40,K,A*49
$GPGGA,083900.082,5125.9107,N,00239.1639,W,1,08,01.1,45.4,M,51.5,M,,*43
$GPRMC,083900.082,A,5125.9107,N,00239.1639,W,27.84,65.77,140705,,,A*70
$GPVTG,65.77,T,,,27.84,N,51.57,K,A*4C
$GPGGA,083901.082,5125.9140,N,00239.1528,W,1,08,01.1,45.3,M,51.5,M,,*45
$GPRMC,083901.082,A,5125.9140,N,00239.1528,W,27.89,64.79,140705,,,A*73
$GPVTG,64.79,T,,,27.89,N,51.65,K,A*4F
$GPGGA,083902.082,5125.9174,N,00239.1420,W,1,08,01.1,45.3,M,51.5,M,,*48
$GPGSA,A,3,04,07,11,13,20,23,24,25,,,,,1.8,1.1,1.4*3D
$GPGSV,3,1,10,01,06,042,,002,,,,004,049,297,42,07,32,239,33*74
$GPGSV,3,2,10,11,13,142,25,13,44,198,36,20,56,077,43,23,71,146,44*7E
$GPGSV,3,3,10,24,78,180,42,25,18,042,31,,,,,,,,*74
$GPRMC,083902.082,A,5125.9174,N,00239.1420,W,27.70,64.14,140705,,,A*73
$GPVTG,64.14,T,,,27.70,N,51.31,K,A*43
$GPGGA,083903.082,5125.9207,N,00239.1316,W,1,08,01.1,45.2,M,51.5,M,,*4D
$GPRMC,083903.082,A,5125.9207,N,00239.1316,W,26.36,62.74,140705,,,A*74
$GPVTG,62.74,T,,,26.36,N,48.82,K,A*40
$GPGGA,083904.081,5125.9240,N,00239.1210,W,1,08,01.1,45.2,M,51.5,M,,*4D
$GPRMC,083904.081,A,5125.9240,N,00239.1210,W,26.40,62.80,140705,,,A*7E
$GPVTG,62.80,T,,,26.40,N,48.88,K,A*40
$GPGGA,083905.081,5125.9277,N,00239.1110,W,1,08,01.1,45.1,M,51.5,M,,*48
$GPGSA,A,3,04,07,11,13,20,23,24,25,,,,,1.8,1.1,1.4*3D
$GPGSV,3,1,10,01,06,042,,002,,,,004,049,297,43,07,32,238,33*74
$GPGSV,3,2,10,11,13,142,28,13,44,198,35,20,56,077,43,23,71,146,44*70
$GPGSV,3,3,10,24,78,180,42,25,18,042,32,,,,,,,,*77
$GPRMC,083905.081,A,5125.9277,N,00239.1110,W,26.36,58.83,140705,,,A*73
$GPVTG,58.83,T,,,26.36,N,48.82,K,A*41
$GPGGA,083906.081,5125.9317,N,00239.1010,W,1,08,01.1,45.0,M,51.5,M,,*4C
$GPRMC,083906.081,A,5125.9317,N,00239.1010,W,26.70,57.19,140705,,,A*78
$GPVTG,57.19,T,,,26.70,N,49.44,K,A*44
$GPGGA,083907.081,5125.9347,N,00239.0893,W,1,07,01.3,45.2,M,51.5,M,,*45
$GPRMC,083907.081,A,5125.9347,N,00239.0893,W,28.67,67.76,140705,,,A*7C
$GPVTG,67.76,T,,,28.67,N,53.10,K,A*4C
$GPGGA,083908.080,5125.9391,N,00239.0801,W,1,06,01.6,45.1,M,51.5,M,,*4C
$GPGSA,A,3,04,13,20,23,24,25,,,,,,,2.9,1.6,2.4*3C
$GPGSV,3,1,10,01,06,042,,002,,,,004,049,297,42,07,32,238,32*74
$GPGSV,3,2,10,11,13,142,31,13,44,198,36,20,56,077,44,23,71,146,44*7C
$GPGSV,3,3,10,24,78,180,42,25,18,042,32,,,,,,,,*77
$GPRMC,083908.080,A,5125.9391,N,00239.0801,W,26.22,53.64,140705,,,A*79
$GPVTG,53.64,T,,,26.22,N,48.56,K,A*4F
$GPGGA,083909.080,5125.9441,N,00239.0719,W,1,08,01.1,45.0,M,51.5,M,,*49
$GPRMC,083909.080,A,5125.9441,N,00239.0719,W,25.74,45.98,140705,,,A*70
$GPVTG,45.98,T,,,25.74,N,47.66,K,A*47
$GPGGA,083910.080,5125.9489,N,00239.0632,W,1,08,01.1,45.0,M,51.5,M,,*4D
$GPRMC,083910.080,A,5125.9489,N,00239.0632,W,26.09,47.75,140705,,,A*7C
$GPVTG,47.75,T,,,26.09,N,48.32,K,A*41
$GPGGA,083911.080,5125.9538,N,00239.0546,W,1,08,01.1,44.8,M,51.5,M,,*4E
$GPGSA,A,3,04,07,11,13,20,23,24,25,,,,,1.8,1.1,1.4*3D
$GPGSV,3,1,10,01,06,042,,002,,,,004,049,297,43,07,32,238,31*76
$GPGSV,3,2,10,11,13,142,31,13,44,198,37,20,56,077,44,23,71,146,43*7A
$GPGSV,3,3,10,24,78,180,42,25,18,042,35,,,,,,,,*70
$GPRMC,083911.080,A,5125.9538,N,00239.0546,W,26.13,47.24,140705,,,A*79
$GPVTG,47.24,T,,,26.13,N,48.39,K,A*45
$GPGGA,083912.080,5125.9589,N,00239.0462,W,1,09,01.0,44.7,M,51.5,M,,*4F
$GPRMC,083912.080,A,5125.9589,N,00239.0462,W,26.11,46.32,140705,,,A*73
$GPVTG,46.32,T,,,26.11,N,48.35,K,A*4D
$GPGGA,083913.079,5125.9640,N,00239.0376,W,1,08,01.4,44.4,M,51.5,M,,*4A
$GPRMC,083913.079,A,5125.9640,N,00239.0376,W,26.48,46.61,140705,,,A*7A
$GPVTG,46.61,T,,,26.48,N,49.03,K,A*43
$GPGGA,083914.079,5125.9688,N,00239.0284,W,1,09,01.0,44.2,M,51.5,M,,*46
$GPGSA,A,3,01,04,07,11,13,20,23,24,25,,,,1.6,1.0,1.3*34
$GPGSV,3,1,10,01,06,042,31,02,,,,04,49,297,42,07,32,238,34*40
$GPGSV,3,2,10,11,13,142,30,13,44,198,38,20,56,077,42,23,71,146,42*73
$GPGSV,3,3,10,24,78,180,43,25,18,041,37,,,,,,,,*70
$GPRMC,083914.079,A,5125.9688,N,00239.0284,W,26.87,49.95,140705,,,A*72
$GPVTG,49.95,T,,,26.87,N,49.77,K,A*47
$GPGGA,083915.079,5125.9735,N,00239.0194,W,1,09,01.0,43.9,M,51.5,M,,*4E
$GPRMC,083915.079,A,5125.9735,N,00239.0194,W,26.75,49.97,140705,,,A*79
$GPVTG,49.97,T,,,26.75,N,49.54,K,A*49
$GPGGA,083916.079,5125.9783,N,00239.0101,W,1,09,01.0,43.7,M,51.5,M,,*42
$GPRMC,083916.079,A,5125.9783,N,00239.0101,W,26.84,50.15,140705,,,A*77
$GPVTG,50.15,T,,,26.84,N,49.70,K,A*43
$GPGGA,083917.078,5125.9831,N,00239.0010,W,1,08,01.4,43.6,M,51.5,M,,*41
$GPGSA,A,3,01,04,07,13,20,23,24,25,,,,,2.2,1.4,1.6*32
