$PTOM101,PocketPC,hp iPAQ h2200,2577,4.20*45
$PTOM102,GPS Engine,408,TomTom Wireless GPS,Bluetooth Serial Port COM8:*B
$PTOM103,070815,055156.000,070815,075156.000*36
$PTOM104,\SD-Karte\GPS Log\GPS20070815075156-busy.pgl*38
$GPGLL,4704.3837,N,00815.3602,E,055203.223,A,A*58
$GPGSA,A,3,20,13,23,04,02,,,,,,,,3.3,2.3,2.3*35
$GPGSV,2,1,08,13,85,315,36,04,58,267,38,23,58,055,42,25,44,165,24*77
$GPGSV,2,2,08,02,31,308,43,20,30,106,40,27,27,180,,16,07,063,29*78
$GPRMC,055203.223,A,4704.3837,N,00815.3602,E,0.00,,150807,,,A*7A
$GPVTG,,T,,M,0.00,N,0.0,K,A*13
$GPGGA,055204.223,4704.3837,N,00815.3602,E,1,05,2.3,560.5,M,,,,0000*0B
$GPGLL,4704.3837,N,00815.3602,E,055204.223,A,A*5F
$GPRMC,055204.223,A,4704.3837,N,00815.3602,E,0.00,,150807,,,A*7D
$GPVTG,,T,,M,0.00,N,0.0,K,A*13
$GPGGA,055205.222,4704.3837,N,00815.3602,E,1,05,2.3,560.5,M,,,,0000*0B
$GPGLL,4704.3837,N,00815.3602,E,055205.222,A,A*5F
$GPRMC,055205.222,A,4704.3837,N,00815.3602,E,0.00,,150807,,,A*7D
$GPVTG,,T,,M,0.00,N,0.0,K,A*13
$GPGGA,055206.222,4704.3837,N,00815.3602,E,1,05,2.3,560.5,M,,,,0000*08
$GPGLL,4704.3837,N,00815.3602,E,055206.222,A,A*5C
$GPRMC,055206.222,A,4704.3837,N,00815.3602,E,0.00,,150807,,,A*7E
$GPVTG,,T,,M,0.00,N,0.0,K,A*13
$GPGGA,055207.222,4704.3837,N,00815.3602,E,1,05,2.3,560.5,M,,,,0000*09
$GPGLL,4704.3837,N,00815.3602,E,055207.222,A,A*5D
$GPGSA,A,3,20,13,23,04,02,,,,,,,,3.3,2.3,2.3*35
$GPGSV,2,1,08,13,85,315,35,04,58,267,35,23,58,055,41,25,44,165,17*7A
$GPGSV,2,2,08,02,31,308,43,20,30,106,41,27,27,180,,16,07,063,27*77
$GPRMC,055207.222,A,4704.3837,N,00815.3602,E,0.00,,150807,,,A*7F
$GPVTG,,T,,M,0.00,N,0.0,K,A*13
$GPGGA,055208.222,4704.3837,N,00815.3602,E,1,05,2.3,560.5,M,,,,0000*06
$GPGLL,4704.3837,N,00815.3602,E,055208.222,A,A*52
$GPRMC,055208.222,A,4704.3837,N,00815.3602,E,0.00,,150807,,,A*70
$GPVTG,,T,,M,0.00,N,0.0,K,A*13
$GPGGA,055209.222,4704.3837,N,00815.3602,E,1,05,2.3,560.5,M,,,,0000*07
$GPGLL,4704.3837,N,00815.3602,E,055209.222,A,A*53
$GPRMC,055209.222,A,4704.3837,N,00815.3602,E,0.00,,150807,,,A*71
$GPVTG,,T,,M,0.00,N,0.0,K,A*13
$GPGGA,055210.222,4704.3837,N,00815.3602,E,1,05,2.3,560.5,M,,,,0000*0F
$GPGLL,4704.3837,N,00815.3602,E,055210.222,A,A*5B
$GPRMC,055210.222,A,4704.3837,N,00815.3602,E,0.00,,150807,,,A*79
$GPVTG,,T,,M,0.00,N,0.0,K,A*13
$GPGGA,055211.222,4704.3837,N,00815.3602,E,1,05,2.3,560.5,M,,,,0000*0E
$GPGLL,4704.3837,N,00815.3602,E,055211.222,A,A*5A
$GPGSA,A,3,20,13,23,04,02,,,,,,,,3.3,2.3,2.3*35
$GPGSV,2,1,08,13,85,315,32,04,58,267,29,23,58,055,42,25,44,165,21*76
$GPGSV,2,2,08,02,31,308,33,20,30,106,39,27,27,180,,16,07,063,22*7A
$GPRMC,055211.222,A,4704.3837,N,00815.3602,E,0.00,,150807,,,A*78
$GPVTG,,T,,M,0.00,N,0.0,K,A*13
$GPGGA,055212.222,4704.3837,N,00815.3602,E,1,05,2.3,560.5,M,,,,0000*0D
$GPGLL,4704.3837,N,00815.3602,E,055212.222,A,A*59
$GPRMC,055212.222,A,4704.3837,N,00815.3602,E,0.00,,150807,,,A*7B
$GPVTG,,T,,M,0.00,N,0.0,K,A*13
$GPGGA,055213.222,4704.3837,N,00815.3602,E,1,05,2.3,560.5,M,,,,0000*0C
$GPGLL,4704.3837,N,00815.3602,E,055213.222,A,A*58
$GPRMC,055213.222,A,4704.3837,N,00815.3602,E,0.00,,150807,,,A*7A
$GPVTG,,T,,M,0.00,N,0.0,K,A*13
$GPGGA,055214.222,4704.3837,N,00815.3602,E,1,05,2.3,560.5,M,,,,0000*0B
$GPGLL,4704.3837,N,00815.3602,E,055214.222,A,A*5F
$GPRMC,055214.222,A,4704.3837,N,00815.3602,E,0.00,,150807,,,A*7D
$GPVTG,,T,,M,0.00,N,0.0,K,A*13
$GPGGA,055215.222,4704.3837,N,00815.3602,E,1,05,2.3,560.5,M,,,,0000*0A
$GPGLL,4704.3837,N,00815.3602,E,055215.222,A,A*5E
$GPGSA,A,3,20,13,23,04,02,,,,,,,,3.3,2.3,2.3*35
$GPGSV,2,1,08,13,85,315,36,04,58,267,29,23,58,055,45,25,44,165,21*75
$GPGSV,2,2,08,02,31,308,35,20,30,106,36,27,27,180,,16,07,063,27*76
$GPRMC,055215.222,A,4704.3837,N,00815.3602,E,0.00,,150807,,,A*7C
$GPVTG,,T,,M,0.00,N,0.0,K,A*13
$GPGGA,055216.222,4704.3837,N,00815.3602,E,1,05,2.3,560.5,M,,,,0000*09
$GPGLL,4704.3837,N,00815.3602,E,055216.222,A,A*5D
$GPRMC,055216.222,A,4704.3837,N,00815.3602,E,0.00,,150807,,,A*7F
$GPVTG,,T,,M,0.00,N,0.0,K,A*13
$GPGGA,055217.222,4704.3837,N,00815.3602,E,1,05,2.3,560.5,M,,,,0000*08
$GPGLL,4704.3837,N,00815.3602,E,055217.222,A,A*5C
$GPRMC,055217.222,A,4704.3837,N,00815.3602,E,0.00,,150807,,,A*7E
$GPVTG,,T,,M,0.00,N,0.0,K,A*13
$GPGGA,055218.222,4704.3837,N,00815.3602,E,1,05,2.3,560.5,M,,,,0000*07
$GPGLL,4704.3837,N,00815.3602,E,055218.222,A,A*53
$GPRMC,055218.222,A,4704.3837,N,00815.3602,E,0.00,,150807,,,A*71
$GPVTG,,T,,M,0.00,N,0.0,K,A*13
$GPGGA,055219.222,4704.3837,N,00815.3602,E,1,05,2.3,560.5,M,,,,0000*06
$GPGLL,4704.3837,N,00815.3602,E,055219.222,A,A*52
$GPGSA,A,3,20,13,23,04,02,,,,,,,,3.3,2.3,2.3*35
$GPGSV,2,1,08,13,85,319,32,04,58,266,24,23,58,055,45,25,44,165,21*71
$GPGSV,2,2,08,02,31,308,35,20,30,106,35,27,28,180,,16,07,063,28*75
$GPRMC,055219.222,A,4704.3837,N,00815.3602,E,0.00,,150807,,,A*70
$GPVTG,,T,,M,0.00,N,0.0,K,A*13
$GPGGA,055220.222,4704.3837,N,00815.3602,E,1,05,2.3,560.5,M,,,,0000*0C
$GPGLL,4704.3837,N,00815.3602,E,055220.222,A,A*58
$GPRMC,055220.222,A,4704.3837,N,00815.3602,E,0.00,,150807,,,A*7A
$GPVTG,,T,,M,0.00,N,0.0,K,A*13
$GPGGA,055221.221,4704.3837,N,00815.3602,E,1,05,2.3,560.5,M,,,,0000*0E
$GPGLL,4704.3837,N,00815.3602,E,055221.221,A,A*5A
$GPRMC,055221.221,A,4704.3837,N,00815.3602,E,0.00,,150807,,,A*78
$GPVTG,,T,,M,0.00,N,0.0,K,A*13
$GPGGA,055222.221,4704.3837,N,00815.3602,E,1,05,2.3,560.5,M,,,,0000*0D
$GPGLL,4704.3837,N,00815.3602,E,055222.221,A,A*59
$GPRMC,055222.221,A,4704.3837,N,00815.3602,E,0.00,,150807,,,A*7B
$GPVTG,,T,,M,0.00,N,0.0,K,A*13
$GPGGA,055223.221,4704.3837,N,00815.3602,E,1,05,2.3,560.5,M,,,,0000*0C
$GPGLL,4704.3837,N,00815.3602,E,055223.221,A,A*58
$GPGSA,A,3,20,13,23,04,02,,,,,,,,3.3,2.3,2.3*35
$GPGSV,2,1,08,13,85,319,23,04,58,266,23,23,58,055,41,25,44,165,21*72
$GPGSV,2,2,08,02,31,308,38,20,30,106,35,27,28,180,,16,07,063,30*71
$GPRMC,055223.221,A,4704.3837,N,00815.3602,E,0.00,,150807,,,A*7A
$GPVTG,,T,,M,0.00,N,0.0,K,A*13
$GPGGA,055224.221,4704.3837,N,00815.3602,E,1,05,2.3,560.5,M,,,,0000*0B
$GPGLL,4704.3837,N,00815.3602,E,055224.221,A,A*5F
$GPRMC,055224.221,A,4704.3837,N,00815.3602,E,0.00,,150807,,,A*7D
$GPVTG,,T,,M,0.00,N,0.0,K,A*13
$GPGGA,055225.221,4704.3837,N,00815.3602,E,1,05,2.3,560.5,M,,,,0000*0A
$GPGLL,4704.3837,N,00815.3602,E,055225.221,A,A*5E
$GPRMC,055225.221,A,4704.3837,N,00815.3602,E,0.00,,150807,,,A*7C
$GPVTG,,T,,M,0.00,N,0.0,K,A*13
$GPGGA,055226.221,4704.3837,N,00815.3602,E,1,05,2.3,560.5,M,,,,0000*09
$GPGLL,4704.3837,N,00815.3602,E,055226.221,A,A*5D
$GPRMC,055226.221,A,4704.3837,N,00815.3602,E,0.00,,150807,,,A*7F
$GPVTG,,T,,M,0.00,N,0.0,K,A*13
$GPGGA,055227.221,4704.3837,N,00815.3602,E,1,05,2.3,560.5,M,,,,0000*08
$GPGLL,4704.3837,N,00815.3602,E,055227.221,A,A*5C
$GPGSA,A,3,20,13,23,04,02,,,,,,,,3.3,2.3,2.3*35
$GPGSV,2,1,08,13,85,319,33,04,58,266,31,23,58,055,42,25,44,165,21*73
$GPGSV,2,2,08,02,31,308,36,20,30,106,31,27,28,180,,16,07,063,29*73
$GPRMC,055227.221,A,4704.3837,N,00815.3602,E,0.00,,150807,,,A*7E
$GPVTG,,T,,M,0.00,N,0.0,K,A*13
$GPGGA,055228.221,4704.3837,N,00815.3602,E,1,05,2.3,560.5,M,,,,0000*07
$GPGLL,4704.3837,N,00815.3602,E,055228.221,A,A*53
$GPRMC,055228.221,A,4704.3837,N,00815.3602,E,0.00,,150807,,,A*71
$GPVTG,,T,,M,0.00,N,0.0,K,A*13
$GPGGA,055229.221,4704.3837,N,00815.3602,E,1,05,2.3,560.5,M,,,,0000*06
$GPGLL,4704.3837,N,00815.3602,E,055229.221,A,A*52
$GPRMC,055229.221,A,4704.3837,N,00815.3602,E,0.00,,150807,,,A*70
$GPVTG,,T,,M,0.00,N,0.0,K,A*13
$GPGGA,055230.221,4704.3837,N,00815.3602,E,1,05,2.3,560.5,M,,,,0000*0E
$GPGLL,4704.3837,N,00815.3602,E,055230.221,A,A*5A
$GPRMC,055230.221,A,4704.3837,N,00815.3602,E,0.00,,150807,,,A*78
$GPVTG,,T,,M,0.00,N,0.0,K,A*13
$GPGGA,055231.221,4704.3837,N,00815.3602,E,1,05,2.3,560.5,M,,,,0000*0F
$GPGLL,4704.3837,N,00815.3602,E,055231.221,A,A*5B
$GPGSA,A,3,20,13,23,04,02,,,,,,,,3.3,2.3,2.3*35
$GPGSV,2,1,08,13,85,319,35,04,58,266,30,23,58,055,36,25,44,165,21*77
$GPGSV,2,2,08,02,31,308,21,20,30,106,20,27,28,180,,16,07,063,32*7F
$GPRMC,055231.221,A,4704.3837,N,00815.3602,E,0.00,,150807,,,A*79
$GPVTG,,T,,M,0.00,N,0.0,K,A*13
$GPGGA,055232.221,4704.3837,N,00815.3602,E,1,05,2.3,560.5,M,,,,0000*0C
$GPGLL,4704.3837,N,00815.3602,E,055232.221,A,A*58
$GPRMC,055232.221,A,4704.3837,N,00815.3602,E,0.00,,150807,,,A*7A
$GPVTG,,T,,M,0.00,N,0.0,K,A*13
$GPGGA,055233.221,4704.3837,N,00815.3602,E,1,05,2.3,560.5,M,,,,0000*0D
$GPGLL,4704.3837,N,00815.3602,E,055233.221,A,A*59
$GPRMC,055233.221,A,4704.3837,N,00815.3602,E,0.00,,150807,,,A*7B
$GPVTG,,T,,M,0.00,N,0.0,K,A*13
$GPGGA,055234.221,4704.3837,N,00815.3602,E,1,05,2.3,560.5,M,,,,0000*0A
$GPGLL,4704.3837,N,00815.3602,E,055234.221,A,A*5E
$GPRMC,055234.221,A,4704.3837,N,00815.3602,E,0.00,,150807,,,A*7C
$GPVTG,,T,,M,0.00,N,0.0,K,A*13
$GPGGA,055235.221,4704.3837,N,00815.3602,E,1,05,2.3,560.5,M,,,,0000*0B
$GPGLL,4704.3837,N,00815.3602,E,055235.221,A,A*5F
$GPGSA,A,3,20,13,23,04,02,,,,,,,,3.3,2.3,2.3*35
$GPGSV,2,1,08,13,85,319,30,04,58,266,27,23,58,055,36,25,44,165,*77
$GPGSV,2,2,08,02,31,308,32,20,30,106,31,27,28,180,,16,07,063,32*7D
$GPRMC,055235.221,A,4704.3837,N,00815.3602,E,0.00,,150807,,,A*7D
$GPVTG,,T,,M,0.00,N,0.0,K,A*13
$GPGGA,055236.221,4704.3837,N,00815.3602,E,1,05,2.3,560.5,M,,,,0000*08
$GPGLL,4704.3837,N,00815.3602,E,055236.221,A,A*5C
$GPRMC,055236.221,A,4704.3837,N,00815.3602,E,0.00,,150807,,,A*7E
$GPVTG,,T,,M,0.00,N,0.0,K,A*13
$GPGGA,055237.221,4704.3837,N,00815.3602,E,1,05,2.3,560.5,M,,,,0000*09
$GPGLL,4704.3837,N,00815.3602,E,055237.221,A,A*5D
$GPRMC,055237.221,A,4704.3837,N,00815.3602,E,0.00,,150807,,,A*7F
$GPVTG,,T,,M,0.00,N,0.0,K,A*13
$GPGGA,055238.220,4704.3837,N,00815.3602,E,1,05,2.3,560.5,M,,,,0000*07
$GPGLL,4704.3837,N,00815.3602,E,055238.220,A,A*53
$GPRMC,055238.220,A,4704.3837,N,00815.3602,E,0.00,,150807,,,A*71
$GPVTG,,T,,M,0.00,N,0.0,K,A*13
$GPGGA,055239.220,4704.3837,N,00815.3602,E,1,05,2.3,560.5,M,,,,0000*06
$GPGLL,4704.3837,N,00815.3602,E,055239.220,A,A*52
$GPGSA,A,3,20,13,23,04,02,,,,,,,,3.3,2.3,2.3*35
$GPGSV,2,1,08,13,85,319,32,04,58,266,33,23,58,055,35,25,44,165,*73
$GPGSV,2,2,08,02,31,308,34,20,30,106,28,27,28,180,,16,07,063,31*70
$GPRMC,055239.220,A,4704.3837,N,00815.3602,E,0.00,,150807,,,A*70
$GPVTG,,T,,M,0.00,N,0.0,K,A*13
$GPGGA,055240.220,4704.3837,N,00815.3602,E,1,05,2.3,560.5,M,,,,0000*08
$GPGLL,4704.3837,N,00815.3602,E,055240.220,A,A*5C
$GPRMC,055240.220,A,4704.3837,N,00815.3602,E,0.00,,150807,,,A*7E
$GPVTG,,T,,M,0.00,N,0.0,K,A*13
$GPGGA,055241.220,4704.3837,N,00815.3602,E,1,05,2.3,560.5,M,,,,0000*09
$GPGLL,4704.3837,N,00815.3602,E,055241.220,A,A*5D
$GPRMC,055241.220,A,4704.3837,N,00815.3602,E,0.00,,150807,,,A*7F
$GPVTG,,T,,M,0.00,N,0.0,K,A*13
$GPGGA,055242.220,4704.3837,N,00815.3602,E,1,05,2.3,560.5,M,,,,0000*0A
$GPGLL,4704.3837,N,00815.3602,E,055242.220,A,A*5E
$GPRMC,055242.220,A,4704.3837,N,00815.3602,E,0.00,,150807,,,A*7C
$GPVTG,,T,,M,0.00,N,0.0,K,A*13
$GPGGA,055243.220,4704.3837,N,00815.3602,E,1,05,2.3,560.5,M,,,,0000*0B
$GPGLL,4704.3837,N,00815.3602,E,055243.220,A,A*5F
$GPGSA,A,3,20,13,23,04,02,,,,,,,,3.3,2.3,2.3*35
$GPGSV,2,1,08,13,85,319,34,04,58,266,18,23,58,055,36,25,44,165,*7F
$GPGSV,2,2,08,02,31,308,29,20,30,106,29,27,28,180,,16,07,063,33*7F
$GPRMC,055243.220,A,4704.3837,N,00815.3602,E,0.00,,150807,,,A*7D
$GPVTG,,T,,M,0.00,N,0.0,K,A*13
$GPGGA,055244.220,4704.3837,N,00815.3602,E,1,05,2.3,560.5,M,,,,0000*0C
$GPGLL,4704.3837,N,00815.3602,E,055244.220,A,A*58
$GPRMC,055244.220,A,4704.3837,N,00815.3602,E,0.00,,150807,,,A*7A
$GPVTG,,T,,M,0.00,N,0.0,K,A*13
$GPGGA,055245.220,4704.3837,N,00815.3602,E,1,05,2.3,560.5,M,,,,0000*0D
$GPGLL,4704.3837,N,00815.3602,E,055245.220,A,A*59
$GPRMC,055245.220,A,4704.3837,N,00815.3602,E,0.00,,150807,,,A*7B
$GPVTG,,T,,M,0.00,N,0.0,K,A*13
$GPGGA,055246.220,4704.3837,N,00815.3602,E,1,05,2.3,560.5,M,,,,0000*0E
$GPGLL,4704.3837,N,00815.3602,E,055246.220,A,A*5A
$GPRMC,055246.220,A,4704.3837,N,00815.3602,E,0.00,,150807,,,A*78
$GPVTG,,T,,M,0.00,N,0.0,K,A*13
$GPGGA,055247.220,4704.3837,N,00815.3602,E,1,05,2.3,560.5,M,,,,0000*0F
$GPGLL,4704.3837,N,00815.3602,E,055247.220,A,A*5B
$GPGSA,A,3,20,13,23,04,02,,,,,,,,3.3,2.3,2.3*35
$GPGSV,2,1,08,13,85,322,37,04,58,266,23,23,58,055,35,25,45,164,*7F
$GPGSV,2,2,08,02,31,307,32,20,30,106,27,27,28,180,,16,08,063,32*7A
$GPRMC,055247.220,A,4704.3837,N,00815.3602,E,0.00,,150807,,,A*79
$GPVTG,,T,,M,0.00,N,0.0,K,A*13
$GPGGA,055248.220,4704.3837,N,00815.3602,E,1,05,2.3,560.5,M,,,,0000*00
$GPGLL,4704.3837,N,00815.3602,E,055248.220,A,A*54
$GPRMC,055248.220,A,4704.3837,N,00815.3602,E,0.00,,150807,,,A*76
$GPVTG,,T,,M,0.00,N,0.0,K,A*13
$GPGGA,055249.220,4704.3837,N,00815.3602,E,1,05,2.3,560.5,M,,,,0000*01
$GPGLL,4704.3837,N,00815.3602,E,055249.220,A,A*55
$GPRMC,055249.220,A,4704.3837,N,00815.3602,E,0.00,,150807,,,A*77
$GPVTG,,T,,M,0.00,N,0.0,K,A*13
$GPGGA,055250.220,4704.3837,N,00815.3602,E,1,05,2.3,560.5,M,,,,0000*09
$GPGLL,4704.3837,N,00815.3602,E,055250.220,A,A*5D
$GPRMC,055250.220,A,4704.3837,N,00815.3602,E,0.00,,150807,,,A*7F
$GPVTG,,T,,M,0.00,N,0.0,K,A*13
$GPGGA,055251.220,4704.3837,N,00815.3602,E,1,05,2.3,560.5,M,,,,0000*08
$GPGLL,4704.3837,N,00815.3602,E,055251.220,A,A*5C
$GPGSA,A,3,20,13,23,04,02,,,,,,,,3.3,2.3,2.3*35
$GPGSV,2,1,08,13,85,322,37,04,58,266,24,23,58,055,36,25,45,164,*7B
$GPGSV,2,2,08,02,31,307,32,20,30,106,19,27,28,180,,16,08,063,32*77
$GPRMC,055251.220,A,4704.3837,N,00815.3602,E,0.00,,150807,,,A*7E
$GPVTG,,T,,M,0.00,N,0.0,K,A*13
$GPGGA,055252.220,4704.3837,N,00815.3602,E,1,05,2.3,560.5,M,,,,0000*0B
$GPGLL,4704.3837,N,00815.3602,E,055252.220,A,A*5F
$GPRMC,055252.220,A,4704.3837,N,00815.3602,E,0.00,,150807,,,A*7D
$GPVTG,,T,,M,0.00,N,0.0,K,A*13
$GPGGA,055253.220,4704.3837,N,00815.3602,E,1,06,2.0,560.5,M,,,,0000*0A
$GPGLL,4704.3837,N,00815.3602,E,055253.220,A,A*5E
$GPRMC,055253.220,A,4704.3837,N,00815.3602,E,0.00,,150807,,,A*7C
$GPVTG,,T,,M,0.00,N,0.0,K,A*13
$GPGGA,055254.219,4704.3837,N,00815.3602,E,1,06,2.0,560.5,M,,,,0000*07
$GPGLL,4704.3837,N,00815.3602,E,055254.219,A,A*53
$GPRMC,055254.219,A,4704.3837,N,00815.3602,E,0.00,,150807,,,A*71
$GPVTG,,T,,M,0.00,N,0.0,K,A*13
$GPGGA,055255.219,4704.3837,N,00815.3602,E,1,06,2.0,560.5,M,,,,0000*06
$GPGLL,4704.3837,N,00815.3602,E,055255.219,A,A*52
$GPGSA,A,3,20,13,23,04,02,16,,,,,,,2.8,2.0,1.9*32
$GPGSV,2,1,08,13,85,322,38,04,58,266,27,23,58,055,40,25,45,164,*76
$GPGSV,2,2,08,02,31,307,31,20,30,106,25,27,28,180,,16,08,063,33*7A
$GPRMC,055255.219,A,4704.3837,N,00815.3602,E,0.00,,150807,,,A*70
$GPVTG,,T,,M,0.00,N,0.0,K,A*13
$GPGGA,055256.219,4704.3837,N,00815.3602,E,1,06,2.0,560.5,M,,,,0000*05
$GPGLL,4704.3837,N,00815.3602,E,055256.219,A,A*51
$GPRMC,055256.219,A,4704.3837,N,00815.3602,E,0.00,,150807,,,A*73
$GPVTG,,T,,M,0.00,N,0.0,K,A*13
$GPGGA,055257.219,4704.3837,N,00815.3602,E,1,06,2.0,560.5,M,,,,0000*04
$GPGLL,4704.3837,N,00815.3602,E,055257.219,A,A*50
$GPRMC,055257.219,A,4704.3837,N,00815.3602,E,0.00,,150807,,,A*72
$GPVTG,,T,,M,0.00,N,0.0,K,A*13
$GPGGA,055258.219,4704.3837,N,00815.3602,E,1,06,2.0,560.5,M,,,,0000*0B
$GPGLL,4704.3837,N,00815.3602,E,055258.219,A,A*5F
$GPRMC,055258.219,A,4704.3837,N,00815.3602,E,0.00,,150807,,,A*7D
$GPVTG,,T,,M,0.00,N,0.0,K,A*13
$GPGGA,055259.219,4704.3837,N,00815.3602,E,1,06,2.0,560.5,M,,,,0000*0A
$GPGLL,4704.3837,N,00815.3602,E,055259.219,A,A*5E
$GPGSA,A,3,20,13,23,04,02,16,,,,,,,2.8,2.0,1.9*32
$GPGSV,2,1,08,13,85,322,38,04,58,266,30,23,58,055,38,25,45,164,*7F
$GPGSV,2,2,08,02,31,307,28,20,30,106,23,27,28,180,,16,08,063,32*75
$GPRMC,055259.219,A,4704.3837,N,00815.3602,E,0.00,,150807,,,A*7C
$GPVTG,,T,,M,0.00,N,0.0,K,A*13
$GPGGA,055300.219,4704.3837,N,00815.3602,E,1,06,2.0,560.5,M,,,,0000*07
$GPGLL,4704.3837,N,00815.3602,E,055300.219,A,A*53
$GPRMC,055300.219,A,4704.3837,N,00815.3602,E,0.00,,150807,,,A*71
$GPVTG,,T,,M,0.00,N,0.0,K,A*13
$GPGGA,055301.219,4704.3837,N,00815.3602,E,1,06,2.0,560.5,M,,,,0000*06
$GPGLL,4704.3837,N,00815.3602,E,055301.219,A,A*52
$GPRMC,055301.219,A,4704.3837,N,00815.3602,E,0.00,,150807,,,A*70
$GPVTG,,T,,M,0.00,N,0.0,K,A*13
$GPGGA,055302.219,4704.3837,N,00815.3602,E,1,06,2.0,560.5,M,,,,0000*05
$GPGLL,4704.3837,N,00815.3602,E,055302.219,A,A*51
$GPRMC,055302.219,A,4704.3837,N,00815.3602,E,0.00,,150807,,,A*73
$GPVTG,,T,,M,0.00,N,0.0,K,A*13
$GPGGA,055303.219,4704.3837,N,00815.3602,E,1,06,2.0,560.5,M,,,,0000*04
$GPGLL,4704.3837,N,00815.3602,E,055303.219,A,A*50
$GPGSA,A,3,20,13,23,04,02,16,,,,,,,2.8,2.0,1.9*32
$GPGSV,2,1,08,13,85,322,38,04,58,266,28,23,58,055,42,25,45,164,*7B
$GPGSV,2,2,08,02,31,307,27,20,30,106,23,27,28,180,,16,08,063,33*7B
$GPRMC,055303.219,A,4704.3837,N,00815.3602,E,0.00,,150807,,,A*72
$GPVTG,,T,,M,0.00,N,0.0,K,A*13
$GPGGA,055304.219,4704.3837,N,00815.3602,E,1,06,2.0,560.5,M,,,,0000*03
$GPGLL,4704.3837,N,00815.3602,E,055304.219,A,A*57
$GPRMC,055304.219,A,4704.3837,N,00815.3602,E,0.00,,150807,,,A*75
$GPVTG,,T,,M,0.00,N,0.0,K,A*13
$GPGGA,055305.219,4704.3837,N,00815.3602,E,1,06,2.0,560.5,M,,,,0000*02
$GPGLL,4704.3837,N,00815.3602,E,055305.219,A,A*56
$GPRMC,055305.219,A,4704.3837,N,00815.3602,E,0.00,,150807,,,A*74
$GPVTG,,T,,M,0.00,N,0.0,K,A*13
$GPGGA,055306.219,4704.3837,N,00815.3602,E,1,06,2.0,560.5,M,,,,0000*01
$GPGLL,4704.3837,N,00815.3602,E,055306.219,A,A*55
$GPRMC,055306.219,A,4704.3837,N,00815.3602,E,0.00,,150807,,,A*77
$GPVTG,,T,,M,0.00,N,0.0,K,A*13
$GPGGA,055307.219,4704.3837,N,00815.3602,E,1,06,2.0,560.5,M,,,,0000*00
$GPGLL,4704.3837,N,00815.3602,E,055307.219,A,A*54
$GPGSA,A,3,20,13,23,04,02,16,,,,,,,2.8,2.0,1.9*32
$GPGSV,2,1,08,13,85,322,38,04,58,266,28,23,58,055,34,25,45,164,*7A
$GPGSV,2,2,08,02,31,307,35,20,30,106,30,27,28,180,,16,08,063,33*7A
$GPRMC,055307.219,A,4704.3837,N,00815.3602,E,0.00,,150807,,,A*76
$GPVTG,,T,,M,0.00,N,0.0,K,A*13
$GPGGA,055308.219,4704.3837,N,00815.3602,E,1,06,2.0,560.5,M,,,,0000*0F
$GPGLL,4704.3837,N,00815.3602,E,055308.219,A,A*5B
$GPRMC,055308.219,A,4704.3837,N,00815.3602,E,0.00,,150807,,,A*79
$GPVTG,,T,,M,0.00,N,0.0,K,A*13
$GPGGA,055309.219,4704.3837,N,00815.3602,E,1,06,2.0,560.5,M,,,,0000*0E
$GPGLL,4704.3837,N,00815.3602,E,055309.219,A,A*5A
$GPRMC,055309.219,A,4704.3837,N,00815.3602,E,0.00,,150807,,,A*78
$GPVTG,,T,,M,0.00,N,0.0,K,A*13
$GPGGA,055310.219,4704.3837,N,00815.3602,E,1,06,2.0,560.5,M,,,,0000*06
$GPGLL,4704.3837,N,00815.3602,E,055310.219,A,A*52
$GPRMC,055310.219,A,4704.3837,N,00815.3602,E,0.00,,150807,,,A*70
$GPVTG,,T,,M,0.00,N,0.0,K,A*13
$GPGGA,055311.218,4704.3837,N,00815.3602,E,1,06,2.0,560.5,M,,,,0000*06
$GPGLL,4704.3837,N,00815.3602,E,055311.218,A,A*52
$GPGSA,A,3,20,13,23,04,02,16,,,,,,,2.8,2.0,1.9*32
$GPGSV,2,1,08,13,85,322,35,04,58,266,32,23,58,055,34,25,45,164,*7C
$GPGSV,2,2,08,02,31,307,40,20,30,106,35,27,28,180,,16,08,063,27*78
$GPRMC,055311.218,A,4704.3837,N,00815.3602,E,0.00,,150807,,,A*70
$GPVTG,,T,,M,0.00,N,0.0,K,A*13
$GPGGA,055312.218,4704.3837,N,00815.3602,E,1,06,2.0,560.5,M,,,,0000*05
$GPGLL,4704.3837,N,00815.3602,E,055312.218,A,A*51
$GPRMC,055312.218,A,4704.3837,N,00815.3602,E,0.00,,150807,,,A*73
$GPVTG,,T,,M,0.00,N,0.0,K,A*13
$GPGGA,055313.218,4704.3837,N,00815.3602,E,1,06,2.0,560.5,M,,,,0000*04
$GPGLL,4704.3837,N,00815.3602,E,055313.218,A,A*50
$GPRMC,055313.218,A,4704.3837,N,00815.3602,E,0.00,,150807,,,A*72
$GPVTG,,T,,M,0.00,N,0.0,K,A*13
$GPGGA,055314.218,4704.3837,N,00815.3602,E,1,06,2.0,560.5,M,,,,0000*03
$GPGLL,4704.3837,N,00815.3602,E,055314.218,A,A*57
$GPRMC,055314.218,A,4704.3837,N,00815.3602,E,0.00,,150807,,,A*75
$GPVTG,,T,,M,0.00,N,0.0,K,A*13
$GPGGA,055315.218,4704.3837,N,00815.3602,E,1,06,2.0,560.5,M,,,,0000*02
$GPGLL,4704.3837,N,00815.3602,E,055315.218,A,A*56
$GPGSA,A,3,20,13,23,04,02,16,,,,,,,2.8,2.0,1.9*32
$GPGSV,2,1,08,13,85,322,36,04,58,266,45,23,58,055,40,25,45,164,*7C
$GPGSV,2,2,08,02,31,307,44,20,30,106,38,27,28,180,,16,08,063,30*77
$GPRMC,055315.218,A,4704.3837,N,00815.3602,E,0.00,,150807,,,A*74
$GPVTG,,T,,M,0.00,N,0.0,K,A*13
$GPGGA,055316.218,4704.3837,N,00815.3602,E,1,06,2.0,560.5,M,,,,0000*01
$GPGLL,4704.3837,N,00815.3602,E,055316.218,A,A*55
$GPRMC,055316.218,A,4704.3837,N,00815.3602,E,0.00,,150807,,,A*77
$GPVTG,,T,,M,0.00,N,0.0,K,A*13
$GPGGA,055317.218,4704.3837,N,00815.3602,E,1,06,2.0,560.5,M,,,,0000*00
$GPGLL,4704.3837,N,00815.3602,E,055317.218,A,A*54
$GPRMC,055317.218,A,4704.3837,N,00815.3602,E,0.00,,150807,,,A*76
$GPVTG,,T,,M,0.00,N,0.0,K,A*13
$GPGGA,055318.218,4704.3837,N,00815.3602,E,1,06,2.0,560.5,M,,,,0000*0F
$GPGLL,4704.3837,N,00815.3602,E,055318.218,A,A*5B
$GPRMC,055318.218,A,4704.3837,N,00815.3602,E,0.00,,150807,,,A*79
$GPVTG,,T,,M,0.00,N,0.0,K,A*13
$GPGGA,055319.218,4704.3837,N,00815.3602,E,1,06,2.0,560.5,M,,,,0000*0E
$GPGLL,4704.3837,N,00815.3602,E,055319.218,A,A*5A
$GPGSA,A,3,20,13,23,04,02,16,,,,,,,2.8,2.0,1.9*32
$GPGSV,2,1,08,13,85,325,36,04,58,265,43,23,58,055,40,25,45,164,*7E
$GPGSV,2,2,08,02,31,307,44,20,30,106,29,27,28,180,,16,08,063,29*7F
$GPRMC,055319.218,A,4704.3837,N,00815.3602,E,0.00,,150807,,,A*78
$GPVTG,,T,,M,0.00,N,0.0,K,A*13
$GPGGA,055320.218,4704.3837,N,00815.3602,E,1,06,2.0,560.5,M,,,,0000*04
$GPGLL,4704.3837,N,00815.3602,E,055320.218,A,A*50
$GPRMC,055320.218,A,4704.3837,N,00815.3602,E,0.00,,150807,,,A*72
$GPVTG,,T,,M,0.00,N,0.0,K,A*13
$GPGGA,055321.218,4704.3837,N,00815.3602,E,1,06,2.0,560.5,M,,,,0000*05
$GPGLL,4704.3837,N,00815.3602,E,055321.218,A,A*51
$GPRMC,055321.218,A,4704.3837,N,00815.3602,E,0.00,,150807,,,A*73
$GPVTG,,T,,M,0.00,N,0.0,K,A*13
$GPGGA,055322.218,4704.3837,N,00815.3602,E,1,06,2.0,560.5,M,,,,0000*06
$GPGLL,4704.3837,N,00815.3602,E,055322.218,A,A*52
$GPRMC,055322.218,A,4704.3837,N,00815.3602,E,0.00,,150807,,,A*70
$GPVTG,,T,,M,0.00,N,0.0,K,A*13
$GPGGA,055323.218,4704.3837,N,00815.3602,E,1,06,2.0,560.5,M,,,,0000*07
$GPGLL,4704.3837,N,00815.3602,E,055323.218,A,A*53
$GPGSA,A,3,20,13,23,04,02,16,,,,,,,2.8,2.0,1.9*32
$GPGSV,2,1,08,13,85,325,36,04,58,265,42,23,58,055,35,25,45,164,*7D
$GPGSV,2,2,08,02,31,307,45,20,30,106,16,27,28,180,,16,08,063,25*7E
$GPRMC,055323.218,A,4704.3837,N,00815.3602,E,0.00,,150807,,,A*71
$GPVTG,,T,,M,0.00,N,0.0,K,A*13
$GPGGA,055324.218,4704.3837,N,00815.3602,E,1,06,2.0,560.5,M,,,,0000*00
$GPGLL,4704.3837,N,00815.3602,E,055324.218,A,A*54
$GPRMC,055324.218,A,4704.3837,N,00815.3602,E,0.00,,150807,,,A*76
$GPVTG,,T,,M,0.00,N,0.0,K,A*13
$GPGGA,055325.218,4704.3837,N,00815.3602,E,1,06,2.0,560.5,M,,,,0000*01
$GPGLL,4704.3837,N,00815.3602,E,055325.218,A,A*55
$GPRMC,055325.218,A,4704.3837,N,00815.3602,E,0.00,,150807,,,A*77
$GPVTG,,T,,M,0.00,N,0.0,K,A*13
$GPGGA,055326.218,4704.3837,N,00815.3602,E,1,06,2.0,560.5,M,,,,0000*02
$GPGLL,4704.3837,N,00815.3602,E,055326.218,A,A*56
$GPRMC,055326.218,A,4704.3837,N,00815.3602,E,0.00,,150807,,,A*74
$GPVTG,,T,,M,0.00,N,0.0,K,A*13
$GPGGA,055327.217,4704.3837,N,00815.3602,E,1,06,2.0,560.5,M,,,,0000*0C
$GPGLL,4704.3837,N,00815.3602,E,055327.217,A,A*58
$GPGSA,A,3,20,13,23,04,02,16,,,,,,,2.8,2.0,1.9*32
$GPGSV,2,1,08,13,85,325,41,04,58,265,43,23,58,055,37,25,45,164,*7E
$GPGSV,2,2,08,02,31,307,42,20,30,106,36,27,28,180,,16,08,063,26*78
$GPRMC,055327.217,A,4704.3837,N,00815.3602,E,0.00,,150807,,,A*7A
$GPVTG,,T,,M,0.00,N,0.0,K,A*13
$GPGGA,055328.217,4704.3837,N,00815.3602,E,1,06,2.0,560.5,M,,,,0000*03
$GPGLL,4704.3837,N,00815.3602,E,055328.217,A,A*57
$GPRMC,055328.217,A,4704.3837,N,00815.3602,E,0.00,,150807,,,A*75
$GPVTG,,T,,M,0.00,N,0.0,K,A*13
$GPGGA,055329.217,4704.3837,N,00815.3602,E,1,06,2.0,560.5,M,,,,0000*02
$GPGLL,4704.3837,N,00815.3602,E,055329.217,A,A*56
$GPRMC,055329.217,A,4704.3837,N,00815.3602,E,0.00,,150807,,,A*74
$GPVTG,,T,,M,0.00,N,0.0,K,A*13
$GPGGA,055330.217,4704.3837,N,00815.3602,E,1,06,2.0,560.5,M,,,,0000*0A
$GPGLL,4704.3837,N,00815.3602,E,055330.217,A,A*5E
$GPRMC,055330.217,A,4704.3837,N,00815.3602,E,0.00,,150807,,,A*7C
$GPVTG,,T,,M,0.00,N,0.0,K,A*13
$GPGGA,055331.217,4704.3837,N,00815.3602,E,1,06,2.0,560.5,M,,,,0000*0B
$GPGLL,4704.3837,N,00815.3602,E,055331.217,A,A*5F
$GPGSA,A,3,20,13,23,04,02,16,,,,,,,2.8,2.0,1.9*32
$GPGSV,2,1,08,13,85,325,37,04,58,265,44,23,58,055,40,25,45,164,*78
$GPGSV,2,2,08,02,31,307,45,20,30,106,35,27,28,180,,16,08,063,20*7A
$GPRMC,055331.217,A,4704.3837,N,00815.3602,E,0.00,,150807,,,A*7D
$GPVTG,,T,,M,0.00,N,0.0,K,A*13
$GPGGA,055332.217,4704.3837,N,00815.3602,E,1,06,2.0,560.5,M,,,,0000*08
$GPGLL,4704.3837,N,00815.3602,E,055332.217,A,A*5C
$GPRMC,055332.217,A,4704.3837,N,00815.3602,E,0.00,,150807,,,A*7E
$GPVTG,,T,,M,0.00,N,0.0,K,A*13
$GPGGA,055333.217,4704.3837,N,00815.3602,E,1,06,2.0,560.5,M,,,,0000*09
$GPGLL,4704.3837,N,00815.3602,E,055333.217,A,A*5D
$GPRMC,055333.217,A,4704.3837,N,00815.3602,E,0.00,,150807,,,A*7F
$GPVTG,,T,,M,0.00,N,0.0,K,A*13
$GPGGA,055334.217,4704.3837,N,00815.3602,E,1,06,2.0,560.5,M,,,,0000*0E
$GPGLL,4704.3837,N,00815.3602,E,055334.217,A,A*5A
$GPRMC,055334.217,A,4704.3837,N,00815.3602,E,0.00,,150807,,,A*78
$GPVTG,,T,,M,0.00,N,0.0,K,A*13
$GPGGA,055335.217,4704.3837,N,00815.3602,E,1,06,2.0,560.5,M,,,,0000*0F
$GPGLL,4704.3837,N,00815.3602,E,055335.217,A,A*5B
$GPGSA,A,3,20,13,23,04,02,16,,,,,,,2.8,2.0,1.9*32
$GPGSV,2,1,08,13,85,325,36,04,58,265,42,23,58,055,40,25,45,164,*7F
$GPGSV,2,2,08,02,31,307,45,20,30,106,33,27,28,180,,16,08,063,26*7A
$GPRMC,055335.217,A,4704.3837,N,00815.3602,E,0.00,,150807,,,A*79
$GPVTG,,T,,M,0.00,N,0.0,K,A*13
$GPGGA,055336.217,4704.3837,N,00815.3602,E,1,06,2.0,560.5,M,,,,0000*0C
$GPGLL,4704.3837,N,00815.3602,E,055336.217,A,A*58
$GPRMC,055336.217,A,4704.3837,N,00815.3602,E,0.00,,150807,,,A*7A
$GPVTG,,T,,M,0.00,N,0.0,K,A*13
$GPGGA,055337.217,4704.3835,N,00815.3605,E,1,06,2.0,560.4,M,,,,0000*09
$GPGLL,4704.3835,N,00815.3605,E,055337.217,A,A*5C
$GPRMC,055337.217,A,4704.3835,N,00815.3605,E,1.99,142.04,150807,,,A*62
$GPVTG,142.04,T,,M,1.99,N,3.7,K,A*0B
$GPGGA,055338.217,4704.3832,N,00815.3612,E,1,06,2.0,560.8,M,,,,0000*0B
$GPGLL,4704.3832,N,00815.3612,E,055338.217,A,A*52
$GPRMC,055338.217,A,4704.3832,N,00815.3612,E,2.58,114.00,150807,,,A*65
$GPVTG,114.00,T,,M,2.58,N,4.8,K,A*0A
$GPGGA,055339.217,4704.3830,N,00815.3625,E,1,06,2.0,561.1,M,,,,0000*04
$GPGLL,4704.3830,N,00815.3625,E,055339.217,A,A*55
$GPGSA,A,3,20,13,23,04,02,16,,,,,,,2.8,2.0,1.9*32
$GPGSV,2,1,08,13,85,325,37,04,58,265,44,23,58,055,34,25,45,164,*7B
$GPGSV,2,2,08,02,31,307,44,20,30,106,33,27,28,180,,16,08,063,31*7D
$GPRMC,055339.217,A,4704.3830,N,00815.3625,E,3.46,113.94,150807,,,A*66
$GPVTG,113.94,T,,M,3.46,N,6.4,K,A*00
$GPGGA,055340.217,4704.3828,N,00815.3640,E,1,06,2.0,561.6,M,,,,0000*07
$GPGLL,4704.3828,N,00815.3640,E,055340.217,A,A*51
$GPRMC,055340.217,A,4704.3828,N,00815.3640,E,3.79,104.04,150807,,,A*61
$GPVTG,104.04,T,,M,3.79,N,7.0,K,A*06
$GPGGA,055341.217,4704.3828,N,00815.3661,E,1,06,2.0,562.4,M,,,,0000*04
$GPGLL,4704.3828,N,00815.3661,E,055341.217,A,A*53
$GPRMC,055341.217,A,4704.3828,N,00815.3661,E,4.20,101.68,150807,,,A*67
$GPVTG,101.68,T,,M,4.20,N,7.8,K,A*0A
$GPGGA,055342.217,4704.3828,N,00815.3684,E,1,06,2.0,563.3,M,,,,0000*0A
$GPGLL,4704.3828,N,00815.3684,E,055342.217,A,A*5B
$GPRMC,055342.217,A,4704.3828,N,00815.3684,E,4.42,99.89,150807,,,A*54
$GPVTG,99.89,T,,M,4.42,N,8.2,K,A*34
$GPGGA,055343.217,4704.3829,N,00815.3705,E,1,06,2.0,563.8,M,,,,0000*09
$GPGLL,4704.3829,N,00815.3705,E,055343.217,A,A*53
$GPGSA,A,3,20,13,23,04,02,16,,,,,,,2.8,2.0,1.9*32
$GPGSV,2,1,08,13,85,325,34,04,58,265,43,23,58,055,40,25,45,164,*7C
$GPGSV,2,2,08,02,31,307,44,20,30,106,34,27,28,180,,16,08,063,29*73
$GPRMC,055343.217,A,4704.3829,N,00815.3705,E,3.98,97.23,150807,,,A*52
$GPVTG,97.23,T,,M,3.98,N,7.4,K,A*33
$GPGGA,055344.216,4704.3830,N,00815.3725,E,1,06,2.0,564.3,M,,,,0000*09
$GPGLL,4704.3830,N,00815.3725,E,055344.216,A,A*5F
$GPRMC,055344.216,A,4704.3830,N,00815.3725,E,4.18,101.41,150807,,,A*6B
$GPVTG,101.41,T,,M,4.18,N,7.7,K,A*05
$GPGGA,055345.216,4704.3829,N,00815.3745,E,1,06,2.0,564.8,M,,,,0000*0D
$GPGLL,4704.3829,N,00815.3745,E,055345.216,A,A*50
$GPRMC,055345.216,A,4704.3829,N,00815.3745,E,4.59,99.93,150807,,,A*5E
$GPVTG,99.93,T,,M,4.59,N,8.5,K,A*32
$GPGGA,055346.216,4704.3829,N,00815.3763,E,1,06,2.0,565.3,M,,,,0000*00
$GPGLL,4704.3829,N,00815.3763,E,055346.216,A,A*57
$GPRMC,055346.216,A,4704.3829,N,00815.3763,E,4.11,97.38,150807,,,A*5A
$GPVTG,97.38,T,,M,4.11,N,7.6,K,A*3D
$GPGGA,055347.216,4704.3831,N,00815.3780,E,1,06,2.0,566.4,M,,,,0000*01
$GPGLL,4704.3831,N,00815.3780,E,055347.216,A,A*52
$GPGSA,A,3,20,13,23,04,02,16,,,,,,,2.8,2.0,1.9*32
$GPGSV,2,1,08,13,85,329,34,04,58,265,45,23,57,055,39,25,45,164,*77
$GPGSV,2,2,08,02,31,307,45,20,30,106,35,27,28,180,,16,08,062,27*7C
$GPRMC,055347.216,A,4704.3831,N,00815.3780,E,4.37,99.27,150807,,,A*5B
$GPVTG,99.27,T,,M,4.37,N,8.1,K,A*31
$GPGGA,055348.216,4704.3830,N,00815.3797,E,1,06,2.0,567.3,M,,,,0000*0F
$GPGLL,4704.3830,N,00815.3797,E,055348.216,A,A*5A
$GPRMC,055348.216,A,4704.3830,N,00815.3797,E,4.53,108.22,150807,,,A*6D
$GPVTG,108.22,T,,M,4.53,N,8.4,K,A*0A
$GPGGA,055349.216,4704.3828,N,00815.3816,E,1,06,2.0,566.9,M,,,,0000*0A
$GPGLL,4704.3828,N,00815.3816,E,055349.216,A,A*54
$GPRMC,055349.216,A,4704.3828,N,00815.3816,E,4.57,108.19,150807,,,A*6F
$GPVTG,108.19,T,,M,4.57,N,8.5,K,A*07
$GPGGA,055350.216,4704.3826,N,00815.3833,E,1,06,2.0,566.9,M,,,,0000*0B
$GPGLL,4704.3826,N,00815.3833,E,055350.216,A,A*55
$GPRMC,055350.216,A,4704.3826,N,00815.3833,E,4.62,109.36,150807,,,A*64
$GPVTG,109.36,T,,M,4.62,N,8.6,K,A*0E
$GPGGA,055351.216,4704.3823,N,00815.3852,E,1,06,2.0,567.1,M,,,,0000*01
$GPGLL,4704.3823,N,00815.3852,E,055351.216,A,A*56
$GPGSA,A,3,20,13,23,04,02,16,,,,,,,2.8,2.0,1.9*32
$GPGSV,2,1,08,13,85,329,35,04,58,265,43,23,57,055,39,25,45,164,*70
$GPGSV,2,2,08,02,31,307,45,20,30,106,34,27,28,180,,16,08,062,30*7B
$GPRMC,055351.216,A,4704.3823,N,00815.3852,E,4.91,110.40,150807,,,A*62
$GPVTG,110.40,T,,M,4.91,N,9.1,K,A*0D
$GPGGA,055352.216,4704.3821,N,00815.3874,E,1,06,2.0,567.8,M,,,,0000*0D
$GPGLL,4704.3821,N,00815.3874,E,055352.216,A,A*53
$GPRMC,055352.216,A,4704.3821,N,00815.3874,E,5.23,109.22,150807,,,A*63
$GPVTG,109.22,T,,M,5.23,N,9.7,K,A*0F
$GPGGA,055353.216,4704.3818,N,00815.3896,E,1,06,2.0,568.9,M,,,,0000*04
$GPGLL,4704.3818,N,00815.3896,E,055353.216,A,A*54
$GPRMC,055353.216,A,4704.3818,N,00815.3896,E,5.61,108.14,150807,,,A*66
$GPVTG,108.14,T,,M,5.61,N,10.4,K,A*36
$GPGGA,055354.216,4704.3812,N,00815.3918,E,1,06,2.0,569.2,M,,,,0000*04
$GPGLL,4704.3812,N,00815.3918,E,055354.216,A,A*5E
$GPRMC,055354.216,A,4704.3812,N,00815.3918,E,5.56,115.26,150807,,,A*65
$GPVTG,115.26,T,,M,5.56,N,10.3,K,A*38
$GPGGA,055355.216,4704.3805,N,00815.3938,E,1,06,2.0,569.7,M,,,,0000*04
$GPGLL,4704.3805,N,00815.3938,E,055355.216,A,A*5B
$GPGSA,A,3,20,13,23,04,02,16,,,,,,,2.8,2.0,1.9*32
$GPGSV,2,1,08,13,85,329,37,04,58,265,45,23,57,055,37,25,45,164,*7A
$GPGSV,2,2,08,02,31,307,44,20,30,106,35,27,28,180,,16,08,062,23*79
$GPRMC,055355.216,A,4704.3805,N,00815.3938,E,5.60,116.76,150807,,,A*63
$GPVTG,116.76,T,,M,5.60,N,10.4,K,A*3C
$GPGGA,055356.216,4704.3797,N,00815.3958,E,1,06,2.0,569.5,M,,,,0000*07
$GPGLL,4704.3797,N,00815.3958,E,055356.216,A,A*5A
$GPRMC,055356.216,A,4704.3797,N,00815.3958,E,5.28,115.49,150807,,,A*61
$GPVTG,115.49,T,,M,5.28,N,9.8,K,A*0B
$GPGGA,055357.216,4704.3791,N,00815.3978,E,1,06,2.0,569.3,M,,,,0000*04
$GPGLL,4704.3791,N,00815.3978,E,055357.216,A,A*5F
$GPRMC,055357.216,A,4704.3791,N,00815.3978,E,4.96,115.45,150807,,,A*6C
$GPVTG,115.45,T,,M,4.96,N,9.2,K,A*09
$GPGGA,055358.216,4704.3785,N,00815.3995,E,1,06,2.0,568.6,M,,,,0000*09
$GPGLL,4704.3785,N,00815.3995,E,055358.216,A,A*56
$GPRMC,055358.216,A,4704.3785,N,00815.3995,E,4.67,121.16,150807,,,A*6A
$GPVTG,121.16,T,,M,4.67,N,8.6,K,A*03
$GPGGA,055359.216,4704.3778,N,00815.4010,E,1,06,2.0,567.8,M,,,,0000*08
$GPGLL,4704.3778,N,00815.4010,E,055359.216,A,A*56
$GPGSA,A,3,20,13,23,04,02,16,,,,,,,2.8,2.0,1.9*32
$GPGSV,2,1,08,13,85,329,39,04,58,265,37,23,57,055,39,25,45,164,*7F
$GPGSV,2,2,08,02,31,307,45,20,30,106,36,27,28,180,,16,08,062,28*70
$GPRMC,055359.216,A,4704.3778,N,00815.4010,E,4.32,140.30,150807,,,A*69
$GPVTG,140.30,T,,M,4.32,N,8.0,K,A*06
$GPGGA,055400.215,4704.3770,N,00815.4017,E,1,06,2.0,567.9,M,,,,0000*0E
$GPGLL,4704.3770,N,00815.4017,E,055400.215,A,A*51
$GPRMC,055400.215,A,4704.3770,N,00815.4017,E,3.26,154.51,150807,,,A*6E
$GPVTG,154.51,T,,M,3.26,N,6.0,K,A*08
$GPGGA,055401.215,4704.3763,N,00815.4016,E,1,06,2.0,569.9,M,,,,0000*02
$GPGLL,4704.3763,N,00815.4016,E,055401.215,A,A*53
$GPRMC,055401.215,A,4704.3763,N,00815.4016,E,2.25,204.84,150807,,,A*60
$GPVTG,204.84,T,,M,2.25,N,4.2,K,A*04
$GPGGA,055402.215,4704.3760,N,00815.4012,E,1,06,2.0,571.4,M,,,,0000*02
$GPGLL,4704.3760,N,00815.4012,E,055402.215,A,A*57
$GPRMC,055402.215,A,4704.3760,N,00815.4012,E,0.00,,150807,,,A*75
$GPVTG,,T,,M,0.00,N,0.0,K,A*13
$GPGGA,055403.215,4704.3760,N,00815.4011,E,1,06,2.0,572.5,M,,,,0000*02
$GPGLL,4704.3760,N,00815.4011,E,055403.215,A,A*55
$GPGSA,A,3,20,13,23,04,02,16,,,,,,,2.8,2.0,1.9*32
$GPGSV,2,1,08,13,85,329,37,04,58,265,27,23,57,055,40,25,45,164,*7E
$GPGSV,2,2,08,02,31,307,43,20,30,106,34,27,28,180,,16,08,062,41*7B
$GPRMC,055403.215,A,4704.3760,N,00815.4011,E,0.00,,150807,,,A*77
$GPVTG,,T,,M,0.00,N,0.0,K,A*13
$GPGGA,055404.215,4704.3759,N,00815.4010,E,1,05,2.3,573.3,M,,,,0000*09
$GPGLL,4704.3759,N,00815.4010,E,055404.215,A,A*59
$GPRMC,055404.215,A,4704.3759,N,00815.4010,E,0.00,,150807,,,A*7B
$GPVTG,,T,,M,0.00,N,0.0,K,A*13
$GPGGA,055405.215,4704.3759,N,00815.4009,E,1,06,2.0,573.9,M,,,,0000*0A
$GPGLL,4704.3759,N,00815.4009,E,055405.215,A,A*50
$GPRMC,055405.215,A,4704.3759,N,00815.4009,E,0.00,,150807,,,A*72
$GPVTG,,T,,M,0.00,N,0.0,K,A*13
$GPGGA,055406.215,4704.3759,N,00815.4009,E,1,05,2.4,574.3,M,,,,0000*03
$GPGLL,4704.3759,N,00815.4009,E,055406.215,A,A*53
$GPRMC,055406.215,A,4704.3759,N,00815.4009,E,0.00,,150807,,,A*71
$GPVTG,,T,,M,0.00,N,0.0,K,A*13
$GPGGA,055407.215,4704.3759,N,00815.4008,E,1,06,2.0,574.7,M,,,,0000*00
$GPGLL,4704.3759,N,00815.4008,E,055407.215,A,A*53
$GPGSA,A,3,20,13,23,04,02,16,,,,,,,2.8,2.0,1.9*32
$GPGSV,2,1,08,13,85,329,39,04,58,265,26,23,57,055,38,25,45,164,*7E
$GPGSV,2,2,08,02,31,307,45,20,30,106,36,27,28,180,,16,08,062,39*70
$GPRMC,055407.215,A,4704.3759,N,00815.4008,E,0.00,,150807,,,A*71
$GPVTG,,T,,M,0.00,N,0.0,K,A*13
$GPGGA,055408.215,4704.3759,N,00815.4008,E,1,06,2.0,574.9,M,,,,0000*01
$GPGLL,4704.3759,N,00815.4008,E,055408.215,A,A*5C
$GPRMC,055408.215,A,4704.3759,N,00815.4008,E,0.00,,150807,,,A*7E
$GPVTG,,T,,M,0.00,N,0.0,K,A*13
$GPGGA,055409.215,4704.3761,N,00815.4015,E,1,06,2.0,574.7,M,,,,0000*09
$GPGLL,4704.3761,N,00815.4015,E,055409.215,A,A*5A
$GPRMC,055409.215,A,4704.3761,N,00815.4015,E,2.47,40.33,150807,,,A*53
$GPVTG,40.33,T,,M,2.47,N,4.6,K,A*3A
$GPGGA,055410.215,4704.3770,N,00815.4029,E,1,06,2.0,573.7,M,,,,0000*09
$GPGLL,4704.3770,N,00815.4029,E,055410.215,A,A*5D
$GPRMC,055410.215,A,4704.3770,N,00815.4029,E,3.69,20.55,150807,,,A*5F
$GPVTG,20.55,T,,M,3.69,N,6.8,K,A*3D
$GPGGA,055411.215,4704.3782,N,00815.4044,E,1,06,2.0,572.7,M,,,,0000*0F
$GPGLL,4704.3782,N,00815.4044,E,055411.215,A,A*5A
$GPGSA,A,3,20,13,23,04,02,16,,,,,,,2.8,2.0,1.9*32
$GPGSV,2,1,08,13,85,329,33,04,58,265,41,23,57,055,40,25,45,164,*7A
$GPGSV,2,2,08,02,31,307,39,20,30,106,38,27,28,180,,16,08,062,36*7A
$GPRMC,055411.215,A,4704.3782,N,00815.4044,E,5.12,27.36,150807,,,A*50
$GPVTG,27.36,T,,M,5.12,N,9.5,K,A*37
$GPGGA,055412.215,4704.3797,N,00815.4061,E,1,06,2.0,571.7,M,,,,0000*0C
$GPGLL,4704.3797,N,00815.4061,E,055412.215,A,A*5A
$GPRMC,055412.215,A,4704.3797,N,00815.4061,E,5.68,26.03,150807,,,A*5A
$GPVTG,26.03,T,,M,5.68,N,10.5,K,A*05
$GPGGA,055413.215,4704.3814,N,00815.4077,E,1,06,2.0,571.0,M,,,,0000*09
$GPGLL,4704.3814,N,00815.4077,E,055413.215,A,A*58
$GPRMC,055413.215,A,4704.3814,N,00815.4077,E,6.05,25.17,150807,,,A*56
$GPVTG,25.17,T,,M,6.05,N,11.2,K,A*0D
$GPGGA,055414.215,4704.3831,N,00815.4092,E,1,06,2.0,570.6,M,,,,0000*05
$GPGLL,4704.3831,N,00815.4092,E,055414.215,A,A*53
$GPRMC,055414.215,A,4704.3831,N,00815.4092,E,6.09,22.95,150807,,,A*5C
$GPVTG,22.95,T,,M,6.09,N,11.3,K,A*0D
$GPGGA,055415.215,4704.3850,N,00815.4106,E,1,06,2.0,570.3,M,,,,0000*0A
$GPGLL,4704.3850,N,00815.4106,E,055415.215,A,A*59
$GPGSA,A,3,20,13,23,04,02,16,,,,,,,2.8,2.0,1.9*32
$GPGSV,2,1,08,13,85,329,34,04,58,265,40,23,57,055,41,25,45,164,*7D
$GPGSV,2,2,08,02,31,307,39,20,30,106,43,27,28,180,,16,08,062,25*74
$GPRMC,055415.215,A,4704.3850,N,00815.4106,E,6.42,23.08,150807,,,A*5C
$GPVTG,23.08,T,,M,6.42,N,11.9,K,A*0D
$GPGGA,055416.215,4704.3869,N,00815.4118,E,1,06,2.0,570.2,M,,,,0000*0D
$GPGLL,4704.3869,N,00815.4118,E,055416.215,A,A*5F
$GPRMC,055416.215,A,4704.3869,N,00815.4118,E,6.59,19.95,150807,,,A*5D
$GPVTG,19.95,T,,M,6.59,N,12.2,K,A*02
$GPGGA,055417.214,4704.3888,N,00815.4131,E,1,06,2.0,569.7,M,,,,0000*04
$GPGLL,4704.3888,N,00815.4131,E,055417.214,A,A*5B
$GPRMC,055417.214,A,4704.3888,N,00815.4131,E,7.21,21.49,150807,,,A*5D
$GPVTG,21.49,T,,M,7.21,N,13.4,K,A*01
$GPGGA,055418.214,4704.3909,N,00815.4145,E,1,05,2.2,569.4,M,,,,0000*02
$GPGLL,4704.3909,N,00815.4145,E,055418.214,A,A*5F
$GPRMC,055418.214,A,4704.3909,N,00815.4145,E,7.78,21.13,150807,,,A*5A
$GPVTG,21.13,T,,M,7.78,N,14.4,K,A*05
$GPGGA,055419.214,4704.3931,N,00815.4160,E,1,05,2.2,569.3,M,,,,0000*08
$GPGLL,4704.3931,N,00815.4160,E,055419.214,A,A*52
$GPGSA,A,3,20,13,23,04,02,,,,,,,,3.2,2.2,2.3*35
$GPGSV,2,1,08,13,85,332,35,04,58,264,39,23,57,055,40,25,45,164,45*79
$GPGSV,2,2,08,02,31,307,40,20,29,107,33,27,29,179,,16,08,062,18*7D
$GPRMC,055419.214,A,4704.3931,N,00815.4160,E,8.18,20.48,150807,,,A*51
$GPVTG,20.48,T,,M,8.18,N,15.2,K,A*04
$GPGGA,055420.214,4704.3955,N,00815.4175,E,1,06,2.0,569.2,M,,,,0000*04
$GPGLL,4704.3955,N,00815.4175,E,055420.214,A,A*5E
$GPRMC,055420.214,A,4704.3955,N,00815.4175,E,8.64,19.59,150807,,,A*5C
$GPVTG,19.59,T,,M,8.64,N,16.0,K,A*04
$GPGGA,055421.214,4704.3978,N,00815.4190,E,1,06,2.0,568.9,M,,,,0000*0B
$GPGLL,4704.3978,N,00815.4190,E,055421.214,A,A*5B
$GPRMC,055421.214,A,4704.3978,N,00815.4190,E,8.39,24.61,150807,,,A*54
$GPVTG,24.61,T,,M,8.39,N,15.5,K,A*0F
$GPGGA,055422.214,4704.4001,N,00815.4206,E,1,05,3.3,568.6,M,,,,0000*0A
$GPGLL,4704.4001,N,00815.4206,E,055422.214,A,A*54
$GPRMC,055422.214,A,4704.4001,N,00815.4206,E,8.58,23.95,150807,,,A*50
$GPVTG,23.95,T,,M,8.58,N,15.9,K,A*08
$GPGGA,055423.214,4704.4025,N,00815.4223,E,1,05,2.2,568.6,M,,,,0000*0A
$GPGLL,4704.4025,N,00815.4223,E,055423.214,A,A*54
$GPGSA,A,3,20,13,23,04,02,,,,,,,,3.2,2.2,2.3*35
$GPGSV,2,1,08,13,85,332,33,04,58,264,42,23,57,055,41,25,45,164,44*73
$GPGSV,2,2,08,02,31,307,38,20,29,107,37,27,29,179,39,16,08,062,18*7C
$GPRMC,055423.214,A,4704.4025,N,00815.4223,E,8.46,23.91,150807,,,A*5B
$GPVTG,23.91,T,,M,8.46,N,15.7,K,A*0D
$GPGGA,055424.214,4704.4049,N,00815.4236,E,1,05,2.2,568.6,M,,,,0000*03
$GPGLL,4704.4049,N,00815.4236,E,055424.214,A,A*5D
$GPRMC,055424.214,A,4704.4049,N,00815.4236,E,8.41,21.05,150807,,,A*5A
$GPVTG,21.05,T,,M,8.41,N,15.6,K,A*04
$GPGGA,055425.214,4704.4073,N,00815.4246,E,1,05,2.8,568.3,M,,,,0000*03
$GPGLL,4704.4073,N,00815.4246,E,055425.214,A,A*52
$GPRMC,055425.214,A,4704.4073,N,00815.4246,E,8.39,22.62,150807,,,A*58
$GPVTG,22.62,T,,M,8.39,N,15.5,K,A*0A
$GPGGA,055426.214,4704.4097,N,00815.4259,E,1,06,2.0,568.6,M,,,,0000*0A
$GPGLL,4704.4097,N,00815.4259,E,055426.214,A,A*55
$GPRMC,055426.214,A,4704.4097,N,00815.4259,E,8.58,23.82,150807,,,A*57
$GPVTG,23.82,T,,M,8.58,N,15.9,K,A*0E
$GPGGA,055427.214,4704.4121,N,00815.4274,E,1,06,2.0,569.3,M,,,,0000*0C
$GPGLL,4704.4121,N,00815.4274,E,055427.214,A,A*57
$GPGSA,A,3,20,13,23,04,02,16,,,,,,,2.8,2.0,1.9*32
$GPGSV,2,1,08,13,85,332,34,04,58,264,42,23,57,055,40,25,45,164,44*75
$GPGSV,2,2,08,02,31,307,40,20,29,107,24,27,29,179,43,16,08,062,18*7C
$GPRMC,055427.214,A,4704.4121,N,00815.4274,E,8.75,23.54,150807,,,A*51
$GPVTG,23.54,T,,M,8.75,N,16.2,K,A*02
$GPGGA,055428.214,4704.4144,N,00815.4291,E,1,06,2.0,569.7,M,,,,0000*0F
$GPGLL,4704.4144,N,00815.4291,E,055428.214,A,A*50
$GPRMC,055428.214,A,4704.4144,N,00815.4291,E,8.59,32.05,150807,,,A*5C
$GPVTG,32.05,T,,M,8.59,N,15.9,K,A*00
$GPGGA,055429.214,4704.4164,N,00815.4313,E,1,06,2.0,569.9,M,,,,0000*09
$GPGLL,4704.4164,N,00815.4313,E,055429.214,A,A*58
$GPRMC,055429.214,A,4704.4164,N,00815.4313,E,8.55,40.72,150807,,,A*5D
$GPVTG,40.72,T,,M,8.55,N,15.8,K,A*08
$GPGGA,055430.214,4704.4183,N,00815.4338,E,1,06,2.0,569.7,M,,,,0000*0F
$GPGLL,4704.4183,N,00815.4338,E,055430.214,A,A*50
$GPRMC,055430.214,A,4704.4183,N,00815.4338,E,8.97,40.77,150807,,,A*5E
$GPVTG,40.77,T,,M,8.97,N,16.6,K,A*0E
$GPGGA,055431.214,4704.4203,N,00815.4364,E,1,06,2.0,569.6,M,,,,0000*0D
$GPGLL,4704.4203,N,00815.4364,E,055431.214,A,A*53
$GPGSA,A,3,20,13,23,04,02,16,,,,,,,2.8,2.0,1.9*32
$GPGSV,2,1,08,13,85,332,35,04,58,264,43,23,57,055,41,25,45,164,39*7E
$GPGSV,2,2,08,02,31,307,41,20,29,107,38,27,29,179,40,16,08,062,22*7A
$GPRMC,055431.214,A,4704.4203,N,00815.4364,E,9.35,35.62,150807,,,A*52
$GPVTG,35.62,T,,M,9.35,N,17.3,K,A*05
$GPGGA,055432.214,4704.4227,N,00815.4388,E,1,06,2.0,570.4,M,,,,0000*00
$GPGLL,4704.4227,N,00815.4388,E,055432.214,A,A*54
$GPRMC,055432.214,A,4704.4227,N,00815.4388,E,9.53,32.80,150807,,,A*5E
$GPVTG,32.80,T,,M,9.53,N,17.7,K,A*0A
$GPGGA,055433.213,4704.4251,N,00815.4411,E,1,06,2.0,570.9,M,,,,0000*0D
$GPGLL,4704.4251,N,00815.4411,E,055433.213,A,A*54
$GPRMC,055433.213,A,4704.4251,N,00815.4411,E,9.72,31.20,150807,,,A*54
$GPVTG,31.20,T,,M,9.72,N,18.0,K,A*08
$GPGGA,055434.213,4704.4275,N,00815.4434,E,1,06,2.0,570.9,M,,,,0000*0B
$GPGLL,4704.4275,N,00815.4434,E,055434.213,A,A*52
$GPRMC,055434.213,A,4704.4275,N,00815.4434,E,10.13,29.48,150807,,,A*6A
$GPVTG,29.48,T,,M,10.13,N,18.8,K,A*38
$GPGGA,055435.213,4704.4301,N,00815.4455,E,1,06,2.0,570.3,M,,,,0000*05
$GPGLL,4704.4301,N,00815.4455,E,055435.213,A,A*56
$GPGSA,A,3,20,13,23,04,02,16,,,,,,,2.8,2.0,1.9*32
$GPGSV,2,1,08,13,85,332,34,04,58,264,43,23,57,055,40,25,45,164,45*75
$GPGSV,2,2,08,02,31,307,39,20,29,107,29,27,29,179,40,16,08,062,22*75
$GPRMC,055435.213,A,4704.4301,N,00815.4455,E,10.13,29.57,150807,,,A*60
$GPVTG,29.57,T,,M,10.13,N,18.8,K,A*36
$GPGGA,055436.213,4704.4325,N,00815.4476,E,1,06,2.0,569.9,M,,,,0000*03
$GPGLL,4704.4325,N,00815.4476,E,055436.213,A,A*52
$GPRMC,055436.213,A,4704.4325,N,00815.4476,E,10.16,31.68,150807,,,A*64
$GPVTG,31.68,T,,M,10.16,N,18.8,K,A*36
$GPGGA,055437.213,4704.4350,N,00815.4497,E,1,06,2.0,569.5,M,,,,0000*03
$GPGLL,4704.4350,N,00815.4497,E,055437.213,A,A*5E
$GPRMC,055437.213,A,4704.4350,N,00815.4497,E,10.64,32.87,150807,,,A*6F
$GPVTG,32.87,T,,M,10.64,N,19.7,K,A*3F
$GPGGA,055438.213,4704.4375,N,00815.4518,E,1,06,2.0,569.3,M,,,,0000*0B
$GPGLL,4704.4375,N,00815.4518,E,055438.213,A,A*50
$GPRMC,055438.213,A,4704.4375,N,00815.4518,E,10.99,31.96,150807,,,A*60
$GPVTG,31.96,T,,M,10.99,N,20.4,K,A*37
$GPGGA,055439.213,4704.4400,N,00815.4540,E,1,06,2.0,569.4,M,,,,0000*05
$GPGLL,4704.4400,N,00815.4540,E,055439.213,A,A*59
$GPGSA,A,3,20,13,23,04,02,16,,,,,,,2.8,2.0,1.9*32
$GPGSV,2,1,08,13,85,332,35,04,58,264,42,23,57,055,41,25,45,164,40*71
$GPGSV,2,2,08,02,31,307,36,20,29,107,35,27,29,179,37,16,08,062,30*74
$GPRMC,055439.213,A,4704.4400,N,00815.4540,E,11.16,31.75,150807,,,A*62
$GPVTG,31.75,T,,M,11.16,N,20.7,K,A*3F
$GPGGA,055440.213,4704.4425,N,00815.4560,E,1,06,2.0,569.7,M,,,,0000*0D
$GPGLL,4704.4425,N,00815.4560,E,055440.213,A,A*52
$GPRMC,055440.213,A,4704.4425,N,00815.4560,E,10.54,35.86,150807,,,A*66
$GPVTG,35.86,T,,M,10.54,N,19.5,K,A*38
$GPGGA,055441.213,4704.4448,N,00815.4582,E,1,06,2.0,570.2,M,,,,0000*06
$GPGLL,4704.4448,N,00815.4582,E,055441.213,A,A*54
$GPRMC,055441.213,A,4704.4448,N,00815.4582,E,10.81,35.09,150807,,,A*6F
$GPVTG,35.09,T,,M,10.81,N,20.0,K,A*38
$GPGGA,055442.213,4704.4470,N,00815.4605,E,1,06,2.0,570.6,M,,,,0000*06
$GPGLL,4704.4470,N,00815.4605,E,055442.213,A,A*50
$GPRMC,055442.213,A,4704.4470,N,00815.4605,E,9.58,40.68,150807,,,A*52
$GPVTG,40.68,T,,M,9.58,N,17.7,K,A*02
$GPGGA,055443.213,4704.4487,N,00815.4631,E,1,06,2.0,571.0,M,,,,0000*0F
$GPGLL,4704.4487,N,00815.4631,E,055443.213,A,A*5E
$GPGSA,A,3,20,13,23,04,02,16,,,,,,,2.8,2.0,1.9*32
$GPGSV,2,1,08,13,85,332,35,04,58,264,44,23,57,055,40,25,45,164,39*78
$GPGSV,2,2,08,02,31,307,42,20,29,107,31,27,29,179,34,16,08,062,24*75
$GPRMC,055443.213,A,4704.4487,N,00815.4631,E,9.38,51.47,150807,,,A*57
$GPVTG,51.47,T,,M,9.38,N,17.4,K,A*0A
$GPGGA,055444.213,4704.4498,N,00815.4661,E,1,06,2.0,571.5,M,,,,0000*06
$GPGLL,4704.4498,N,00815.4661,E,055444.213,A,A*52
$GPRMC,055444.213,A,4704.4498,N,00815.4661,E,8.72,67.40,150807,,,A*56
$GPVTG,67.40,T,,M,8.72,N,16.1,K,A*03
$GPGGA,055445.213,4704.4499,N,00815.4692,E,1,06,2.0,571.8,M,,,,0000*07
$GPGLL,4704.4499,N,00815.4692,E,055445.213,A,A*5E
$GPRMC,055445.213,A,4704.4499,N,00815.4692,E,8.28,91.84,150807,,,A*54
$GPVTG,91.84,T,,M,8.28,N,15.3,K,A*0C
$GPGGA,055446.213,4704.4486,N,00815.4730,E,1,06,2.0,571.1,M,,,,0000*0A
$GPGLL,4704.4486,N,00815.4730,E,055446.213,A,A*5A
$GPRMC,055446.213,A,4704.4486,N,00815.4730,E,10.64,115.57,150807,,,A*52
$GPVTG,115.57,T,,M,10.64,N,19.7,K,A*06
$GPGGA,055447.213,4704.4467,N,00815.4772,E,1,06,2.0,569.8,M,,,,0000*02
$GPGLL,4704.4467,N,00815.4772,E,055447.213,A,A*52
$GPGSA,A,3,20,13,23,04,02,16,,,,,,,2.8,2.0,1.9*32
$GPGSV,2,1,08,13,85,332,36,04,58,264,45,23,57,055,39,25,45,164,41*7B
$GPGSV,2,2,08,02,31,307,45,20,29,107,34,27,29,179,32,16,08,062,25*70
$GPRMC,055447.213,A,4704.4467,N,00815.4772,E,11.45,119.23,150807,,,A*57
$GPVTG,119.23,T,,M,11.45,N,21.2,K,A*05
$GPGGA,055448.213,4704.4446,N,00815.4815,E,1,06,2.0,568.8,M,,,,0000*01
$GPGLL,4704.4446,N,00815.4815,E,055448.213,A,A*50
$GPRMC,055448.213,A,4704.4446,N,00815.4815,E,11.93,121.37,150807,,,A*50
$GPVTG,121.37,T,,M,11.93,N,22.1,K,A*00
$GPGGA,055449.213,4704.4424,N,00815.4858,E,1,06,2.0,568.1,M,,,,0000*04
$GPGLL,4704.4424,N,00815.4858,E,055449.213,A,A*5C
$GPRMC,055449.213,A,4704.4424,N,00815.4858,E,12.84,123.97,150807,,,A*51
$GPVTG,123.97,T,,M,12.84,N,23.8,K,A*05
$GPGGA,055450.212,4704.4400,N,00815.4902,E,1,06,2.0,567.5,M,,,,0000*0E
$GPGLL,4704.4400,N,00815.4902,E,055450.212,A,A*5D
$GPRMC,055450.212,A,4704.4400,N,00815.4902,E,13.05,125.06,150807,,,A*56
$GPVTG,125.06,T,,M,13.05,N,24.2,K,A*0E
$GPGGA,055451.212,4704.4377,N,00815.4946,E,1,06,2.0,566.4,M,,,,0000*08
$GPGLL,4704.4377,N,00815.4946,E,055451.212,A,A*5B
$GPGSA,A,3,20,13,23,04,02,16,,,,,,,2.8,2.0,1.9*32
$GPGSV,2,1,08,13,85,332,36,04,58,264,44,23,57,055,40,25,45,164,40*75
$GPGSV,2,2,08,02,31,307,45,20,29,107,35,27,29,179,23,16,08,062,27*73
$GPRMC,055451.212,A,4704.4377,N,00815.4946,E,13.20,123.06,150807,,,A*51
$GPVTG,123.06,T,,M,13.20,N,24.4,K,A*09
$GPGGA,055452.212,4704.4354,N,00815.4994,E,1,06,2.0,565.5,M,,,,0000*07
$GPGLL,4704.4354,N,00815.4994,E,055452.212,A,A*56
$GPRMC,055452.212,A,4704.4354,N,00815.4994,E,14.24,120.72,150807,,,A*5F
$GPVTG,120.72,T,,M,14.24,N,26.4,K,A*08
$GPGGA,055453.212,4704.4332,N,00815.5042,E,1,06,2.0,564.9,M,,,,0000*08
$GPGLL,4704.4332,N,00815.5042,E,055453.212,A,A*54
$GPRMC,055453.212,A,4704.4332,N,00815.5042,E,14.26,121.83,150807,,,A*50
$GPVTG,121.83,T,,M,14.26,N,26.4,K,A*05
$GPGGA,055454.212,4704.4308,N,00815.5090,E,1,06,2.0,563.9,M,,,,0000*0E
$GPGLL,4704.4308,N,00815.5090,E,055454.212,A,A*55
$GPRMC,055454.212,A,4704.4308,N,00815.5090,E,15.07,123.48,150807,,,A*56
$GPVTG,123.48,T,,M,15.07,N,27.9,K,A*0E
$GPGGA,055455.212,4704.4283,N,00815.5139,E,1,06,2.0,563.0,M,,,,0000*06
$GPGLL,4704.4283,N,00815.5139,E,055455.212,A,A*54
$GPGSA,A,3,20,13,23,04,02,16,,,,,,,2.8,2.0,1.9*32
$GPGSV,2,1,08,13,85,332,37,04,58,264,45,23,57,055,40,25,45,164,38*7A
$GPGSV,2,2,08,02,31,307,45,20,29,107,35,27,29,179,20,16,08,062,23*74
$GPRMC,055455.212,A,4704.4283,N,00815.5139,E,15.12,123.23,150807,,,A*5E
$GPVTG,123.23,T,,M,15.12,N,28.0,K,A*01
$GPGGA,055456.212,4704.4259,N,00815.5188,E,1,06,2.0,562.5,M,,,,0000*0C
$GPGLL,4704.4259,N,00815.5188,E,055456.212,A,A*5A
$GPRMC,055456.212,A,4704.4259,N,00815.5188,E,15.38,122.74,150807,,,A*5B
$GPVTG,122.74,T,,M,15.38,N,28.5,K,A*0F
$GPGGA,055457.212,4704.4234,N,00815.5238,E,1,06,2.0,562.3,M,,,,0000*08
$GPGLL,4704.4234,N,00815.5238,E,055457.212,A,A*58
$GPRMC,055457.212,A,4704.4234,N,00815.5238,E,15.55,125.00,150807,,,A*56
$GPVTG,125.00,T,,M,15.55,N,28.8,K,A*0D
$GPGGA,055458.212,4704.4207,N,00815.5287,E,1,06,2.0,561.9,M,,,,0000*0A
$GPGLL,4704.4207,N,00815.5287,E,055458.212,A,A*53
$GPRMC,055458.212,A,4704.4207,N,00815.5287,E,15.61,127.21,150807,,,A*5B
$GPVTG,127.21,T,,M,15.61,N,28.9,K,A*0A
$GPGGA,055459.212,4704.4178,N,00815.5338,E,1,06,2.0,561.2,M,,,,0000*0E
$GPGLL,4704.4178,N,00815.5338,E,055459.212,A,A*5C
$GPGSA,A,3,20,13,23,04,02,16,,,,,,,2.7,2.0,1.9*3D
$GPGSV,2,1,08,13,85,332,36,04,58,264,44,23,57,055,40,25,45,164,40*75
$GPGSV,2,2,08,02,31,307,45,20,29,107,31,27,29,179,36,16,08,062,25*71
$GPRMC,055459.212,A,4704.4178,N,00815.5338,E,15.92,130.83,150807,,,A*56
$GPVTG,130.83,T,,M,15.92,N,29.5,K,A*05
$GPGGA,055500.212,4704.4148,N,00815.5388,E,1,06,2.0,560.5,M,,,,0000*0D
$GPGLL,4704.4148,N,00815.5388,E,055500.212,A,A*59
$GPRMC,055500.212,A,4704.4148,N,00815.5388,E,16.27,133.24,150807,,,A*50
$GPVTG,133.24,T,,M,16.27,N,30.1,K,A*0A
$GPGGA,055501.212,4704.4115,N,00815.5438,E,1,06,2.0,559.7,M,,,,0000*00
$GPGLL,4704.4115,N,00815.5438,E,055501.212,A,A*5C
$GPRMC,055501.212,A,4704.4115,N,00815.5438,E,16.40,136.09,150807,,,A*5E
$GPVTG,136.09,T,,M,16.40,N,30.4,K,A*04
$GPGGA,055502.212,4704.4082,N,00815.5483,E,1,06,2.0,558.9,M,,,,0000*03
$GPGLL,4704.4082,N,00815.5483,E,055502.212,A,A*50
$GPRMC,055502.212,A,4704.4082,N,00815.5483,E,15.92,140.82,150807,,,A*5C
$GPVTG,140.82,T,,M,15.92,N,29.5,K,A*03
$GPGGA,055503.212,4704.4046,N,00815.5525,E,1,06,2.0,558.7,M,,,,0000*09
$GPGLL,4704.4046,N,00815.5525,E,055503.212,A,A*54
$GPGSA,A,3,20,13,23,04,02,16,,,,,,,2.7,2.0,1.9*3D
$GPGSV,2,1,08,13,85,332,36,04,58,264,43,23,57,055,41,25,45,164,40*73
$GPGSV,2,2,08,02,31,307,42,20,29,107,34,27,29,179,32,16,08,062,22*70
$GPRMC,055503.212,A,4704.4046,N,00815.5525,E,16.33,144.04,150807,,,A*5A
$GPVTG,144.04,T,,M,16.33,N,30.2,K,A*0E
$GPGGA,055504.212,4704.4008,N,00815.5562,E,1,06,2.0,558.6,M,,,,0000*06
$GPGLL,4704.4008,N,00815.5562,E,055504.212,A,A*5A
$GPRMC,055504.212,A,4704.4008,N,00815.5562,E,16.08,147.47,150807,,,A*58
$GPVTG,147.47,T,,M,16.08,N,29.8,K,A*00
$GPGGA,055505.212,4704.3965,N,00815.5597,E,1,07,1.4,557.6,M,,,,0000*01
$GPGLL,4704.3965,N,00815.5597,E,055505.212,A,A*54
$GPRMC,055505.212,A,4704.3965,N,00815.5597,E,16.21,151.45,150807,,,A*58
$GPVTG,151.45,T,,M,16.21,N,30.0,K,A*0E
$GPGGA,055506.211,4704.3921,N,00815.5628,E,1,07,1.4,557.2,M,,,,0000*02
$GPGLL,4704.3921,N,00815.5628,E,055506.211,A,A*53
$GPRMC,055506.211,A,4704.3921,N,00815.5628,E,15.86,153.93,150807,,,A*58
$GPVTG,153.93,T,,M,15.86,N,29.4,K,A*05
$GPGGA,055507.211,4704.3879,N,00815.5653,E,1,07,1.4,557.1,M,,,,0000*00
$GPGLL,4704.3879,N,00815.5653,E,055507.211,A,A*52
$GPGSA,A,3,20,13,23,04,25,02,16,,,,,,2.2,1.4,1.8*39
$GPGSV,2,1,08,13,85,332,35,04,58,264,42,23,57,055,40,25,45,164,37*70
$GPGSV,2,2,08,02,31,307,43,20,29,107,37,27,29,179,36,16,08,062,24*70
$GPRMC,055507.211,A,4704.3879,N,00815.5653,E,14.29,156.60,150807,,,A*54
$GPVTG,156.60,T,,M,14.29,N,26.5,K,A*06
$GPGGA,055508.211,4704.3843,N,00815.5673,E,1,07,1.4,557.4,M,,,,0000*01
$GPGLL,4704.3843,N,00815.5673,E,055508.211,A,A*56
$GPRMC,055508.211,A,4704.3843,N,00815.5673,E,12.37,159.04,150807,,,A*54
$GPVTG,159.04,T,,M,12.37,N,22.9,K,A*0A
$GPGGA,055509.211,4704.3814,N,00815.5687,E,1,07,1.4,558.0,M,,,,0000*02
$GPGLL,4704.3814,N,00815.5687,E,055509.211,A,A*5E
$GPRMC,055509.211,A,4704.3814,N,00815.5687,E,9.17,159.59,150807,,,A*6C
$GPVTG,159.59,T,,M,9.17,N,17.0,K,A*35
$GPGGA,055510.211,4704.3795,N,00815.5697,E,1,07,1.4,558.2,M,,,,0000*0F
$GPGLL,4704.3795,N,00815.5697,E,055510.211,A,A*51
$GPRMC,055510.211,A,4704.3795,N,00815.5697,E,5.97,151.97,150807,,,A*6D
$GPVTG,151.97,T,,M,5.97,N,11.1,K,A*3C
$GPGGA,055511.211,4704.3785,N,00815.5710,E,1,07,1.4,558.6,M,,,,0000*05
$GPGLL,4704.3785,N,00815.5710,E,055511.211,A,A*5F
$GPGSA,A,3,20,13,23,04,25,02,16,,,,,,2.2,1.4,1.8*39
$GPGSV,2,1,08,13,85,332,37,04,58,264,45,23,57,055,39,25,45,164,43*78
$GPGSV,2,2,08,02,31,307,44,20,29,107,35,27,29,179,41,16,08,062,30*70
$GPRMC,055511.211,A,4704.3785,N,00815.5710,E,4.80,119.48,150807,,,A*6A
$GPVTG,119.48,T,,M,4.80,N,8.9,K,A*05
$GPGGA,055512.211,4704.3785,N,00815.5729,E,1,07,1.4,558.7,M,,,,0000*0D
$GPGLL,4704.3785,N,00815.5729,E,055512.211,A,A*56
$GPRMC,055512.211,A,4704.3785,N,00815.5729,E,5.84,81.94,150807,,,A*57
$GPVTG,81.94,T,,M,5.84,N,10.8,K,A*09
$GPGGA,055513.211,4704.3792,N,00815.5753,E,1,07,1.4,558.4,M,,,,0000*04
$GPGLL,4704.3792,N,00815.5753,E,055513.211,A,A*5C
$GPRMC,055513.211,A,4704.3792,N,00815.5753,E,6.99,64.62,150807,,,A*50
$GPVTG,64.62,T,,M,6.99,N,12.9,K,A*07
$GPGGA,055514.211,4704.3803,N,00815.5780,E,1,07,1.4,558.0,M,,,,0000*0E
$GPGLL,4704.3803,N,00815.5780,E,055514.211,A,A*52
$GPRMC,055514.211,A,4704.3803,N,00815.5780,E,7.99,64.13,150807,,,A*59
$GPVTG,64.13,T,,M,7.99,N,14.8,K,A*07
$GPGGA,055515.211,4704.3815,N,00815.5812,E,1,07,1.4,557.6,M,,,,0000*05
$GPGLL,4704.3815,N,00815.5812,E,055515.211,A,A*50
$GPGSA,A,3,20,13,23,04,25,02,16,,,,,,2.2,1.4,1.8*39
$GPGSV,2,1,08,13,85,332,34,04,58,264,45,23,57,055,40,25,45,164,42*74
$GPGSV,2,2,08,02,31,307,41,20,29,107,41,27,29,179,39,16,08,062,22*7A
$GPRMC,055515.211,A,4704.3815,N,00815.5812,E,8.87,62.69,150807,,,A*50
$GPVTG,62.69,T,,M,8.87,N,16.4,K,A*02
$GPGGA,055516.211,4704.3828,N,00815.5846,E,1,07,1.4,557.4,M,,,,0000*0B
$GPGLL,4704.3828,N,00815.5846,E,055516.211,A,A*5C
$GPRMC,055516.211,A,4704.3828,N,00815.5846,E,9.47,63.76,150807,,,A*5E
$GPVTG,63.76,T,,M,9.47,N,17.5,K,A*00
$GPGGA,055517.211,4704.3842,N,00815.5884,E,1,07,1.4,557.5,M,,,,0000*09
$GPGLL,4704.3842,N,00815.5884,E,055517.211,A,A*5F
$GPRMC,055517.211,A,4704.3842,N,00815.5884,E,9.95,61.34,150807,,,A*56
$GPVTG,61.34,T,,M,9.95,N,18.4,K,A*05
$GPGGA,055518.211,4704.3856,N,00815.5922,E,1,07,1.4,557.7,M,,,,0000*0C
$GPGLL,4704.3856,N,00815.5922,E,055518.211,A,A*58
$GPRMC,055518.211,A,4704.3856,N,00815.5922,E,10.83,60.18,150807,,,A*61
$GPVTG,60.18,T,,M,10.83,N,20.1,K,A*3B
$GPGGA,055519.211,4704.3871,N,00815.5959,E,1,07,1.4,558.2,M,,,,0000*0E
$GPGLL,4704.3871,N,00815.5959,E,055519.211,A,A*50
$GPGSA,A,3,20,13,23,04,25,02,16,,,,,,2.2,1.4,1.8*39
$GPGSV,2,1,08,13,85,338,36,04,58,263,44,23,57,055,39,25,46,164,41*74
$GPGSV,2,2,08,02,32,307,38,27,29,179,39,20,29,107,29,16,08,062,28*73
$GPRMC,055519.211,A,4704.3871,N,00815.5959,E,10.40,61.45,150807,,,A*6F
$GPVTG,61.45,T,,M,10.40,N,19.3,K,A*35
$GPGGA,055520.211,4704.3883,N,00815.5998,E,1,07,1.4,558.6,M,,,,0000*00
$GPGLL,4704.3883,N,00815.5998,E,055520.211,A,A*5A
$GPRMC,055520.211,A,4704.3883,N,00815.5998,E,11.18,68.21,150807,,,A*62
$GPVTG,68.21,T,,M,11.18,N,20.7,K,A*3C
$GPGGA,055521.211,4704.3892,N,00815.6040,E,1,07,1.4,559.1,M,,,,0000*08
$GPGLL,4704.3892,N,00815.6040,E,055521.211,A,A*54
$GPRMC,055521.211,A,4704.3892,N,00815.6040,E,11.51,74.87,150807,,,A*60
$GPVTG,74.87,T,,M,11.51,N,21.3,K,A*35
$GPGGA,055522.210,4704.3901,N,00815.6085,E,1,06,1.5,559.7,M,,,,0000*0E
$GPGLL,4704.3901,N,00815.6085,E,055522.210,A,A*54
$GPRMC,055522.210,A,4704.3901,N,00815.6085,E,11.85,72.50,150807,,,A*65
$GPVTG,72.50,T,,M,11.85,N,21.9,K,A*3A
$GPGGA,055523.210,4704.3912,N,00815.6132,E,1,06,1.5,560.1,M,,,,0000*0C
$GPGLL,4704.3912,N,00815.6132,E,055523.210,A,A*5A
$GPGSA,A,3,20,13,23,04,25,02,,,,,,,2.7,1.5,2.3*32
$GPGSV,2,1,08,13,85,338,37,04,58,263,45,23,57,055,38,25,46,164,39*7A
$GPGSV,2,2,08,02,32,307,45,27,29,179,40,20,29,107,31,16,08,062,24*72
$GPRMC,055523.210,A,4704.3912,N,00815.6132,E,13.00,69.05,150807,,,A*6E
$GPVTG,69.05,T,,M,13.00,N,24.1,K,A*32
$GPGGA,055524.210,4704.3926,N,00815.6184,E,1,06,1.5,560.5,M,,,,0000*05
$GPGLL,4704.3926,N,00815.6184,E,055524.210,A,A*57
$GPRMC,055524.210,A,4704.3926,N,00815.6184,E,13.37,66.33,150807,,,A*6D
$GPVTG,66.33,T,,M,13.37,N,24.8,K,A*35
$GPGGA,055525.210,4704.3941,N,00815.6241,E,1,06,1.5,560.4,M,,,,0000*0E
$GPGLL,4704.3941,N,00815.6241,E,055525.210,A,A*5D
$GPRMC,055525.210,A,4704.3941,N,00815.6241,E,14.34,65.54,150807,,,A*61
$GPVTG,65.54,T,,M,14.34,N,26.6,K,A*3F
$GPGGA,055526.210,4704.3957,N,00815.6299,E,1,07,1.4,559.7,M,,,,0000*06
$GPGLL,4704.3957,N,00815.6299,E,055526.210,A,A*5C
$GPRMC,055526.210,A,4704.3957,N,00815.6299,E,14.84,64.99,150807,,,A*6B
$GPVTG,64.99,T,,M,14.84,N,27.5,K,A*36
$GPGGA,055527.210,4704.3976,N,00815.6358,E,1,07,1.4,558.6,M,,,,0000*08
$GPGLL,4704.3976,N,00815.6358,E,055527.210,A,A*52
$GPGSA,A,3,20,13,23,04,25,02,16,,,,,,2.2,1.4,1.8*39
$GPGSV,2,1,08,13,85,338,32,04,58,263,43,23,57,055,36,25,46,164,41*78
$GPGSV,2,2,08,02,32,307,41,27,29,179,28,20,29,107,37,16,08,062,20*7A
$GPRMC,055527.210,A,4704.3976,N,00815.6358,E,15.76,61.18,150807,,,A*65
$GPVTG,61.18,T,,M,15.76,N,29.2,K,A*3F
$GPGGA,055528.210,4704.3995,N,00815.6417,E,1,07,1.4,557.3,M,,,,0000*0C
$GPGLL,4704.3995,N,00815.6417,E,055528.210,A,A*5C
$GPRMC,055528.210,A,4704.3995,N,00815.6417,E,15.99,62.27,150807,,,A*65
$GPVTG,62.27,T,,M,15.99,N,29.6,K,A*35
$GPGGA,055529.210,4704.4016,N,00815.6475,E,1,07,1.4,556.1,M,,,,0000*0F
$GPGLL,4704.4016,N,00815.6475,E,055529.210,A,A*5C
$GPRMC,055529.210,A,4704.4016,N,00815.6475,E,16.34,61.28,150807,,,A*6D
$GPVTG,61.28,T,,M,16.34,N,30.3,K,A*30
$GPGGA,055530.210,4704.4036,N,00815.6535,E,1,07,1.4,554.9,M,,,,0000*0A
$GPGLL,4704.4036,N,00815.6535,E,055530.210,A,A*53
$GPRMC,055530.210,A,4704.4036,N,00815.6535,E,15.85,63.57,150807,,,A*61
$GPVTG,63.57,T,,M,15.85,N,29.4,K,A*3C
$GPGGA,055531.210,4704.4056,N,00815.6595,E,1,07,1.4,553.9,M,,,,0000*00
$GPGLL,4704.4056,N,00815.6595,E,055531.210,A,A*5E
$GPGSA,A,3,20,13,23,04,25,02,16,,,,,,2.2,1.4,1.8*39
$GPGSV,2,1,08,13,85,338,34,04,58,263,45,23,57,055,40,25,46,164,40*78
$GPGSV,2,2,08,02,32,307,44,27,29,179,42,20,29,107,22,16,08,062,28*7F
$GPRMC,055531.210,A,4704.4056,N,00815.6595,E,16.54,62.57,150807,,,A*62
$GPVTG,62.57,T,,M,16.54,N,30.6,K,A*38
$GPGGA,055532.210,4704.4076,N,00815.6656,E,1,07,1.4,553.7,M,,,,0000*03
$GPGLL,4704.4076,N,00815.6656,E,055532.210,A,A*53
$GPRMC,055532.210,A,4704.4076,N,00815.6656,E,16.14,62.65,150807,,,A*6A
$GPVTG,62.65,T,,M,16.14,N,29.9,K,A*3A
$GPGGA,055533.210,4704.4096,N,00815.6716,E,1,07,1.4,553.8,M,,,,0000*06
$GPGLL,4704.4096,N,00815.6716,E,055533.210,A,A*59
$GPRMC,055533.210,A,4704.4096,N,00815.6716,E,16.39,60.80,150807,,,A*66
$GPVTG,60.80,T,,M,16.39,N,30.4,K,A*39
$GPGGA,055534.210,4704.4117,N,00815.6776,E,1,07,1.4,553.9,M,,,,0000*0E
$GPGLL,4704.4117,N,00815.6776,E,055534.210,A,A*50
$GPRMC,055534.210,A,4704.4117,N,00815.6776,E,16.13,62.06,150807,,,A*6B
$GPVTG,62.06,T,,M,16.13,N,29.9,K,A*38
$GPGGA,055535.210,4704.4137,N,00815.6834,E,1,07,1.4,554.3,M,,,,0000*09
$GPGLL,4704.4137,N,00815.6834,E,055535.210,A,A*5A
$GPGSA,A,3,20,13,23,04,25,02,16,,,,,,2.3,1.4,1.8*38
$GPGSV,2,1,08,13,85,338,33,04,58,263,45,23,57,055,40,25,46,164,31*79
$GPGSV,2,2,08,02,32,307,42,27,29,179,19,20,29,107,42,16,08,062,30*78
$GPRMC,055535.210,A,4704.4137,N,00815.6834,E,15.88,61.89,150807,,,A*64
$GPVTG,61.89,T,,M,15.88,N,29.4,K,A*30
$GPGGA,055536.210,4704.4158,N,00815.6890,E,1,07,1.4,555.0,M,,,,0000*0F
$GPGLL,4704.4158,N,00815.6890,E,055536.210,A,A*5E
$GPRMC,055536.210,A,4704.4158,N,00815.6890,E,15.66,63.72,150807,,,A*66
$GPVTG,63.72,T,,M,15.66,N,29.0,K,A*32
$GPGGA,055537.210,4704.4178,N,00815.6945,E,1,07,1.4,555.2,M,,,,0000*07
$GPGLL,4704.4178,N,00815.6945,E,055537.210,A,A*54
$GPRMC,055537.210,A,4704.4178,N,00815.6945,E,15.49,62.93,150807,,,A*6F
$GPVTG,62.93,T,,M,15.49,N,28.7,K,A*37
$GPGGA,055538.210,4704.4198,N,00815.7000,E,1,07,1.4,555.1,M,,,,0000*0C
$GPGLL,4704.4198,N,00815.7000,E,055538.210,A,A*5C
$GPRMC,055538.210,A,4704.4198,N,00815.7000,E,15.11,61.78,150807,,,A*6C
$GPVTG,61.78,T,,M,15.11,N,28.0,K,A*3B
$GPGGA,055539.209,4704.4219,N,00815.7055,E,1,07,1.4,555.1,M,,,,0000*0F
$GPGLL,4704.4219,N,00815.7055,E,055539.209,A,A*5F
$GPGSA,A,3,20,13,23,04,25,02,16,,,,,,2.3,1.4,1.8*38
$GPGSV,2,1,08,13,85,338,34,04,58,263,46,23,57,055,40,25,46,164,43*78
$GPGSV,2,2,08,02,32,307,42,27,29,179,43,20,29,107,43,16,08,062,25*72
$GPRMC,055539.209,A,4704.4219,N,00815.7055,E,15.02,60.11,150807,,,A*63
$GPVTG,60.11,T,,M,15.02,N,27.8,K,A*30
$GPGGA,055540.209,4704.4240,N,00815.7110,E,1,07,1.4,555.3,M,,,,0000*0F
$GPGLL,4704.4240,N,00815.7110,E,055540.209,A,A*5D
$GPRMC,055540.209,A,4704.4240,N,00815.7110,E,14.80,60.94,150807,,,A*67
$GPVTG,60.94,T,,M,14.80,N,27.4,K,A*3A
$GPGGA,055541.209,4704.4262,N,00815.7162,E,1,07,1.4,555.2,M,,,,0000*0A
$GPGLL,4704.4262,N,00815.7162,E,055541.209,A,A*59
$GPRMC,055541.209,A,4704.4262,N,00815.7162,E,15.12,53.40,150807,,,A*60
$GPVTG,53.40,T,,M,15.12,N,28.0,K,A*32
$GPGGA,055542.209,4704.4289,N,00815.7209,E,1,07,1.4,555.1,M,,,,0000*01
$GPGLL,4704.4289,N,00815.7209,E,055542.209,A,A*51
$GPRMC,055542.209,A,4704.4289,N,00815.7209,E,14.37,49.64,150807,,,A*63
$GPVTG,49.64,T,,M,14.37,N,26.6,K,A*31
$GPGGA,055543.209,4704.4316,N,00815.7251,E,1,07,1.4,554.9,M,,,,0000*03
$GPGLL,4704.4316,N,00815.7251,E,055543.209,A,A*5A
$GPGSA,A,3,20,13,23,04,25,02,16,,,,,,2.3,1.4,1.8*38
$GPGSV,2,1,08,13,85,340,34,04,58,263,44,23,57,055,39,25,46,164,42*7A
$GPGSV,2,2,08,02,32,307,42,27,29,179,39,20,29,107,41,16,08,062,27*7F
$GPRMC,055543.209,A,4704.4316,N,00815.7251,E,14.11,46.90,150807,,,A*68
