$PTOM101,PocketPC,hp iPAQ h2200,2577,4.20*45
$PTOM102,GPS Engine,408,TomTom Wireless GPS,Bluetooth Serial Port COM8:*B
$PTOM103,070805,063346.000,070805,083346.000*3A
$PTOM104,\My Documents\GPS Log\GPS20070805083346-busy.pgl*8
$GPGGA,063614.223,4709.8163,N,00831.0161,E,1,07,1.2,510.3,M,,,,0000*03
$GPGLL,4709.8163,N,00831.0161,E,063614.223,A,A*56
$GPGSA,A,3,04,13,23,25,02,20,27,,,,,,2.4,1.2,2.1*31
$GPGSV,2,1,08,13,85,325,41,04,58,265,37,23,57,055,43,25,46,164,44*72
$GPGSV,2,2,08,02,31,307,33,20,29,107,41,27,29,180,43,16,08,062,*74
$GPRMC,063614.223,A,4709.8163,N,00831.0161,E,0.00,,050807,,,A*75
$GPVTG,,T,,M,0.00,N,0.0,K,A*13
$GPGGA,063615.223,4709.8162,N,00831.0161,E,1,07,1.2,510.4,M,,,,0000*04
$GPGLL,4709.8162,N,00831.0161,E,063615.223,A,A*56
$GPRMC,063615.223,A,4709.8162,N,00831.0161,E,0.00,,050807,,,A*75
$GPVTG,,T,,M,0.00,N,0.0,K,A*13
$GPGGA,063616.223,4709.8162,N,00831.0161,E,1,07,1.2,510.5,M,,,,0000*06
$GPGLL,4709.8162,N,00831.0161,E,063616.223,A,A*55
$GPRMC,063616.223,A,4709.8162,N,00831.0161,E,0.00,,050807,,,A*76
$GPVTG,,T,,M,0.00,N,0.0,K,A*13
$GPGGA,063617.223,4709.8161,N,00831.0162,E,1,07,1.2,510.6,M,,,,0000*04
$GPGLL,4709.8161,N,00831.0162,E,063617.223,A,A*54
$GPRMC,063617.223,A,4709.8161,N,00831.0162,E,0.00,,050807,,,A*77
$GPVTG,,T,,M,0.00,N,0.0,K,A*13
$GPGGA,063618.223,4709.8161,N,00831.0162,E,1,07,1.2,510.7,M,,,,0000*0A
$GPGLL,4709.8161,N,00831.0162,E,063618.223,A,A*5B
$GPGSA,A,3,04,13,23,25,02,20,27,,,,,,2.4,1.2,2.1*31
$GPGSV,2,1,08,13,85,329,36,04,58,264,31,23,57,056,38,25,46,164,32*77
$GPGSV,2,2,08,02,31,307,31,27,29,180,30,20,29,107,36,16,08,062,*72
$GPRMC,063618.223,A,4709.8161,N,00831.0162,E,0.00,,050807,,,A*78
$GPVTG,,T,,M,0.00,N,0.0,K,A*13
$GPGGA,063619.223,4709.8161,N,00831.0162,E,1,07,1.2,510.7,M,,,,0000*0B
$GPGLL,4709.8161,N,00831.0162,E,063619.223,A,A*5A
$GPRMC,063619.223,A,4709.8161,N,00831.0162,E,0.00,,050807,,,A*79
$GPVTG,,T,,M,0.00,N,0.0,K,A*13
$GPGGA,063620.223,4709.8161,N,00831.0162,E,1,07,1.2,510.7,M,,,,0000*01
$GPGLL,4709.8161,N,00831.0162,E,063620.223,A,A*50
$GPRMC,063620.223,A,4709.8161,N,00831.0162,E,0.00,,050807,,,A*73
$GPVTG,,T,,M,0.00,N,0.0,K,A*13
$GPGGA,063621.223,4709.8161,N,00831.0162,E,1,07,1.2,510.7,M,,,,0000*00
$GPGLL,4709.8161,N,00831.0162,E,063621.223,A,A*51
$GPRMC,063621.223,A,4709.8161,N,00831.0162,E,0.00,,050807,,,A*72
$GPVTG,,T,,M,0.00,N,0.0,K,A*13
$GPGGA,063622.223,4709.8161,N,00831.0162,E,1,07,1.2,510.8,M,,,,0000*0C
$GPGLL,4709.8161,N,00831.0162,E,063622.223,A,A*52
$GPGSA,A,3,04,13,23,25,02,20,27,,,,,,2.4,1.2,2.1*31
$GPGSV,2,1,08,13,85,329,36,04,58,264,37,23,57,056,39,25,46,164,32*70
$GPGSV,2,2,08,02,31,307,28,27,29,180,27,20,29,107,36,16,08,062,*7C
$GPRMC,063622.223,A,4709.8161,N,00831.0162,E,0.00,,050807,,,A*71
$GPVTG,,T,,M,0.00,N,0.0,K,A*13
$GPGGA,063623.223,4709.8160,N,00831.0162,E,1,07,1.2,510.8,M,,,,0000*0C
$GPGLL,4709.8160,N,00831.0162,E,063623.223,A,A*52
$GPRMC,063623.223,A,4709.8160,N,00831.0162,E,0.00,,050807,,,A*71
$GPVTG,,T,,M,0.00,N,0.0,K,A*13
$GPGGA,063624.223,4709.8160,N,00831.0162,E,1,07,1.2,510.8,M,,,,0000*0B
$GPGLL,4709.8160,N,00831.0162,E,063624.223,A,A*55
$GPRMC,063624.223,A,4709.8160,N,00831.0162,E,0.00,,050807,,,A*76
$GPVTG,,T,,M,0.00,N,0.0,K,A*13
$GPGGA,063625.222,4709.8160,N,00831.0162,E,1,07,1.2,510.8,M,,,,0000*0B
$GPGLL,4709.8160,N,00831.0162,E,063625.222,A,A*55
$GPRMC,063625.222,A,4709.8160,N,00831.0162,E,0.00,,050807,,,A*76
$GPVTG,,T,,M,0.00,N,0.0,K,A*13
$GPGGA,063626.222,4709.8160,N,00831.0162,E,1,07,1.2,510.8,M,,,,0000*08
$GPGLL,4709.8160,N,00831.0162,E,063626.222,A,A*56
$GPGSA,A,3,04,13,23,25,02,20,27,,,,,,2.4,1.2,2.1*31
$GPGSV,2,1,08,13,85,329,20,04,58,264,32,23,57,056,37,25,46,164,25*7A
$GPGSV,2,2,08,02,31,307,28,27,29,180,23,20,29,107,40,16,08,062,*79
$GPRMC,063626.222,A,4709.8160,N,00831.0162,E,0.00,,050807,,,A*75
$GPVTG,,T,,M,0.00,N,0.0,K,A*13
$GPGGA,063627.222,4709.8160,N,00831.0162,E,1,07,1.2,510.8,M,,,,0000*09
$GPGLL,4709.8160,N,00831.0162,E,063627.222,A,A*57
$GPRMC,063627.222,A,4709.8160,N,00831.0162,E,0.00,,050807,,,A*74
$GPVTG,,T,,M,0.00,N,0.0,K,A*13
$GPGGA,063628.222,4709.8160,N,00831.0162,E,1,07,1.2,510.8,M,,,,0000*06
$GPGLL,4709.8160,N,00831.0162,E,063628.222,A,A*58
$GPRMC,063628.222,A,4709.8160,N,00831.0162,E,0.00,,050807,,,A*7B
$GPVTG,,T,,M,0.00,N,0.0,K,A*13
$GPGGA,063629.222,4709.8160,N,00831.0162,E,1,07,1.2,510.8,M,,,,0000*07
$GPGLL,4709.8160,N,00831.0162,E,063629.222,A,A*59
$GPRMC,063629.222,A,4709.8160,N,00831.0162,E,0.00,,050807,,,A*7A
$GPVTG,,T,,M,0.00,N,0.0,K,A*13
$GPGGA,063630.222,4709.8160,N,00831.0162,E,1,07,1.2,510.8,M,,,,0000*0F
$GPGLL,4709.8160,N,00831.0162,E,063630.222,A,A*51
$GPGSA,A,3,04,13,23,25,02,20,27,,,,,,2.4,1.2,2.1*31
$GPGSV,2,1,08,13,85,329,35,04,58,264,32,23,57,056,34,25,46,164,26*7E
$GPGSV,2,2,08,02,31,307,28,27,29,180,23,20,29,107,36,16,08,062,*78
$GPRMC,063630.222,A,4709.8160,N,00831.0162,E,0.00,,050807,,,A*72
$GPVTG,,T,,M,0.00,N,0.0,K,A*13
$GPGGA,063631.222,4709.8160,N,00831.0162,E,1,07,1.2,510.8,M,,,,0000*0E
$GPGLL,4709.8160,N,00831.0162,E,063631.222,A,A*50
$GPRMC,063631.222,A,4709.8160,N,00831.0162,E,0.00,,050807,,,A*73
$GPVTG,,T,,M,0.00,N,0.0,K,A*13
$GPGGA,063632.222,4709.8160,N,00831.0162,E,1,07,1.2,510.8,M,,,,0000*0D
$GPGLL,4709.8160,N,00831.0162,E,063632.222,A,A*53
$GPRMC,063632.222,A,4709.8160,N,00831.0162,E,0.00,,050807,,,A*70
$GPVTG,,T,,M,0.00,N,0.0,K,A*13
$GPGGA,063633.222,4709.8160,N,00831.0162,E,1,07,1.2,510.8,M,,,,0000*0C
$GPGLL,4709.8160,N,00831.0162,E,063633.222,A,A*52
$GPRMC,063633.222,A,4709.8160,N,00831.0162,E,0.00,,050807,,,A*71
$GPVTG,,T,,M,0.00,N,0.0,K,A*13
$GPGGA,063634.222,4709.8160,N,00831.0162,E,1,07,1.2,510.8,M,,,,0000*0B
$GPGLL,4709.8160,N,00831.0162,E,063634.222,A,A*55
$GPGSA,A,3,04,13,23,25,02,20,27,,,,,,2.4,1.2,2.1*31
$GPGSV,2,1,08,13,85,329,38,04,58,264,37,23,57,056,29,25,46,164,34*79
$GPGSV,2,2,08,02,31,307,27,27,29,180,28,20,29,107,35,16,08,062,*7F
$GPRMC,063634.222,A,4709.8160,N,00831.0162,E,0.00,,050807,,,A*76
$GPVTG,,T,,M,0.00,N,0.0,K,A*13
$GPGGA,063635.222,4709.8160,N,00831.0162,E,1,07,1.2,510.8,M,,,,0000*0A
$GPGLL,4709.8160,N,00831.0162,E,063635.222,A,A*54
$GPRMC,063635.222,A,4709.8160,N,00831.0162,E,0.00,,050807,,,A*77
$GPVTG,,T,,M,0.00,N,0.0,K,A*13
$GPGGA,063636.222,4709.8160,N,00831.0162,E,1,07,1.2,510.8,M,,,,0000*09
$GPGLL,4709.8160,N,00831.0162,E,063636.222,A,A*57
$GPRMC,063636.222,A,4709.8160,N,00831.0162,E,0.00,,050807,,,A*74
$GPVTG,,T,,M,0.00,N,0.0,K,A*13
$GPGGA,063637.222,4709.8160,N,00831.0162,E,1,07,1.2,510.8,M,,,,0000*08
$GPGLL,4709.8160,N,00831.0162,E,063637.222,A,A*56
$GPRMC,063637.222,A,4709.8160,N,00831.0162,E,0.00,,050807,,,A*75
$GPVTG,,T,,M,0.00,N,0.0,K,A*13
$GPGGA,063638.222,4709.8160,N,00831.0162,E,1,07,1.2,510.8,M,,,,0000*07
$GPGLL,4709.8160,N,00831.0162,E,063638.222,A,A*59
$GPGSA,A,3,04,13,23,25,02,20,27,,,,,,2.4,1.2,2.1*31
$GPGSV,2,1,08,13,85,329,28,04,58,264,28,23,57,056,37,25,46,164,38*75
$GPGSV,2,2,08,02,31,307,23,27,29,180,27,20,29,107,38,16,08,062,*79
$GPRMC,063638.222,A,4709.8160,N,00831.0162,E,0.00,,050807,,,A*7A
$GPVTG,,T,,M,0.00,N,0.0,K,A*13
$GPGGA,063639.222,4709.8160,N,00831.0162,E,1,07,1.2,510.8,M,,,,0000*06
$GPGLL,4709.8160,N,00831.0162,E,063639.222,A,A*58
$GPRMC,063639.222,A,4709.8160,N,00831.0162,E,0.00,,050807,,,A*7B
$GPVTG,,T,,M,0.00,N,0.0,K,A*13
$GPGGA,063640.222,4709.8160,N,00831.0162,E,1,07,1.2,510.8,M,,,,0000*08
$GPGLL,4709.8160,N,00831.0162,E,063640.222,A,A*56
$GPRMC,063640.222,A,4709.8160,N,00831.0162,E,0.00,,050807,,,A*75
$GPVTG,,T,,M,0.00,N,0.0,K,A*13
$GPGGA,063641.222,4709.8160,N,00831.0162,E,1,07,1.2,510.8,M,,,,0000*09
$GPGLL,4709.8160,N,00831.0162,E,063641.222,A,A*57
$GPRMC,063641.222,A,4709.8160,N,00831.0162,E,0.00,,050807,,,A*74
$GPVTG,,T,,M,0.00,N,0.0,K,A*13
$GPGGA,063642.221,4709.8160,N,00831.0162,E,1,07,1.2,510.8,M,,,,0000*09
$GPGLL,4709.8160,N,00831.0162,E,063642.221,A,A*57
$GPGSA,A,3,04,13,23,25,02,20,27,,,,,,2.4,1.2,2.1*31
$GPGSV,2,1,08,13,85,329,25,04,58,264,30,23,57,056,32,25,46,164,30*7C
$GPGSV,2,2,08,02,31,307,21,27,29,180,30,20,29,107,38,16,08,062,*7D
$GPRMC,063642.221,A,4709.8160,N,00831.0162,E,0.00,,050807,,,A*74
$GPVTG,,T,,M,0.00,N,0.0,K,A*13
$GPGGA,063643.221,4709.8160,N,00831.0162,E,1,07,1.2,510.8,M,,,,0000*08
$GPGLL,4709.8160,N,00831.0162,E,063643.221,A,A*56
$GPRMC,063643.221,A,4709.8160,N,00831.0162,E,0.00,,050807,,,A*75
$GPVTG,,T,,M,0.00,N,0.0,K,A*13
$GPGGA,063644.221,4709.8160,N,00831.0162,E,1,07,1.2,510.8,M,,,,0000*0F
$GPGLL,4709.8160,N,00831.0162,E,063644.221,A,A*51
$GPRMC,063644.221,A,4709.8160,N,00831.0162,E,0.00,,050807,,,A*72
$GPVTG,,T,,M,0.00,N,0.0,K,A*13
$GPGGA,063645.221,4709.8160,N,00831.0162,E,1,07,1.2,510.8,M,,,,0000*0E
$GPGLL,4709.8160,N,00831.0162,E,063645.221,A,A*50
$GPRMC,063645.221,A,4709.8160,N,00831.0162,E,0.00,,050807,,,A*73
$GPVTG,,T,,M,0.00,N,0.0,K,A*13
$GPGGA,063646.221,4709.8160,N,00831.0162,E,1,07,1.2,510.8,M,,,,0000*0D
$GPGLL,4709.8160,N,00831.0162,E,063646.221,A,A*53
$GPGSA,A,3,04,13,23,25,02,20,27,,,,,,2.4,1.2,2.1*31
$GPGSV,2,1,08,13,85,329,30,04,58,264,33,23,57,056,27,25,46,164,27*79
$GPGSV,2,2,08,02,31,307,27,27,29,180,37,20,29,107,33,16,08,062,*77
$GPRMC,063646.221,A,4709.8160,N,00831.0162,E,0.00,,050807,,,A*70
$GPVTG,,T,,M,0.00,N,0.0,K,A*13
$GPGGA,063647.221,4709.8160,N,00831.0162,E,1,07,1.2,510.8,M,,,,0000*0C
$GPGLL,4709.8160,N,00831.0162,E,063647.221,A,A*52
$GPRMC,063647.221,A,4709.8160,N,00831.0162,E,0.00,,050807,,,A*71
$GPVTG,,T,,M,0.00,N,0.0,K,A*13
$GPGGA,063648.221,4709.8160,N,00831.0162,E,1,07,1.2,510.8,M,,,,0000*03
$GPGLL,4709.8160,N,00831.0162,E,063648.221,A,A*5D
$GPRMC,063648.221,A,4709.8160,N,00831.0162,E,0.00,,050807,,,A*7E
$GPVTG,,T,,M,0.00,N,0.0,K,A*13
$GPGGA,063649.221,4709.8160,N,00831.0162,E,1,07,1.2,510.8,M,,,,0000*02
$GPGLL,4709.8160,N,00831.0162,E,063649.221,A,A*5C
$GPRMC,063649.221,A,4709.8160,N,00831.0162,E,0.00,,050807,,,A*7F
$GPVTG,,T,,M,0.00,N,0.0,K,A*13
$GPGGA,063650.221,4709.8160,N,00831.0162,E,1,07,1.2,510.8,M,,,,0000*0A
$GPGLL,4709.8160,N,00831.0162,E,063650.221,A,A*54
$GPGSA,A,3,04,13,23,25,02,20,27,,,,,,2.4,1.2,2.1*31
$GPGSV,2,1,08,13,85,332,27,04,58,264,35,23,57,056,35,25,46,164,34*72
$GPGSV,2,2,08,02,32,307,19,27,29,180,38,20,28,107,34,16,08,062,*70
$GPRMC,063650.221,A,4709.8160,N,00831.0162,E,0.00,,050807,,,A*77
$GPVTG,,T,,M,0.00,N,0.0,K,A*13
$GPGGA,063651.221,4709.8160,N,00831.0162,E,1,07,1.2,510.8,M,,,,0000*0B
$GPGLL,4709.8160,N,00831.0162,E,063651.221,A,A*55
$GPRMC,063651.221,A,4709.8160,N,00831.0162,E,0.00,,050807,,,A*76
$GPVTG,,T,,M,0.00,N,0.0,K,A*13
$GPGGA,063652.221,4709.8160,N,00831.0162,E,1,07,1.2,510.8,M,,,,0000*08
$GPGLL,4709.8160,N,00831.0162,E,063652.221,A,A*56
$GPRMC,063652.221,A,4709.8160,N,00831.0162,E,0.00,,050807,,,A*75
$GPVTG,,T,,M,0.00,N,0.0,K,A*13
$GPGGA,063653.221,4709.8160,N,00831.0162,E,1,07,1.2,510.8,M,,,,0000*09
$GPGLL,4709.8160,N,00831.0162,E,063653.221,A,A*57
$GPRMC,063653.221,A,4709.8160,N,00831.0162,E,0.00,,050807,,,A*74
$GPVTG,,T,,M,0.00,N,0.0,K,A*13
$GPGGA,063654.221,4709.8160,N,00831.0162,E,1,07,1.2,510.8,M,,,,0000*0E
$GPGLL,4709.8160,N,00831.0162,E,063654.221,A,A*50
$GPGSA,A,3,04,13,23,25,02,20,27,,,,,,2.4,1.2,2.1*31
$GPGSV,2,1,08,13,85,332,30,04,58,264,31,23,57,056,38,25,46,164,40*7E
$GPGSV,2,2,08,02,32,307,28,27,29,180,40,20,28,107,43,16,08,062,*7D
$GPRMC,063654.221,A,4709.8160,N,00831.0162,E,0.00,,050807,,,A*73
$GPVTG,,T,,M,0.00,N,0.0,K,A*13
$GPGGA,063655.221,4709.8160,N,00831.0162,E,1,07,1.2,510.8,M,,,,0000*0F
$GPGLL,4709.8160,N,00831.0162,E,063655.221,A,A*51
$GPRMC,063655.221,A,4709.8160,N,00831.0162,E,0.00,,050807,,,A*72
$GPVTG,,T,,M,0.00,N,0.0,K,A*13
$GPGGA,063656.221,4709.8160,N,00831.0162,E,1,07,1.2,510.8,M,,,,0000*0C
$GPGLL,4709.8160,N,00831.0162,E,063656.221,A,A*52
$GPRMC,063656.221,A,4709.8160,N,00831.0162,E,0.00,,050807,,,A*71
$GPVTG,,T,,M,0.00,N,0.0,K,A*13
$GPGGA,063657.221,4709.8160,N,00831.0162,E,1,07,1.2,510.8,M,,,,0000*0D
$GPGLL,4709.8160,N,00831.0162,E,063657.221,A,A*53
$GPRMC,063657.221,A,4709.8160,N,00831.0162,E,0.00,,050807,,,A*70
$GPVTG,,T,,M,0.00,N,0.0,K,A*13
$GPGGA,063658.220,4709.8160,N,00831.0162,E,1,07,1.2,510.8,M,,,,0000*03
$GPGLL,4709.8160,N,00831.0162,E,063658.220,A,A*5D
$GPGSA,A,3,04,13,23,25,02,20,27,,,,,,2.4,1.2,2.1*31
$GPGSV,2,1,08,13,85,332,30,04,58,264,39,23,57,056,38,25,46,164,41*77
$GPGSV,2,2,08,02,32,307,24,27,29,180,39,20,28,107,40,16,08,062,*7C
$GPRMC,063658.220,A,4709.8160,N,00831.0162,E,0.00,,050807,,,A*7E
$GPVTG,,T,,M,0.00,N,0.0,K,A*13
$GPGGA,063659.220,4709.8160,N,00831.0162,E,1,07,1.2,510.8,M,,,,0000*02
$GPGLL,4709.8160,N,00831.0162,E,063659.220,A,A*5C
$GPRMC,063659.220,A,4709.8160,N,00831.0162,E,0.00,,050807,,,A*7F
$GPVTG,,T,,M,0.00,N,0.0,K,A*13
$GPGGA,063700.220,4709.8160,N,00831.0162,E,1,07,1.2,510.8,M,,,,0000*0F
$GPGLL,4709.8160,N,00831.0162,E,063700.220,A,A*51
$GPRMC,063700.220,A,4709.8160,N,00831.0162,E,0.00,,050807,,,A*72
$GPVTG,,T,,M,0.00,N,0.0,K,A*13
$GPGGA,063701.220,4709.8160,N,00831.0162,E,1,07,1.2,510.8,M,,,,0000*0E
$GPGLL,4709.8160,N,00831.0162,E,063701.220,A,A*50
$GPRMC,063701.220,A,4709.8160,N,00831.0162,E,0.00,,050807,,,A*73
$GPVTG,,T,,M,0.00,N,0.0,K,A*13
$GPGGA,063702.220,4709.8160,N,00831.0162,E,1,07,1.2,510.8,M,,,,0000*0D
$GPGLL,4709.8160,N,00831.0162,E,063702.220,A,A*53
$GPGSA,A,3,04,13,23,25,02,20,27,,,,,,2.4,1.2,2.1*31
$GPGSV,2,1,08,13,85,332,32,04,58,264,38,23,57,056,40,25,46,164,41*7B
$GPGSV,2,2,08,02,32,307,27,27,29,180,41,20,28,107,41,16,08,062,*71
$GPRMC,063702.220,A,4709.8160,N,00831.0162,E,0.00,,050807,,,A*70
$GPVTG,,T,,M,0.00,N,0.0,K,A*13
$GPGGA,063703.220,4709.8160,N,00831.0162,E,1,07,1.2,510.8,M,,,,0000*0C
$GPGLL,4709.8160,N,00831.0162,E,063703.220,A,A*52
$GPRMC,063703.220,A,4709.8160,N,00831.0162,E,0.00,,050807,,,A*71
$GPVTG,,T,,M,0.00,N,0.0,K,A*13
$GPGGA,063704.220,4709.8160,N,00831.0162,E,1,07,1.2,510.8,M,,,,0000*0B
$GPGLL,4709.8160,N,00831.0162,E,063704.220,A,A*55
$GPRMC,063704.220,A,4709.8160,N,00831.0162,E,0.00,,050807,,,A*76
$GPVTG,,T,,M,0.00,N,0.0,K,A*13
$GPGGA,063705.220,4709.8160,N,00831.0162,E,1,07,1.2,510.8,M,,,,0000*0A
$GPGLL,4709.8160,N,00831.0162,E,063705.220,A,A*54
$GPRMC,063705.220,A,4709.8160,N,00831.0162,E,0.00,,050807,,,A*77
$GPVTG,,T,,M,0.00,N,0.0,K,A*13
$GPGGA,063706.220,4709.8160,N,00831.0162,E,1,07,1.2,510.8,M,,,,0000*09
$GPGLL,4709.8160,N,00831.0162,E,063706.220,A,A*57
$GPGSA,A,3,04,13,23,25,02,20,27,,,,,,2.4,1.2,2.1*31
$GPGSV,2,1,08,13,85,332,28,04,58,264,36,23,57,056,41,25,46,164,37*7E
$GPGSV,2,2,08,02,32,307,33,27,29,180,43,20,28,107,40,16,08,062,*77
$GPRMC,063706.220,A,4709.8160,N,00831.0162,E,0.00,,050807,,,A*74
$GPVTG,,T,,M,0.00,N,0.0,K,A*13
$GPGGA,063707.220,4709.8160,N,00831.0162,E,1,07,1.2,510.8,M,,,,0000*08
$GPGLL,4709.8160,N,00831.0162,E,063707.220,A,A*56
$GPRMC,063707.220,A,4709.8160,N,00831.0162,E,0.00,,050807,,,A*75
$GPVTG,,T,,M,0.00,N,0.0,K,A*13
$GPGGA,063708.220,4709.8160,N,00831.0162,E,1,07,1.2,510.8,M,,,,0000*07
$GPGLL,4709.8160,N,00831.0162,E,063708.220,A,A*59
$GPRMC,063708.220,A,4709.8160,N,00831.0162,E,0.00,,050807,,,A*7A
$GPVTG,,T,,M,0.00,N,0.0,K,A*13
$GPGGA,063709.220,4709.8160,N,00831.0162,E,1,07,1.2,510.8,M,,,,0000*06
$GPGLL,4709.8160,N,00831.0162,E,063709.220,A,A*58
$GPRMC,063709.220,A,4709.8160,N,00831.0162,E,0.00,,050807,,,A*7B
$GPVTG,,T,,M,0.00,N,0.0,K,A*13
$GPGGA,063710.220,4709.8160,N,00831.0162,E,1,07,1.2,510.8,M,,,,0000*0E
$GPGLL,4709.8160,N,00831.0162,E,063710.220,A,A*50
$GPGSA,A,3,04,13,23,25,02,20,27,,,,,,2.4,1.2,2.1*31
$GPGSV,2,1,08,13,85,332,30,04,58,264,38,23,57,056,40,25,46,164,39*76
$GPGSV,2,2,08,02,32,307,23,27,29,180,39,20,28,107,40,16,08,062,*7B
$GPRMC,063710.220,A,4709.8160,N,00831.0162,E,0.00,,050807,,,A*73
$GPVTG,,T,,M,0.00,N,0.0,K,A*13
$GPGGA,063711.220,4709.8160,N,00831.0162,E,1,07,1.2,510.8,M,,,,0000*0F
$GPGLL,4709.8160,N,00831.0162,E,063711.220,A,A*51
$GPRMC,063711.220,A,4709.8160,N,00831.0162,E,0.00,,050807,,,A*72
$GPVTG,,T,,M,0.00,N,0.0,K,A*13
$GPGGA,063712.220,4709.8160,N,00831.0162,E,1,07,1.2,510.8,M,,,,0000*0C
$GPGLL,4709.8160,N,00831.0162,E,063712.220,A,A*52
$GPRMC,063712.220,A,4709.8160,N,00831.0162,E,0.00,,050807,,,A*71
$GPVTG,,T,,M,0.00,N,0.0,K,A*13
$GPGGA,063713.220,4709.8160,N,00831.0162,E,1,07,1.2,510.8,M,,,,0000*0D
$GPGLL,4709.8160,N,00831.0162,E,063713.220,A,A*53
$GPRMC,063713.220,A,4709.8160,N,00831.0162,E,0.00,,050807,,,A*70
$GPVTG,,T,,M,0.00,N,0.0,K,A*13
$GPGGA,063714.220,4709.8160,N,00831.0162,E,1,07,1.2,510.8,M,,,,0000*0A
$GPGLL,4709.8160,N,00831.0162,E,063714.220,A,A*54
$GPGSA,A,3,04,13,23,25,02,20,27,,,,,,2.4,1.2,2.1*31
$GPGSV,2,1,08,13,85,332,29,04,58,264,40,23,57,056,38,25,46,164,39*7E
$GPGSV,2,2,08,02,32,307,35,27,29,180,41,20,28,107,41,16,08,062,*72
$GPRMC,063714.220,A,4709.8160,N,00831.0162,E,0.00,,050807,,,A*77
$GPVTG,,T,,M,0.00,N,0.0,K,A*13
$GPGGA,063715.219,4709.8160,N,00831.0162,E,1,07,1.2,510.8,M,,,,0000*01
$GPGLL,4709.8160,N,00831.0162,E,063715.219,A,A*5F
$GPRMC,063715.219,A,4709.8160,N,00831.0162,E,0.00,,050807,,,A*7C
$GPVTG,,T,,M,0.00,N,0.0,K,A*13
$GPGGA,063716.219,4709.8160,N,00831.0162,E,1,07,1.2,510.8,M,,,,0000*02
$GPGLL,4709.8160,N,00831.0162,E,063716.219,A,A*5C
$GPRMC,063716.219,A,4709.8160,N,00831.0162,E,0.00,,050807,,,A*7F
$GPVTG,,T,,M,0.00,N,0.0,K,A*13
$GPGGA,063717.219,4709.8160,N,00831.0162,E,1,07,1.2,510.8,M,,,,0000*03
$GPGLL,4709.8160,N,00831.0162,E,063717.219,A,A*5D
$GPRMC,063717.219,A,4709.8160,N,00831.0162,E,0.00,,050807,,,A*7E
$GPVTG,,T,,M,0.00,N,0.0,K,A*13
$GPGGA,063718.219,4709.8160,N,00831.0162,E,1,07,1.2,510.8,M,,,,0000*0C
$GPGLL,4709.8160,N,00831.0162,E,063718.219,A,A*52
$GPGSA,A,3,04,13,23,25,02,20,27,,,,,,2.4,1.2,2.1*31
$GPGSV,2,1,08,13,85,334,28,04,58,263,38,23,57,056,39,25,46,164,41*7F
$GPGSV,2,2,08,02,32,307,32,27,29,180,35,20,28,108,40,16,08,061,*7B
$GPRMC,063718.219,A,4709.8160,N,00831.0162,E,0.00,,050807,,,A*71
$GPVTG,,T,,M,0.00,N,0.0,K,A*13
$GPGGA,063719.219,4709.8160,N,00831.0162,E,1,07,1.2,510.8,M,,,,0000*0D
$GPGLL,4709.8160,N,00831.0162,E,063719.219,A,A*53
$GPRMC,063719.219,A,4709.8160,N,00831.0162,E,0.00,,050807,,,A*70
$GPVTG,,T,,M,0.00,N,0.0,K,A*13
$GPGGA,063720.219,4709.8160,N,00831.0162,E,1,07,1.2,510.8,M,,,,0000*07
$GPGLL,4709.8160,N,00831.0162,E,063720.219,A,A*59
$GPRMC,063720.219,A,4709.8160,N,00831.0162,E,0.00,,050807,,,A*7A
$GPVTG,,T,,M,0.00,N,0.0,K,A*13
$GPGGA,063721.219,4709.8160,N,00831.0162,E,1,07,1.2,510.8,M,,,,0000*06
$GPGLL,4709.8160,N,00831.0162,E,063721.219,A,A*58
$GPRMC,063721.219,A,4709.8160,N,00831.0162,E,0.00,,050807,,,A*7B
$GPVTG,,T,,M,0.00,N,0.0,K,A*13
$GPGGA,063722.219,4709.8160,N,00831.0162,E,1,07,1.2,510.8,M,,,,0000*05
$GPGLL,4709.8160,N,00831.0162,E,063722.219,A,A*5B
$GPGSA,A,3,04,13,23,25,02,20,27,,,,,,2.4,1.2,2.1*31
$GPGSV,2,1,08,13,85,334,31,04,58,263,38,23,57,056,33,25,46,164,38*73
$GPGSV,2,2,08,02,32,307,31,27,29,180,34,20,28,108,33,16,08,061,*7D
$GPRMC,063722.219,A,4709.8160,N,00831.0162,E,0.00,,050807,,,A*78
$GPVTG,,T,,M,0.00,N,0.0,K,A*13
$GPGGA,063723.219,4709.8160,N,00831.0162,E,1,07,1.2,510.8,M,,,,0000*04
$GPGLL,4709.8160,N,00831.0162,E,063723.219,A,A*5A
$GPRMC,063723.219,A,4709.8160,N,00831.0162,E,0.00,,050807,,,A*79
$GPVTG,,T,,M,0.00,N,0.0,K,A*13
$GPGGA,063724.219,4709.8160,N,00831.0162,E,1,07,1.2,510.8,M,,,,0000*03
$GPGLL,4709.8160,N,00831.0162,E,063724.219,A,A*5D
$GPRMC,063724.219,A,4709.8160,N,00831.0162,E,0.00,,050807,,,A*7E
$GPVTG,,T,,M,0.00,N,0.0,K,A*13
$GPGGA,063725.219,4709.8160,N,00831.0162,E,1,07,1.2,510.8,M,,,,0000*02
$GPGLL,4709.8160,N,00831.0162,E,063725.219,A,A*5C
$GPRMC,063725.219,A,4709.8160,N,00831.0162,E,0.00,,050807,,,A*7F
$GPVTG,,T,,M,0.00,N,0.0,K,A*13
$GPGGA,063726.219,4709.8158,N,00831.0155,E,1,07,1.2,508.3,M,,,,0000*0C
$GPGLL,4709.8158,N,00831.0155,E,063726.219,A,A*50
$GPGSA,A,3,04,13,23,25,02,20,27,,,,,,2.4,1.2,2.1*31
$GPGSV,2,1,08,13,85,334,35,04,58,263,39,23,57,056,31,25,46,164,36*7A
$GPGSV,2,2,08,02,32,307,28,27,29,180,30,20,28,108,33,16,08,061,*71
$GPRMC,063726.219,A,4709.8158,N,00831.0155,E,0.00,,050807,,,A*73
$GPVTG,,T,,M,0.00,N,0.0,K,A*13
$GPGGA,063727.219,4709.8156,N,00831.0149,E,1,07,1.2,506.4,M,,,,0000*07
$GPGLL,4709.8156,N,00831.0149,E,063727.219,A,A*52
$GPRMC,063727.219,A,4709.8156,N,00831.0149,E,0.00,,050807,,,A*71
$GPVTG,,T,,M,0.00,N,0.0,K,A*13
$GPGGA,063728.219,4709.8155,N,00831.0145,E,1,07,1.2,505.0,M,,,,0000*00
$GPGLL,4709.8155,N,00831.0145,E,063728.219,A,A*52
$GPRMC,063728.219,A,4709.8155,N,00831.0145,E,0.00,,050807,,,A*71
$GPVTG,,T,,M,0.00,N,0.0,K,A*13
$GPGGA,063729.219,4709.8154,N,00831.0142,E,1,07,1.2,503.9,M,,,,0000*08
$GPGLL,4709.8154,N,00831.0142,E,063729.219,A,A*55
$GPRMC,063729.219,A,4709.8154,N,00831.0142,E,0.00,,050807,,,A*76
$GPVTG,,T,,M,0.00,N,0.0,K,A*13
$GPGGA,063730.219,4709.8153,N,00831.0139,E,1,07,1.2,503.1,M,,,,0000*03
$GPGLL,4709.8153,N,00831.0139,E,063730.219,A,A*56
$GPGSA,A,3,04,13,23,25,02,20,27,,,,,,2.4,1.2,2.1*31
$GPGSV,2,1,08,13,85,334,33,04,58,263,39,23,57,056,19,25,46,164,36*76
$GPGSV,2,2,08,02,32,307,32,27,29,180,21,20,28,108,31,16,08,061,*78
$GPRMC,063730.219,A,4709.8153,N,00831.0139,E,0.00,,050807,,,A*75
$GPVTG,,T,,M,0.00,N,0.0,K,A*13
$GPGGA,063731.218,4709.8152,N,00831.0138,E,1,06,1.4,502.5,M,,,,0000*01
$GPGLL,4709.8152,N,00831.0138,E,063731.218,A,A*56
$GPRMC,063731.218,A,4709.8152,N,00831.0138,E,0.00,,050807,,,A*75
$GPVTG,,T,,M,0.00,N,0.0,K,A*13
$GPGGA,063732.218,4709.8152,N,00831.0136,E,1,07,1.2,502.1,M,,,,0000*0F
$GPGLL,4709.8152,N,00831.0136,E,063732.218,A,A*5B
$GPRMC,063732.218,A,4709.8152,N,00831.0136,E,0.00,,050807,,,A*78
$GPVTG,,T,,M,0.00,N,0.0,K,A*13
$GPGGA,063733.218,4709.8151,N,00831.0135,E,1,07,1.2,501.8,M,,,,0000*04
$GPGLL,4709.8151,N,00831.0135,E,063733.218,A,A*5A
$GPRMC,063733.218,A,4709.8151,N,00831.0135,E,0.00,,050807,,,A*79
$GPVTG,,T,,M,0.00,N,0.0,K,A*13
$GPGGA,063734.218,4709.8151,N,00831.0135,E,1,07,1.2,501.5,M,,,,0000*0E
$GPGLL,4709.8151,N,00831.0135,E,063734.218,A,A*5D
$GPGSA,A,3,04,13,23,25,02,20,27,,,,,,2.4,1.2,2.1*31
$GPGSV,2,1,08,13,85,334,33,04,58,263,40,23,57,056,25,25,46,164,41*77
$GPGSV,2,2,08,02,32,307,33,27,29,180,25,20,28,108,35,16,08,061,*79
$GPRMC,063734.218,A,4709.8151,N,00831.0135,E,0.00,,050807,,,A*7E
$GPVTG,,T,,M,0.00,N,0.0,K,A*13
$GPGGA,063735.218,4709.8151,N,00831.0134,E,1,07,1.2,501.3,M,,,,0000*08
$GPGLL,4709.8151,N,00831.0134,E,063735.218,A,A*5D
$GPRMC,063735.218,A,4709.8151,N,00831.0134,E,0.00,,050807,,,A*7E
$GPVTG,,T,,M,0.00,N,0.0,K,A*13
$GPGGA,063736.218,4709.8151,N,00831.0134,E,1,07,1.2,501.2,M,,,,0000*0A
$GPGLL,4709.8151,N,00831.0134,E,063736.218,A,A*5E
$GPRMC,063736.218,A,4709.8151,N,00831.0134,E,0.00,,050807,,,A*7D
$GPVTG,,T,,M,0.00,N,0.0,K,A*13
$GPGGA,063737.218,4709.8151,N,00831.0133,E,1,07,1.2,501.1,M,,,,0000*0F
$GPGLL,4709.8151,N,00831.0133,E,063737.218,A,A*58
$GPRMC,063737.218,A,4709.8151,N,00831.0133,E,0.00,,050807,,,A*7B
$GPVTG,,T,,M,0.00,N,0.0,K,A*13
$GPGGA,063738.218,4709.8151,N,00831.0133,E,1,07,1.2,501.0,M,,,,0000*01
$GPGLL,4709.8151,N,00831.0133,E,063738.218,A,A*57
$GPGSA,A,3,04,13,23,25,02,20,27,,,,,,2.4,1.2,2.1*31
$GPGSV,2,1,08,13,85,334,35,04,58,263,44,23,57,056,37,25,46,164,41*76
$GPGSV,2,2,08,02,32,307,34,27,29,180,29,20,28,108,38,16,08,061,*7F
$GPRMC,063738.218,A,4709.8151,N,00831.0133,E,0.00,,050807,,,A*74
$GPVTG,,T,,M,0.00,N,0.0,K,A*13
$GPGGA,063739.218,4709.8151,N,00831.0133,E,1,07,1.2,500.9,M,,,,0000*08
$GPGLL,4709.8151,N,00831.0133,E,063739.218,A,A*56
$GPRMC,063739.218,A,4709.8151,N,00831.0133,E,0.00,,050807,,,A*75
$GPVTG,,T,,M,0.00,N,0.0,K,A*13
$GPGGA,063740.218,4709.8150,N,00831.0133,E,1,07,1.2,500.9,M,,,,0000*07
$GPGLL,4709.8150,N,00831.0133,E,063740.218,A,A*59
$GPRMC,063740.218,A,4709.8150,N,00831.0133,E,0.00,,050807,,,A*7A
$GPVTG,,T,,M,0.00,N,0.0,K,A*13
$GPGGA,063741.218,4709.8150,N,00831.0133,E,1,07,1.2,500.9,M,,,,0000*06
$GPGLL,4709.8150,N,00831.0133,E,063741.218,A,A*58
$GPRMC,063741.218,A,4709.8150,N,00831.0133,E,0.00,,050807,,,A*7B
$GPVTG,,T,,M,0.00,N,0.0,K,A*13
$GPGGA,063742.218,4709.8154,N,00831.0134,E,1,07,1.2,500.8,M,,,,0000*07
$GPGLL,4709.8154,N,00831.0134,E,063742.218,A,A*58
$GPGSA,A,3,04,13,23,25,02,20,27,,,,,,2.4,1.2,2.1*31
$GPGSV,2,1,08,13,85,334,33,04,58,263,34,23,57,056,36,25,46,164,35*75
$GPGSV,2,2,08,02,32,307,33,27,29,180,37,20,28,108,41,16,08,061,*79
$GPRMC,063742.218,A,4709.8154,N,00831.0134,E,2.54,18.40,050807,,,A*5B
$GPVTG,18.40,T,,M,2.54,N,4.7,K,A*30
$GPGGA,063743.218,4709.8158,N,00831.0136,E,1,07,1.2,500.8,M,,,,0000*08
$GPGLL,4709.8158,N,00831.0136,E,063743.218,A,A*57
$GPRMC,063743.218,A,4709.8158,N,00831.0136,E,0.00,,050807,,,A*74
$GPVTG,,T,,M,0.00,N,0.0,K,A*13
$GPGGA,063744.218,4709.8159,N,00831.0136,E,1,07,1.2,500.7,M,,,,0000*01
$GPGLL,4709.8159,N,00831.0136,E,063744.218,A,A*51
$GPRMC,063744.218,A,4709.8159,N,00831.0136,E,0.00,,050807,,,A*72
$GPVTG,,T,,M,0.00,N,0.0,K,A*13
$GPGGA,063745.218,4709.8159,N,00831.0136,E,1,07,1.2,500.7,M,,,,0000*00
$GPGLL,4709.8159,N,00831.0136,E,063745.218,A,A*50
$GPRMC,063745.218,A,4709.8159,N,00831.0136,E,0.00,,050807,,,A*73
$GPVTG,,T,,M,0.00,N,0.0,K,A*13
$GPGGA,063746.218,4709.8160,N,00831.0136,E,1,07,1.2,500.7,M,,,,0000*09
$GPGLL,4709.8160,N,00831.0136,E,063746.218,A,A*59
$GPGSA,A,3,04,13,23,25,02,20,27,,,,,,2.4,1.2,2.1*31
$GPGSV,2,1,08,13,85,334,29,04,58,263,32,23,57,056,38,25,46,164,41*75
$GPGSV,2,2,08,02,32,307,23,27,29,180,41,20,28,108,36,16,08,061,*79
$GPRMC,063746.218,A,4709.8160,N,00831.0136,E,0.00,,050807,,,A*7A
$GPVTG,,T,,M,0.00,N,0.0,K,A*13
$GPGGA,063747.218,4709.8160,N,00831.0136,E,1,07,1.2,500.7,M,,,,0000*08
$GPGLL,4709.8160,N,00831.0136,E,063747.218,A,A*58
$GPRMC,063747.218,A,4709.8160,N,00831.0136,E,0.00,,050807,,,A*7B
$GPVTG,,T,,M,0.00,N,0.0,K,A*13
$GPGGA,063748.217,4709.8160,N,00831.0136,E,1,07,1.2,500.6,M,,,,0000*09
$GPGLL,4709.8160,N,00831.0136,E,063748.217,A,A*58
$GPRMC,063748.217,A,4709.8160,N,00831.0136,E,0.00,,050807,,,A*7B
$GPVTG,,T,,M,0.00,N,0.0,K,A*13
$GPGGA,063749.217,4709.8160,N,00831.0136,E,1,07,1.2,500.6,M,,,,0000*08
$GPGLL,4709.8160,N,00831.0136,E,063749.217,A,A*59
$GPRMC,063749.217,A,4709.8160,N,00831.0136,E,0.00,,050807,,,A*7A
$GPVTG,,T,,M,0.00,N,0.0,K,A*13
$GPGGA,063750.217,4709.8161,N,00831.0136,E,1,07,1.2,500.6,M,,,,0000*01
$GPGLL,4709.8161,N,00831.0136,E,063750.217,A,A*50
$GPGSA,A,3,04,13,23,25,02,20,27,,,,,,2.4,1.2,2.1*31
$GPGSV,3,1,09,13,85,337,36,04,58,263,40,23,56,056,31,25,47,164,35*77
$GPGSV,3,2,09,02,32,307,38,27,30,180,34,20,28,108,29,16,08,061,*77
$GPGSV,3,3,09,08,05,190,*45
$GPRMC,063750.217,A,4709.8161,N,00831.0136,E,0.00,,050807,,,A*73
$GPVTG,,T,,M,0.00,N,0.0,K,A*13
$GPGGA,063751.217,4709.8161,N,00831.0136,E,1,07,1.2,500.6,M,,,,0000*00
$GPGLL,4709.8161,N,00831.0136,E,063751.217,A,A*51
$GPRMC,063751.217,A,4709.8161,N,00831.0136,E,0.00,,050807,,,A*72
$GPVTG,,T,,M,0.00,N,0.0,K,A*13
$GPGGA,063752.217,4709.8161,N,00831.0136,E,1,07,1.2,500.6,M,,,,0000*03
$GPGLL,4709.8161,N,00831.0136,E,063752.217,A,A*52
$GPRMC,063752.217,A,4709.8161,N,00831.0136,E,0.00,,050807,,,A*71
$GPVTG,,T,,M,0.00,N,0.0,K,A*13
$GPGGA,063753.217,4709.8161,N,00831.0136,E,1,07,1.2,500.6,M,,,,0000*02
$GPGLL,4709.8161,N,00831.0136,E,063753.217,A,A*53
$GPRMC,063753.217,A,4709.8161,N,00831.0136,E,0.00,,050807,,,A*70
$GPVTG,,T,,M,0.00,N,0.0,K,A*13
$GPGGA,063754.217,4709.8161,N,00831.0136,E,1,07,1.2,500.6,M,,,,0000*05
$GPGLL,4709.8161,N,00831.0136,E,063754.217,A,A*54
$GPGSA,A,3,04,13,23,25,02,20,27,,,,,,2.4,1.2,2.1*31
$GPGSV,3,1,09,13,85,337,35,04,58,263,44,23,56,056,44,25,47,164,37*70
$GPGSV,3,2,09,02,32,307,45,27,30,180,36,20,28,108,34,16,08,061,*73
$GPGSV,3,3,09,08,05,190,*45
$GPRMC,063754.217,A,4709.8161,N,00831.0136,E,0.00,,050807,,,A*77
$GPVTG,,T,,M,0.00,N,0.0,K,A*13
$GPGGA,063755.217,4709.8161,N,00831.0136,E,1,07,1.2,500.6,M,,,,0000*04
$GPGLL,4709.8161,N,00831.0136,E,063755.217,A,A*55
$GPRMC,063755.217,A,4709.8161,N,00831.0136,E,0.00,,050807,,,A*76
$GPVTG,,T,,M,0.00,N,0.0,K,A*13
$GPGGA,063756.217,4709.8161,N,00831.0136,E,1,07,1.2,500.6,M,,,,0000*07
$GPGLL,4709.8161,N,00831.0136,E,063756.217,A,A*56
$GPRMC,063756.217,A,4709.8161,N,00831.0136,E,0.00,,050807,,,A*75
$GPVTG,,T,,M,0.00,N,0.0,K,A*13
$GPGGA,063757.217,4709.8161,N,00831.0136,E,1,07,1.2,500.6,M,,,,0000*06
$GPGLL,4709.8161,N,00831.0136,E,063757.217,A,A*57
$GPRMC,063757.217,A,4709.8161,N,00831.0136,E,0.00,,050807,,,A*74
$GPVTG,,T,,M,0.00,N,0.0,K,A*13
$GPGGA,063758.217,4709.8161,N,00831.0136,E,1,07,1.2,500.6,M,,,,0000*09
$GPGLL,4709.8161,N,00831.0136,E,063758.217,A,A*58
$GPGSA,A,3,04,13,23,25,02,20,27,,,,,,2.4,1.2,2.1*31
$GPGSV,3,1,09,13,85,337,34,04,58,263,36,23,56,056,36,25,47,164,36*70
$GPGSV,3,2,09,02,32,307,43,27,30,180,30,20,28,108,29,16,08,061,*7F
$GPGSV,3,3,09,08,05,190,*45
$GPRMC,063758.217,A,4709.8161,N,00831.0136,E,0.00,,050807,,,A*7B
$GPVTG,,T,,M,0.00,N,0.0,K,A*13
$GPGGA,063759.217,4709.8161,N,00831.0136,E,1,07,1.2,500.6,M,,,,0000*08
$GPGLL,4709.8161,N,00831.0136,E,063759.217,A,A*59
$GPRMC,063759.217,A,4709.8161,N,00831.0136,E,0.00,,050807,,,A*7A
$GPVTG,,T,,M,0.00,N,0.0,K,A*13
$GPGGA,063800.217,4709.8161,N,00831.0136,E,1,07,1.2,500.6,M,,,,0000*0B
$GPGLL,4709.8161,N,00831.0136,E,063800.217,A,A*5A
$GPRMC,063800.217,A,4709.8161,N,00831.0136,E,0.00,,050807,,,A*79
$GPVTG,,T,,M,0.00,N,0.0,K,A*13
$GPGGA,063801.217,4709.8161,N,00831.0136,E,1,07,1.2,500.6,M,,,,0000*0A
$GPGLL,4709.8161,N,00831.0136,E,063801.217,A,A*5B
$GPRMC,063801.217,A,4709.8161,N,00831.0136,E,0.00,,050807,,,A*78
$GPVTG,,T,,M,0.00,N,0.0,K,A*13
$GPGGA,063802.217,4709.8161,N,00831.0136,E,1,07,1.2,500.6,M,,,,0000*09
$GPGLL,4709.8161,N,00831.0136,E,063802.217,A,A*58
$GPGSA,A,3,04,13,23,25,02,20,27,,,,,,2.4,1.2,2.1*31
$GPGSV,3,1,09,13,85,337,37,04,58,263,44,23,56,056,38,25,47,164,36*78
$GPGSV,3,2,09,02,32,307,45,27,30,180,32,20,28,108,32,16,08,061,*71
$GPGSV,3,3,09,08,05,190,*45
$GPRMC,063802.217,A,4709.8161,N,00831.0136,E,0.00,,050807,,,A*7B
$GPVTG,,T,,M,0.00,N,0.0,K,A*13
$GPGGA,063803.217,4709.8161,N,00831.0136,E,1,07,1.2,500.6,M,,,,0000*08
$GPGLL,4709.8161,N,00831.0136,E,063803.217,A,A*59
$GPRMC,063803.217,A,4709.8161,N,00831.0136,E,0.00,,050807,,,A*7A
$GPVTG,,T,,M,0.00,N,0.0,K,A*13
$GPGGA,063804.216,4709.8161,N,00831.0136,E,1,07,1.2,500.6,M,,,,0000*0E
$GPGLL,4709.8161,N,00831.0136,E,063804.216,A,A*5F
$GPRMC,063804.216,A,4709.8161,N,00831.0136,E,0.00,,050807,,,A*7C
$GPVTG,,T,,M,0.00,N,0.0,K,A*13
$GPGGA,063805.216,4709.8161,N,00831.0136,E,1,07,1.2,500.6,M,,,,0000*0F
$GPGLL,4709.8161,N,00831.0136,E,063805.216,A,A*5E
$GPRMC,063805.216,A,4709.8161,N,00831.0136,E,0.00,,050807,,,A*7D
$GPVTG,,T,,M,0.00,N,0.0,K,A*13
$GPGGA,063806.216,4709.8161,N,00831.0136,E,1,07,1.2,500.6,M,,,,0000*0C
$GPGLL,4709.8161,N,00831.0136,E,063806.216,A,A*5D
$GPGSA,A,3,04,13,23,25,02,20,27,,,,,,2.4,1.2,2.1*31
$GPGSV,3,1,09,13,85,337,35,04,58,263,37,23,56,056,29,25,47,164,38*70
$GPGSV,3,2,09,02,32,307,36,27,30,180,38,20,28,108,32,16,08,061,*7F
$GPGSV,3,3,09,08,05,190,*45
$GPRMC,063806.216,A,4709.8161,N,00831.0136,E,0.00,,050807,,,A*7E
$GPVTG,,T,,M,0.00,N,0.0,K,A*13
$GPGGA,063807.216,4709.8161,N,00831.0136,E,1,07,1.2,500.6,M,,,,0000*0D
$GPGLL,4709.8161,N,00831.0136,E,063807.216,A,A*5C
$GPRMC,063807.216,A,4709.8161,N,00831.0136,E,0.00,,050807,,,A*7F
$GPVTG,,T,,M,0.00,N,0.0,K,A*13
$GPGGA,063808.216,4709.8161,N,00831.0136,E,1,07,1.2,500.6,M,,,,0000*02
$GPGLL,4709.8161,N,00831.0136,E,063808.216,A,A*53
$GPRMC,063808.216,A,4709.8161,N,00831.0136,E,0.00,,050807,,,A*70
$GPVTG,,T,,M,0.00,N,0.0,K,A*13
$GPGGA,063809.216,4709.8161,N,00831.0136,E,1,07,1.2,500.6,M,,,,0000*03
$GPGLL,4709.8161,N,00831.0136,E,063809.216,A,A*52
$GPRMC,063809.216,A,4709.8161,N,00831.0136,E,0.00,,050807,,,A*71
$GPVTG,,T,,M,0.00,N,0.0,K,A*13
$GPGGA,063810.216,4709.8161,N,00831.0136,E,1,07,1.2,500.6,M,,,,0000*0B
$GPGLL,4709.8161,N,00831.0136,E,063810.216,A,A*5A
$GPGSA,A,3,04,13,23,25,02,20,27,,,,,,2.4,1.2,2.1*31
$GPGSV,3,1,09,13,85,337,34,04,58,263,42,23,56,056,33,25,47,164,39*79
$GPGSV,3,2,09,02,32,307,41,27,30,180,31,20,28,108,31,16,08,061,*75
$GPGSV,3,3,09,08,05,190,*45
$GPRMC,063810.216,A,4709.8161,N,00831.0136,E,0.00,,050807,,,A*79
$GPVTG,,T,,M,0.00,N,0.0,K,A*13
$GPGGA,063811.216,4709.8161,N,00831.0136,E,1,07,1.2,500.6,M,,,,0000*0A
$GPGLL,4709.8161,N,00831.0136,E,063811.216,A,A*5B
$GPRMC,063811.216,A,4709.8161,N,00831.0136,E,0.00,,050807,,,A*78
$GPVTG,,T,,M,0.00,N,0.0,K,A*13
$GPGGA,063812.216,4709.8161,N,00831.0136,E,1,07,1.2,500.6,M,,,,0000*09
$GPGLL,4709.8161,N,00831.0136,E,063812.216,A,A*58
$GPRMC,063812.216,A,4709.8161,N,00831.0136,E,0.00,,050807,,,A*7B
$GPVTG,,T,,M,0.00,N,0.0,K,A*13
$GPGGA,063813.216,4709.8161,N,00831.0136,E,1,07,1.2,500.6,M,,,,0000*08
$GPGLL,4709.8161,N,00831.0136,E,063813.216,A,A*59
$GPRMC,063813.216,A,4709.8161,N,00831.0136,E,0.00,,050807,,,A*7A
$GPVTG,,T,,M,0.00,N,0.0,K,A*13
$GPGGA,063814.216,4709.8161,N,00831.0136,E,1,07,1.2,500.6,M,,,,0000*0F
$GPGLL,4709.8161,N,00831.0136,E,063814.216,A,A*5E
$GPGSA,A,3,04,13,23,25,02,20,27,,,,,,2.4,1.2,2.1*31
$GPGSV,3,1,09,13,85,337,37,04,58,263,40,23,56,056,27,25,47,164,32*76
$GPGSV,3,2,09,02,32,307,40,27,30,180,36,20,28,108,31,16,08,061,*73
$GPGSV,3,3,09,08,05,190,*45
$GPRMC,063814.216,A,4709.8161,N,00831.0136,E,0.00,,050807,,,A*7D
$GPVTG,,T,,M,0.00,N,0.0,K,A*13
$GPGGA,063815.216,4709.8161,N,00831.0136,E,1,07,1.2,500.6,M,,,,0000*0E
$GPGLL,4709.8161,N,00831.0136,E,063815.216,A,A*5F
$GPRMC,063815.216,A,4709.8161,N,00831.0136,E,0.00,,050807,,,A*7C
$GPVTG,,T,,M,0.00,N,0.0,K,A*13
$GPGGA,063816.216,4709.8161,N,00831.0136,E,1,07,1.2,500.6,M,,,,0000*0D
$GPGLL,4709.8161,N,00831.0136,E,063816.216,A,A*5C
$GPRMC,063816.216,A,4709.8161,N,00831.0136,E,0.00,,050807,,,A*7F
$GPVTG,,T,,M,0.00,N,0.0,K,A*13
$GPGGA,063817.216,4709.8161,N,00831.0136,E,1,07,1.2,500.6,M,,,,0000*0C
$GPGLL,4709.8161,N,00831.0136,E,063817.216,A,A*5D
$GPRMC,063817.216,A,4709.8161,N,00831.0136,E,0.00,,050807,,,A*7E
$GPVTG,,T,,M,0.00,N,0.0,K,A*13
$GPGGA,063818.216,4709.8161,N,00831.0136,E,1,07,1.2,500.6,M,,,,0000*03
$GPGLL,4709.8161,N,00831.0136,E,063818.216,A,A*52
$GPGSA,A,3,04,13,23,25,02,20,27,,,,,,2.4,1.2,2.1*31
$GPGSV,3,1,09,13,85,340,37,04,58,262,41,23,56,056,33,25,47,164,42*74
$GPGSV,3,2,09,02,32,306,40,27,30,180,43,20,28,108,39,16,08,061,*78
$GPGSV,3,3,09,08,05,190,*45
$GPRMC,063818.216,A,4709.8161,N,00831.0136,E,0.00,,050807,,,A*71
$GPVTG,,T,,M,0.00,N,0.0,K,A*13
$GPGGA,063819.216,4709.8161,N,00831.0136,E,1,07,1.2,500.6,M,,,,0000*02
$GPGLL,4709.8161,N,00831.0136,E,063819.216,A,A*53
$GPRMC,063819.216,A,4709.8161,N,00831.0136,E,0.00,,050807,,,A*70
$GPVTG,,T,,M,0.00,N,0.0,K,A*13
$GPGGA,063820.216,4709.8161,N,00831.0136,E,1,07,1.2,500.6,M,,,,0000*08
$GPGLL,4709.8161,N,00831.0136,E,063820.216,A,A*59
$GPRMC,063820.216,A,4709.8161,N,00831.0136,E,0.00,,050807,,,A*7A
$GPVTG,,T,,M,0.00,N,0.0,K,A*13
$GPGGA,063821.215,4709.8161,N,00831.0136,E,1,07,1.2,500.6,M,,,,0000*0A
$GPGLL,4709.8161,N,00831.0136,E,063821.215,A,A*5B
$GPRMC,063821.215,A,4709.8161,N,00831.0136,E,0.00,,050807,,,A*78
$GPVTG,,T,,M,0.00,N,0.0,K,A*13
$GPGGA,063822.215,4709.8161,N,00831.0136,E,1,07,1.2,500.6,M,,,,0000*09
$GPGLL,4709.8161,N,00831.0136,E,063822.215,A,A*58
$GPGSA,A,3,04,13,23,25,02,20,27,,,,,,2.4,1.2,2.1*31
$GPGSV,3,1,09,13,85,340,37,04,58,262,42,23,56,056,39,25,47,164,43*7C
$GPGSV,3,2,09,02,32,306,40,27,30,180,44,20,28,108,41,16,08,061,*70
$GPGSV,3,3,09,08,05,190,*45
$GPRMC,063822.215,A,4709.8161,N,00831.0136,E,0.00,,050807,,,A*7B
$GPVTG,,T,,M,0.00,N,0.0,K,A*13
$GPGGA,063823.215,4709.8161,N,00831.0136,E,1,07,1.2,500.6,M,,,,0000*08
$GPGLL,4709.8161,N,00831.0136,E,063823.215,A,A*59
$GPRMC,063823.215,A,4709.8161,N,00831.0136,E,0.00,,050807,,,A*7A
$GPVTG,,T,,M,0.00,N,0.0,K,A*13
$GPGGA,063824.215,4709.8161,N,00831.0136,E,1,07,1.2,500.6,M,,,,0000*0F
$GPGLL,4709.8161,N,00831.0136,E,063824.215,A,A*5E
$GPRMC,063824.215,A,4709.8161,N,00831.0136,E,0.00,,050807,,,A*7D
$GPVTG,,T,,M,0.00,N,0.0,K,A*13
$GPGGA,063825.215,4709.8161,N,00831.0136,E,1,07,1.2,500.6,M,,,,0000*0E
$GPGLL,4709.8161,N,00831.0136,E,063825.215,A,A*5F
$GPRMC,063825.215,A,4709.8161,N,00831.0136,E,0.00,,050807,,,A*7C
$GPVTG,,T,,M,0.00,N,0.0,K,A*13
$GPGGA,063826.215,4709.8161,N,00831.0136,E,1,07,1.2,500.6,M,,,,0000*0D
$GPGLL,4709.8161,N,00831.0136,E,063826.215,A,A*5C
$GPGSA,A,3,04,13,23,25,02,20,27,,,,,,2.4,1.2,2.1*31
$GPGSV,3,1,09,13,85,340,37,04,58,262,42,23,56,056,38,25,47,164,42*7C
$GPGSV,3,2,09,02,32,306,40,27,30,180,44,20,28,108,42,16,08,061,*73
$GPGSV,3,3,09,08,05,190,*45
$GPRMC,063826.215,A,4709.8161,N,00831.0136,E,0.00,,050807,,,A*7F
$GPVTG,,T,,M,0.00,N,0.0,K,A*13
$GPGGA,063827.215,4709.8161,N,00831.0136,E,1,07,1.2,500.6,M,,,,0000*0C
$GPGLL,4709.8161,N,00831.0136,E,063827.215,A,A*5D
$GPRMC,063827.215,A,4709.8161,N,00831.0136,E,0.00,,050807,,,A*7E
$GPVTG,,T,,M,0.00,N,0.0,K,A*13
$GPGGA,063828.215,4709.8161,N,00831.0136,E,1,07,1.2,500.6,M,,,,0000*03
$GPGLL,4709.8161,N,00831.0136,E,063828.215,A,A*52
$GPRMC,063828.215,A,4709.8161,N,00831.0136,E,0.00,,050807,,,A*71
$GPVTG,,T,,M,0.00,N,0.0,K,A*13
$GPGGA,063829.215,4709.8161,N,00831.0136,E,1,07,1.2,500.6,M,,,,0000*02
$GPGLL,4709.8161,N,00831.0136,E,063829.215,A,A*53
$GPRMC,063829.215,A,4709.8161,N,00831.0136,E,0.00,,050807,,,A*70
$GPVTG,,T,,M,0.00,N,0.0,K,A*13
$GPGGA,063830.215,4709.8161,N,00831.0136,E,1,07,1.2,500.6,M,,,,0000*0A
$GPGLL,4709.8161,N,00831.0136,E,063830.215,A,A*5B
$GPGSA,A,3,04,13,23,25,02,20,27,,,,,,2.4,1.2,2.1*31
$GPGSV,3,1,09,13,85,340,37,04,58,262,40,23,56,056,37,25,47,164,39*7D
$GPGSV,3,2,09,02,32,306,40,27,30,180,44,20,28,108,38,16,08,061,*7E
$GPGSV,3,3,09,08,05,190,*45
$GPRMC,063830.215,A,4709.8161,N,00831.0136,E,0.00,,050807,,,A*78
$GPVTG,,T,,M,0.00,N,0.0,K,A*13
$GPGGA,063831.215,4709.8161,N,00831.0136,E,1,07,1.2,500.6,M,,,,0000*0B
$GPGLL,4709.8161,N,00831.0136,E,063831.215,A,A*5A
$GPRMC,063831.215,A,4709.8161,N,00831.0136,E,0.00,,050807,,,A*79
$GPVTG,,T,,M,0.00,N,0.0,K,A*13
$GPGGA,063832.215,4709.8161,N,00831.0136,E,1,07,1.2,500.6,M,,,,0000*08
$GPGLL,4709.8161,N,00831.0136,E,063832.215,A,A*59
$GPRMC,063832.215,A,4709.8161,N,00831.0136,E,0.00,,050807,,,A*7A
$GPVTG,,T,,M,0.00,N,0.0,K,A*13
$GPGGA,063833.215,4709.8161,N,00831.0136,E,1,07,1.2,500.6,M,,,,0000*09
$GPGLL,4709.8161,N,00831.0136,E,063833.215,A,A*58
$GPRMC,063833.215,A,4709.8161,N,00831.0136,E,0.00,,050807,,,A*7B
$GPVTG,,T,,M,0.00,N,0.0,K,A*13
$GPGGA,063834.215,4709.8161,N,00831.0136,E,1,07,1.2,500.6,M,,,,0000*0E
$GPGLL,4709.8161,N,00831.0136,E,063834.215,A,A*5F
$GPGSA,A,3,04,13,23,25,02,20,27,,,,,,2.4,1.2,2.1*31
$GPGSV,3,1,09,13,85,340,37,04,58,262,39,23,56,056,35,25,47,164,41*7E
$GPGSV,3,2,09,02,32,306,39,27,30,180,43,20,28,108,36,16,08,061,*79
$GPGSV,3,3,09,08,05,190,*45
$GPRMC,063834.215,A,4709.8161,N,00831.0136,E,0.00,,050807,,,A*7C
$GPVTG,,T,,M,0.00,N,0.0,K,A*13
$GPGGA,063835.215,4709.8161,N,00831.0136,E,1,07,1.2,500.6,M,,,,0000*0F
$GPGLL,4709.8161,N,00831.0136,E,063835.215,A,A*5E
$GPRMC,063835.215,A,4709.8161,N,00831.0136,E,0.00,,050807,,,A*7D
$GPVTG,,T,,M,0.00,N,0.0,K,A*13
$GPGGA,063836.215,4709.8161,N,00831.0136,E,1,07,1.2,500.6,M,,,,0000*0C
$GPGLL,4709.8161,N,00831.0136,E,063836.215,A,A*5D
$GPRMC,063836.215,A,4709.8161,N,00831.0136,E,0.00,,050807,,,A*7E
$GPVTG,,T,,M,0.00,N,0.0,K,A*13
$GPGGA,063837.214,4709.8161,N,00831.0136,E,1,07,1.2,500.6,M,,,,0000*0C
$GPGLL,4709.8161,N,00831.0136,E,063837.214,A,A*5D
$GPRMC,063837.214,A,4709.8161,N,00831.0136,E,0.00,,050807,,,A*7E
$GPVTG,,T,,M,0.00,N,0.0,K,A*13
$GPGGA,063838.214,4709.8161,N,00831.0136,E,1,07,1.2,500.6,M,,,,0000*03
$GPGLL,4709.8161,N,00831.0136,E,063838.214,A,A*52
$GPGSA,A,3,04,13,23,25,02,20,27,,,,,,2.5,1.2,2.1*30
$GPGSV,3,1,09,13,85,340,35,04,58,262,41,23,56,056,38,25,47,164,42*7D
$GPGSV,3,2,09,02,32,306,35,27,30,180,42,20,28,108,35,16,08,061,*77
$GPGSV,3,3,09,08,05,190,*45
$GPRMC,063838.214,A,4709.8161,N,00831.0136,E,0.00,,050807,,,A*71
$GPVTG,,T,,M,0.00,N,0.0,K,A*13
$GPGGA,063839.214,4709.8161,N,00831.0136,E,1,07,1.2,500.6,M,,,,0000*02
$GPGLL,4709.8161,N,00831.0136,E,063839.214,A,A*53
$GPRMC,063839.214,A,4709.8161,N,00831.0136,E,0.00,,050807,,,A*70
$GPVTG,,T,,M,0.00,N,0.0,K,A*13
$GPGGA,063840.214,4709.8161,N,00831.0136,E,1,07,1.2,500.6,M,,,,0000*0C
$GPGLL,4709.8161,N,00831.0136,E,063840.214,A,A*5D
$GPRMC,063840.214,A,4709.8161,N,00831.0136,E,0.00,,050807,,,A*7E
$GPVTG,,T,,M,0.00,N,0.0,K,A*13
$GPGGA,063841.214,4709.8161,N,00831.0136,E,1,07,1.2,500.6,M,,,,0000*0D
$GPGLL,4709.8161,N,00831.0136,E,063841.214,A,A*5C
$GPRMC,063841.214,A,4709.8161,N,00831.0136,E,0.00,,050807,,,A*7F
$GPVTG,,T,,M,0.00,N,0.0,K,A*13
$GPGGA,063842.214,4709.8167,N,00831.0135,E,1,07,1.2,500.5,M,,,,0000*08
$GPGLL,4709.8167,N,00831.0135,E,063842.214,A,A*5A
$GPGSA,A,3,04,13,23,25,02,20,27,,,,,,2.5,1.2,2.1*30
$GPGSV,3,1,09,13,85,340,37,04,58,262,41,23,56,056,38,25,47,164,41*7C
$GPGSV,3,2,09,02,32,306,35,27,30,180,44,20,28,108,36,16,08,061,*72
$GPGSV,3,3,09,08,05,190,*45
$GPRMC,063842.214,A,4709.8167,N,00831.0135,E,2.03,7.38,050807,,,A*6A
$GPVTG,7.38,T,,M,2.03,N,3.8,K,A*0B
$GPGGA,063843.214,4709.8179,N,00831.0137,E,1,07,1.2,500.2,M,,,,0000*03
$GPGLL,4709.8179,N,00831.0137,E,063843.214,A,A*56
$GPRMC,063843.214,A,4709.8179,N,00831.0137,E,3.57,24.82,050807,,,A*56
$GPVTG,24.82,T,,M,3.57,N,6.6,K,A*30
$GPGGA,063844.214,4709.8193,N,00831.0144,E,1,07,1.2,499.9,M,,,,0000*0E
$GPGLL,4709.8193,N,00831.0144,E,063844.214,A,A*51
$GPRMC,063844.214,A,4709.8193,N,00831.0144,E,4.54,29.61,050807,,,A*55
$GPVTG,29.61,T,,M,4.54,N,8.4,K,A*38
$GPGGA,063845.214,4709.8209,N,00831.0151,E,1,07,1.2,499.2,M,,,,0000*00
$GPGLL,4709.8209,N,00831.0151,E,063845.214,A,A*54
$GPRMC,063845.214,A,4709.8209,N,00831.0151,E,4.27,13.99,050807,,,A*5A
$GPVTG,13.99,T,,M,4.27,N,7.9,K,A*30
$GPGGA,063846.214,4709.8225,N,00831.0152,E,1,07,1.2,498.4,M,,,,0000*09
$GPGLL,4709.8225,N,00831.0152,E,063846.214,A,A*5A
$GPGSA,A,3,04,13,23,25,02,20,27,,,,,,2.5,1.2,2.1*30
$GPGSV,3,1,09,13,85,340,36,04,58,262,40,23,56,056,37,25,47,164,42*70
$GPGSV,3,2,09,02,32,306,39,27,30,180,44,20,28,108,40,16,08,061,*7F
$GPGSV,3,3,09,08,05,190,*45
$GPRMC,063846.214,A,4709.8225,N,00831.0152,E,4.52,359.25,050807,,,A*6C
$GPVTG,359.25,T,,M,4.52,N,8.4,K,A*0A
$GPGGA,063847.214,4709.8240,N,00831.0149,E,1,07,1.2,497.5,M,,,,0000*0F
$GPGLL,4709.8240,N,00831.0149,E,063847.214,A,A*52
$GPRMC,063847.214,A,4709.8240,N,00831.0149,E,5.31,343.81,050807,,,A*65
$GPVTG,343.81,T,,M,5.31,N,9.8,K,A*06
$GPGGA,063848.214,4709.8255,N,00831.0141,E,1,07,1.2,496.7,M,,,,0000*0F
$GPGLL,4709.8255,N,00831.0141,E,063848.214,A,A*51
$GPRMC,063848.214,A,4709.8255,N,00831.0141,E,5.17,331.17,050807,,,A*68
$GPVTG,331.17,T,,M,5.17,N,9.6,K,A*06
$GPGGA,063849.214,4709.8268,N,00831.0131,E,1,07,1.2,496.4,M,,,,0000*04
$GPGLL,4709.8268,N,00831.0131,E,063849.214,A,A*59
$GPRMC,063849.214,A,4709.8268,N,00831.0131,E,5.98,323.78,050807,,,A*6D
$GPVTG,323.78,T,,M,5.98,N,11.1,K,A*35
$GPGGA,063850.214,4709.8283,N,00831.0118,E,1,07,1.2,496.4,M,,,,0000*02
$GPGLL,4709.8283,N,00831.0118,E,063850.214,A,A*5F
$GPGSA,A,3,04,13,23,25,02,20,27,,,,,,2.5,1.2,2.1*30
$GPGSV,3,1,09,13,85,343,37,04,58,262,37,23,56,056,35,25,47,164,42*70
$GPGSV,3,2,09,02,32,306,30,27,30,180,44,20,28,108,42,16,08,061,*74
$GPGSV,3,3,09,08,05,189,*4D
$GPRMC,063850.214,A,4709.8283,N,00831.0118,E,6.68,325.06,050807,,,A*68
$GPVTG,325.06,T,,M,6.68,N,12.4,K,A*30
$GPGGA,063851.214,4709.8297,N,00831.0101,E,1,07,1.2,496.8,M,,,,0000*02
$GPGLL,4709.8297,N,00831.0101,E,063851.214,A,A*53
$GPRMC,063851.214,A,4709.8297,N,00831.0101,E,7.20,322.99,050807,,,A*68
$GPVTG,322.99,T,,M,7.20,N,13.3,K,A*3A
$GPGGA,063852.214,4709.8311,N,00831.0083,E,1,07,1.2,497.1,M,,,,0000*0D
$GPGLL,4709.8311,N,00831.0083,E,063852.214,A,A*54
$GPRMC,063852.214,A,4709.8311,N,00831.0083,E,7.19,317.55,050807,,,A*63
$GPVTG,317.55,T,,M,7.19,N,13.3,K,A*36
$GPGGA,063853.214,4709.8324,N,00831.0067,E,1,07,1.2,497.4,M,,,,0000*05
$GPGLL,4709.8324,N,00831.0067,E,063853.214,A,A*59
$GPRMC,063853.214,A,4709.8324,N,00831.0067,E,6.47,323.32,050807,,,A*62
$GPVTG,323.32,T,,M,6.47,N,12.0,K,A*38
$GPGGA,063854.213,4709.8336,N,00831.0056,E,1,07,1.2,497.4,M,,,,0000*04
$GPGLL,4709.8336,N,00831.0056,E,063854.213,A,A*58
$GPGSA,A,3,04,13,23,25,02,20,27,,,,,,2.5,1.2,2.1*30
$GPGSV,3,1,09,13,85,343,37,04,58,262,37,23,56,056,35,25,47,164,43*71
$GPGSV,3,2,09,02,32,306,35,27,30,180,45,20,28,108,38,16,08,061,*7D
$GPGSV,3,3,09,08,05,189,*4D
$GPRMC,063854.213,A,4709.8336,N,00831.0056,E,4.88,331.37,050807,,,A*64
$GPVTG,331.37,T,,M,4.88,N,9.0,K,A*05
$GPGGA,063855.213,4709.8351,N,00831.0048,E,1,07,1.2,496.4,M,,,,0000*0A
$GPGLL,4709.8351,N,00831.0048,E,063855.213,A,A*57
$GPRMC,063855.213,A,4709.8351,N,00831.0048,E,5.72,346.46,050807,,,A*69
$GPVTG,346.46,T,,M,5.72,N,10.6,K,A*39
$GPGGA,063856.213,4709.8370,N,00831.0045,E,1,07,1.2,495.0,M,,,,0000*00
$GPGLL,4709.8370,N,00831.0045,E,063856.213,A,A*5A
$GPRMC,063856.213,A,4709.8370,N,00831.0045,E,6.69,6.69,050807,,,A*67
$GPVTG,6.69,T,,M,6.69,N,12.4,K,A*3A
$GPGGA,063857.213,4709.8391,N,00831.0049,E,1,07,1.2,493.9,M,,,,0000*0D
$GPGLL,4709.8391,N,00831.0049,E,063857.213,A,A*58
$GPRMC,063857.213,A,4709.8391,N,00831.0049,E,7.11,17.87,050807,,,A*5B
$GPVTG,17.87,T,,M,7.11,N,13.2,K,A*03
$GPGGA,063858.213,4709.8412,N,00831.0059,E,1,07,1.2,493.3,M,,,,0000*05
$GPGLL,4709.8412,N,00831.0059,E,063858.213,A,A*5A
$GPGSA,A,3,04,13,23,25,02,20,27,,,,,,2.5,1.2,2.1*30
$GPGSV,3,1,09,13,85,343,36,04,58,262,41,23,56,056,38,25,47,164,41*7E
$GPGSV,3,2,09,02,32,306,33,27,30,180,44,20,28,108,25,16,08,061,*76
$GPGSV,3,3,09,08,05,189,*4D
$GPRMC,063858.213,A,4709.8412,N,00831.0059,E,7.88,23.64,050807,,,A*53
$GPVTG,23.64,T,,M,7.88,N,14.6,K,A*0A
$GPGGA,063859.213,4709.8434,N,00831.0073,E,1,07,1.2,493.0,M,,,,0000*0B
$GPGLL,4709.8434,N,00831.0073,E,063859.213,A,A*57
$GPRMC,063859.213,A,4709.8434,N,00831.0073,E,8.03,24.69,050807,,,A*58
$GPVTG,24.69,T,,M,8.03,N,14.9,K,A*03
$GPGGA,063900.213,4709.8454,N,00831.0088,E,1,07,1.2,493.0,M,,,,0000*04
$GPGLL,4709.8454,N,00831.0088,E,063900.213,A,A*58
$GPRMC,063900.213,A,4709.8454,N,00831.0088,E,8.07,23.98,050807,,,A*5A
$GPVTG,23.98,T,,M,8.07,N,14.9,K,A*0E
$GPGGA,063901.213,4709.8475,N,00831.0105,E,1,07,1.2,493.0,M,,,,0000*02
$GPGLL,4709.8475,N,00831.0105,E,063901.213,A,A*5E
$GPRMC,063901.213,A,4709.8475,N,00831.0105,E,8.10,28.55,050807,,,A*50
$GPVTG,28.55,T,,M,8.10,N,15.0,K,A*0A
$GPGGA,063902.213,4709.8495,N,00831.0124,E,1,07,1.2,493.3,M,,,,0000*0F
$GPGLL,4709.8495,N,00831.0124,E,063902.213,A,A*50
$GPGSA,A,3,04,13,23,25,02,20,27,,,,,,2.5,1.2,2.1*30
$GPGSV,3,1,09,13,85,343,37,04,58,262,42,23,56,056,38,25,47,164,40*7D
$GPGSV,3,2,09,02,32,306,31,27,30,180,43,20,28,108,35,16,08,061,*72
$GPGSV,3,3,09,08,05,189,*4D
$GPRMC,063902.213,A,4709.8495,N,00831.0124,E,8.16,31.26,050807,,,A*54
$GPVTG,31.26,T,,M,8.16,N,15.1,K,A*01
$GPGGA,063903.213,4709.8515,N,00831.0142,E,1,07,1.2,493.5,M,,,,0000*01
$GPGLL,4709.8515,N,00831.0142,E,063903.213,A,A*58
$GPRMC,063903.213,A,4709.8515,N,00831.0142,E,7.72,30.81,050807,,,A*5D
$GPVTG,30.81,T,,M,7.72,N,14.3,K,A*03
$GPGGA,063904.213,4709.8534,N,00831.0158,E,1,07,1.2,493.6,M,,,,0000*0D
$GPGLL,4709.8534,N,00831.0158,E,063904.213,A,A*57
$GPRMC,063904.213,A,4709.8534,N,00831.0158,E,7.67,32.24,050807,,,A*5B
$GPVTG,32.24,T,,M,7.67,N,14.2,K,A*0B
$GPGGA,063905.213,4709.8551,N,00831.0173,E,1,07,1.2,493.3,M,,,,0000*03
$GPGLL,4709.8551,N,00831.0173,E,063905.213,A,A*5C
$GPRMC,063905.213,A,4709.8551,N,00831.0173,E,6.98,32.74,050807,,,A*54
$GPVTG,32.74,T,,M,6.98,N,12.9,K,A*02
$GPGGA,063906.213,4709.8567,N,00831.0187,E,1,07,1.2,492.9,M,,,,0000*05
$GPGLL,4709.8567,N,00831.0187,E,063906.213,A,A*51
$GPGSA,A,3,04,13,23,25,02,20,27,,,,,,2.5,1.2,2.1*30
$GPGSV,3,1,09,13,85,343,37,04,58,262,40,23,56,056,38,25,47,164,39*71
$GPGSV,3,2,09,02,32,306,36,27,30,180,40,20,28,108,22,16,08,061,*70
$GPGSV,3,3,09,08,05,189,*4D
$GPRMC,063906.213,A,4709.8567,N,00831.0187,E,6.38,32.25,050807,,,A*57
$GPVTG,32.25,T,,M,6.38,N,11.8,K,A*0E
$GPGGA,063907.213,4709.8584,N,00831.0202,E,1,07,1.2,492.7,M,,,,0000*09
$GPGLL,4709.8584,N,00831.0202,E,063907.213,A,A*53
$GPRMC,063907.213,A,4709.8584,N,00831.0202,E,6.93,30.15,050807,,,A*55
$GPVTG,30.15,T,,M,6.93,N,12.8,K,A*0D
$GPGGA,063908.213,4709.8603,N,00831.0216,E,1,07,1.2,492.6,M,,,,0000*0E
$GPGLL,4709.8603,N,00831.0216,E,063908.213,A,A*55
$GPRMC,063908.213,A,4709.8603,N,00831.0216,E,7.39,22.09,050807,,,A*5C
$GPVTG,22.09,T,,M,7.39,N,13.7,K,A*0C
$GPGGA,063909.213,4709.8623,N,00831.0228,E,1,07,1.2,492.6,M,,,,0000*00
$GPGLL,4709.8623,N,00831.0228,E,063909.213,A,A*5B
$GPRMC,063909.213,A,4709.8623,N,00831.0228,E,7.46,19.18,050807,,,A*52
$GPVTG,19.18,T,,M,7.46,N,13.8,K,A*03
$GPGGA,063910.212,4709.8645,N,00831.0240,E,1,07,1.2,492.4,M,,,,0000*05
$GPGLL,4709.8645,N,00831.0240,E,063910.212,A,A*5C
$GPGSA,A,3,04,13,23,25,02,20,27,,,,,,2.5,1.2,2.1*30
$GPGSV,3,1,09,13,85,343,37,04,58,262,41,23,56,056,35,25,47,164,42*71
$GPGSV,3,2,09,02,32,306,35,27,30,180,41,20,28,108,29,16,08,061,*79
$GPGSV,3,3,09,08,05,189,*4D
$GPRMC,063910.212,A,4709.8645,N,00831.0240,E,8.02,14.26,050807,,,A*5A
$GPVTG,14.26,T,,M,8.02,N,14.9,K,A*0A
$GPGGA,063911.212,4709.8667,N,00831.0250,E,1,07,1.2,491.8,M,,,,0000*0A
$GPGLL,4709.8667,N,00831.0250,E,063911.212,A,A*5C
$GPRMC,063911.212,A,4709.8667,N,00831.0250,E,8.70,8.13,050807,,,A*64
$GPVTG,8.13,T,,M,8.70,N,16.1,K,A*3E
$GPGGA,063912.212,4709.8692,N,00831.0255,E,1,07,1.2,491.2,M,,,,0000*0C
$GPGLL,4709.8692,N,00831.0255,E,063912.212,A,A*50
$GPRMC,063912.212,A,4709.8692,N,00831.0255,E,9.06,6.16,050807,,,A*63
$GPVTG,6.16,T,,M,9.06,N,16.8,K,A*3C
$GPGGA,063913.212,4709.8715,N,00831.0259,E,1,07,1.2,491.1,M,,,,0000*0C
$GPGLL,4709.8715,N,00831.0259,E,063913.212,A,A*53
$GPRMC,063913.212,A,4709.8715,N,00831.0259,E,9.06,5.41,050807,,,A*61
$GPVTG,5.41,T,,M,9.06,N,16.8,K,A*3D
$GPGGA,063914.212,4709.8738,N,00831.0261,E,1,07,1.2,491.2,M,,,,0000*0C
$GPGLL,4709.8738,N,00831.0261,E,063914.212,A,A*50
$GPGSA,A,3,04,13,23,25,02,20,27,,,,,,2.5,1.2,2.1*30
$GPGSV,3,1,09,13,85,343,36,04,58,262,39,23,56,056,27,25,47,164,43*7D
$GPGSV,3,2,09,02,32,306,22,27,30,180,42,20,28,108,26,16,08,061,*73
$GPGSV,3,3,09,08,05,189,*4D
$GPRMC,063914.212,A,4709.8738,N,00831.0261,E,9.16,0.53,050807,,,A*65
$GPVTG,0.53,T,,M,9.16,N,17.0,K,A*33
$GPGGA,063915.212,4709.8762,N,00831.0260,E,1,07,1.2,491.4,M,,,,0000*05
$GPGLL,4709.8762,N,00831.0260,E,063915.212,A,A*5F
$GPRMC,063915.212,A,4709.8762,N,00831.0260,E,9.53,357.27,050807,,,A*69
$GPVTG,357.27,T,,M,9.53,N,17.6,K,A*36
$GPGGA,063916.212,4709.8787,N,00831.0258,E,1,07,1.2,491.8,M,,,,0000*0A
$GPGLL,4709.8787,N,00831.0258,E,063916.212,A,A*5C
$GPRMC,063916.212,A,4709.8787,N,00831.0258,E,9.17,359.17,050807,,,A*67
$GPVTG,359.17,T,,M,9.17,N,17.0,K,A*3D
$GPGGA,063917.212,4709.8812,N,00831.0257,E,1,07,1.2,492.0,M,,,,0000*0C
$GPGLL,4709.8812,N,00831.0257,E,063917.212,A,A*51
$GPRMC,063917.212,A,4709.8812,N,00831.0257,E,9.75,357.06,050807,,,A*60
$GPVTG,357.06,T,,M,9.75,N,18.1,K,A*39
$GPGGA,063918.212,4709.8840,N,00831.0260,E,1,07,1.2,492.3,M,,,,0000*03
$GPGLL,4709.8840,N,00831.0260,E,063918.212,A,A*5D
$GPGSA,A,3,04,13,23,25,02,20,27,,,,,,2.5,1.2,2.1*30
$GPGSV,3,1,09,13,84,345,38,04,58,261,22,23,56,056,36,25,47,163,43*7A
$GPGSV,3,2,09,02,32,306,20,27,30,180,42,20,28,108,29,16,09,061,*7F
$GPGSV,3,3,09,08,05,189,*4D
$GPRMC,063918.212,A,4709.8840,N,00831.0260,E,9.59,6.90,050807,,,A*6A
$GPVTG,6.90,T,,M,9.59,N,17.8,K,A*39
$GPGGA,063919.212,4709.8868,N,00831.0266,E,1,06,1.5,492.5,M,,,,0000*0E
$GPGLL,4709.8868,N,00831.0266,E,063919.212,A,A*50
$GPRMC,063919.212,A,4709.8868,N,00831.0266,E,9.96,6.94,050807,,,A*60
$GPVTG,6.94,T,,M,9.96,N,18.4,K,A*3D
$GPGGA,063920.212,4709.8897,N,00831.0275,E,1,07,1.2,492.5,M,,,,0000*00
$GPGLL,4709.8897,N,00831.0275,E,063920.212,A,A*58
$GPRMC,063920.212,A,4709.8897,N,00831.0275,E,9.94,13.84,050807,,,A*5F
$GPVTG,13.84,T,,M,9.94,N,18.4,K,A*0A
$GPGGA,063921.212,4709.8925,N,00831.0288,E,1,07,1.2,492.4,M,,,,0000*0A
$GPGLL,4709.8925,N,00831.0288,E,063921.212,A,A*53
$GPRMC,063921.212,A,4709.8925,N,00831.0288,E,9.88,19.30,050807,,,A*5C
$GPVTG,19.30,T,,M,9.88,N,18.3,K,A*05
$GPGGA,063922.212,4709.8949,N,00831.0306,E,1,06,1.5,492.4,M,,,,0000*02
$GPGLL,4709.8949,N,00831.0306,E,063922.212,A,A*5D
$GPGSA,A,3,04,13,25,02,20,27,,,,,,,2.6,1.5,2.2*36
$GPGSV,3,1,09,13,84,345,36,04,58,261,41,23,56,056,39,25,47,163,36*7C
$GPGSV,3,2,09,02,32,306,38,27,30,180,35,20,28,108,20,16,09,061,*7F
$GPGSV,3,3,09,08,05,189,*4D
$GPRMC,063922.212,A,4709.8949,N,00831.0306,E,9.42,30.10,050807,,,A*5D
$GPVTG,30.10,T,,M,9.42,N,17.5,K,A*03
$GPGGA,063923.212,4709.8969,N,00831.0331,E,1,07,1.2,492.9,M,,,,0000*0E
$GPGLL,4709.8969,N,00831.0331,E,063923.212,A,A*5A
$GPRMC,063923.212,A,4709.8969,N,00831.0331,E,8.70,37.54,050807,,,A*5D
$GPVTG,37.54,T,,M,8.70,N,16.1,K,A*01
$GPGGA,063924.212,4709.8989,N,00831.0357,E,1,06,1.3,492.7,M,,,,0000*09
$GPGLL,4709.8989,N,00831.0357,E,063924.212,A,A*53
$GPRMC,063924.212,A,4709.8989,N,00831.0357,E,8.42,39.11,050807,,,A*5A
$GPVTG,39.11,T,,M,8.42,N,15.6,K,A*0B
$GPGGA,063925.212,4709.9010,N,00831.0381,E,1,07,1.2,491.6,M,,,,0000*09
$GPGLL,4709.9010,N,00831.0381,E,063925.212,A,A*51
$GPRMC,063925.212,A,4709.9010,N,00831.0381,E,8.94,37.03,050807,,,A*5E
$GPVTG,37.03,T,,M,8.94,N,16.6,K,A*0E
$GPGGA,063926.211,4709.9031,N,00831.0404,E,1,06,1.5,490.3,M,,,,0000*02
$GPGLL,4709.9031,N,00831.0404,E,063926.211,A,A*58
$GPGSA,A,3,04,13,23,25,02,20,,,,,,,2.7,1.5,2.3*32
$GPGSV,3,1,09,13,84,345,38,04,58,261,41,23,56,056,38,25,47,163,32*77
$GPGSV,3,2,09,02,32,306,36,27,30,180,24,20,28,108,23,16,09,061,*72
$GPGSV,3,3,09,08,05,189,*4D
$GPRMC,063926.211,A,4709.9031,N,00831.0404,E,8.96,40.10,050807,,,A*57
$GPVTG,40.10,T,,M,8.96,N,16.6,K,A*0E
$GPGGA,063927.211,4709.9052,N,00831.0428,E,1,07,1.2,489.5,M,,,,0000*00
$GPGLL,4709.9052,N,00831.0428,E,063927.211,A,A*52
$GPRMC,063927.211,A,4709.9052,N,00831.0428,E,9.19,38.02,050807,,,A*57
$GPVTG,38.02,T,,M,9.19,N,17.0,K,A*03
$GPGGA,063928.211,4709.9072,N,00831.0448,E,1,07,1.2,488.7,M,,,,0000*08
$GPGLL,4709.9072,N,00831.0448,E,063928.211,A,A*59
$GPRMC,063928.211,A,4709.9072,N,00831.0448,E,8.68,30.62,050807,,,A*55
$GPVTG,30.62,T,,M,8.68,N,16.1,K,A*0A
$GPGGA,063929.211,4709.9092,N,00831.0465,E,1,07,1.2,488.0,M,,,,0000*0F
$GPGLL,4709.9092,N,00831.0465,E,063929.211,A,A*59
$GPRMC,063929.211,A,4709.9092,N,00831.0465,E,8.46,28.65,050807,,,A*57
$GPVTG,28.65,T,,M,8.46,N,15.7,K,A*0D
$GPGGA,063930.211,4709.9113,N,00831.0479,E,1,07,1.2,487.9,M,,,,0000*04
$GPGLL,4709.9113,N,00831.0479,E,063930.211,A,A*54
$GPGSA,A,3,04,13,23,25,02,20,27,,,,,,2.5,1.2,2.1*30
$GPGSV,3,1,09,13,84,345,38,04,58,261,41,23,56,056,37,25,47,163,25*7E
$GPGSV,3,2,09,02,32,306,24,27,30,180,23,20,28,108,23,16,09,061,*76
$GPGSV,3,3,09,08,05,189,*4D
$GPRMC,063930.211,A,4709.9113,N,00831.0479,E,8.60,21.18,050807,,,A*5D
$GPVTG,21.18,T,,M,8.60,N,15.9,K,A*04
$GPGGA,063931.211,4709.9133,N,00831.0489,E,1,07,1.2,487.8,M,,,,0000*09
$GPGLL,4709.9133,N,00831.0489,E,063931.211,A,A*58
$GPRMC,063931.211,A,4709.9133,N,00831.0489,E,7.09,21.57,050807,,,A*5A
$GPVTG,21.57,T,,M,7.09,N,13.1,K,A*01
$GPGGA,063932.211,4709.9149,N,00831.0497,E,1,07,1.2,487.6,M,,,,0000*06
$GPGLL,4709.9149,N,00831.0497,E,063932.211,A,A*59
$GPRMC,063932.211,A,4709.9149,N,00831.0497,E,5.99,19.50,050807,,,A*5C
$GPVTG,19.50,T,,M,5.99,N,11.1,K,A*04
$GPGGA,063933.211,4709.9161,N,00831.0504,E,1,07,1.2,487.3,M,,,,0000*03
$GPGLL,4709.9161,N,00831.0504,E,063933.211,A,A*59
$GPRMC,063933.211,A,4709.9161,N,00831.0504,E,4.41,18.72,050807,,,A*59
$GPVTG,18.72,T,,M,4.41,N,8.2,K,A*3A
$GPGGA,063934.211,4709.9172,N,00831.0509,E,1,07,1.2,487.0,M,,,,0000*08
$GPGLL,4709.9172,N,00831.0509,E,063934.211,A,A*51
$GPGSA,A,3,04,13,23,25,02,20,27,,,,,,2.5,1.2,2.1*30
$GPGSV,3,1,09,13,84,345,37,04,58,261,41,23,56,056,38,25,47,163,35*7F
$GPGSV,3,2,09,02,32,306,23,27,30,180,36,20,28,108,21,16,09,061,*77
$GPGSV,3,3,09,08,05,189,*4D
$GPRMC,063934.211,A,4709.9172,N,00831.0509,E,4.85,11.45,050807,,,A*54
$GPVTG,11.45,T,,M,4.85,N,9.0,K,A*3C
$GPGGA,063935.211,4709.9185,N,00831.0513,E,1,07,1.2,486.8,M,,,,0000*03
$GPGLL,4709.9185,N,00831.0513,E,063935.211,A,A*53
$GPRMC,063935.211,A,4709.9185,N,00831.0513,E,5.59,8.35,050807,,,A*69
$GPVTG,8.35,T,,M,5.59,N,10.3,K,A*38
$GPGGA,063936.211,4709.9201,N,00831.0518,E,1,07,1.2,486.7,M,,,,0000*0B
$GPGLL,4709.9201,N,00831.0518,E,063936.211,A,A*54
$GPRMC,063936.211,A,4709.9201,N,00831.0518,E,6.72,9.77,050807,,,A*63
$GPVTG,9.77,T,,M,6.72,N,12.4,K,A*30
$GPGGA,063937.211,4709.9219,N,00831.0522,E,1,07,1.2,486.9,M,,,,0000*04
$GPGLL,4709.9219,N,00831.0522,E,063937.211,A,A*55
$GPRMC,063937.211,A,4709.9219,N,00831.0522,E,5.97,7.28,050807,,,A*6E
$GPVTG,7.28,T,,M,5.97,N,11.1,K,A*3A
$GPGGA,063938.211,4709.9235,N,00831.0524,E,1,07,1.2,487.4,M,,,,0000*0F
$GPGLL,4709.9235,N,00831.0524,E,063938.211,A,A*52
$GPGSA,A,3,04,13,23,25,02,20,27,,,,,,2.5,1.2,2.1*30
$GPGSV,3,1,09,13,84,345,35,04,58,261,39,23,56,056,27,25,47,163,42*7C
$GPGSV,3,2,09,02,32,306,32,27,30,180,40,20,28,108,21,16,09,061,*76
$GPGSV,3,3,09,08,05,189,*4D
$GPRMC,063938.211,A,4709.9235,N,00831.0524,E,6.03,2.85,050807,,,A*65
$GPVTG,2.85,T,,M,6.03,N,11.2,K,A*35
$GPGGA,063939.211,4709.9252,N,00831.0526,E,1,07,1.2,487.8,M,,,,0000*01
$GPGLL,4709.9252,N,00831.0526,E,063939.211,A,A*50
$GPRMC,063939.211,A,4709.9252,N,00831.0526,E,6.14,3.43,050807,,,A*6A
$GPVTG,3.43,T,,M,6.14,N,11.4,K,A*3E
$GPGGA,063940.211,4709.9267,N,00831.0526,E,1,07,1.2,488.0,M,,,,0000*0E
$GPGLL,4709.9267,N,00831.0526,E,063940.211,A,A*58
$GPRMC,063940.211,A,4709.9267,N,00831.0526,E,5.72,348.85,050807,,,A*67
$GPVTG,348.85,T,,M,5.72,N,10.6,K,A*38
$GPGGA,063941.211,4709.9285,N,00831.0518,E,1,07,1.2,486.7,M,,,,0000*07
$GPGLL,4709.9285,N,00831.0518,E,063941.211,A,A*58
$GPRMC,063941.211,A,4709.9285,N,00831.0518,E,6.20,344.78,050807,,,A*6D
$GPVTG,344.78,T,,M,6.20,N,11.5,K,A*30
$GPGGA,063942.211,4709.9302,N,00831.0509,E,1,07,1.2,485.6,M,,,,0000*08
$GPGLL,4709.9302,N,00831.0509,E,063942.211,A,A*55
$GPGSA,A,3,04,13,23,25,02,20,27,,,,,,2.5,1.2,2.1*30
$GPGSV,3,1,09,13,84,345,35,04,58,261,35,23,56,056,35,25,47,163,42*73
$GPGSV,3,2,09,02,32,306,31,27,30,180,42,20,28,108,35,16,09,061,*72
$GPGSV,3,3,09,08,05,189,*4D
$GPRMC,063942.211,A,4709.9302,N,00831.0509,E,6.45,339.93,050807,,,A*6C
$GPVTG,339.93,T,,M,6.45,N,12.0,K,A*3A
$GPGGA,063943.210,4709.9318,N,00831.0495,E,1,07,1.2,484.9,M,,,,0000*09
$GPGLL,4709.9318,N,00831.0495,E,063943.210,A,A*5A
$GPRMC,063943.210,A,4709.9318,N,00831.0495,E,6.70,331.70,050807,,,A*60
$GPVTG,331.70,T,,M,6.70,N,12.4,K,A*3D
$GPGGA,063944.210,4709.9333,N,00831.0475,E,1,07,1.2,485.2,M,,,,0000*03
$GPGLL,4709.9333,N,00831.0475,E,063944.210,A,A*5A
$GPRMC,063944.210,A,4709.9333,N,00831.0475,E,6.76,327.93,050807,,,A*6C
$GPVTG,327.93,T,,M,6.76,N,12.5,K,A*30
$GPGGA,063945.210,4709.9346,N,00831.0456,E,1,07,1.2,486.0,M,,,,0000*00
$GPGLL,4709.9346,N,00831.0456,E,063945.210,A,A*58
$GPRMC,063945.210,A,4709.9346,N,00831.0456,E,6.59,323.36,050807,,,A*68
$GPVTG,323.36,T,,M,6.59,N,12.2,K,A*31
$GPGGA,063946.210,4709.9358,N,00831.0435,E,1,07,1.2,487.1,M,,,,0000*09
$GPGLL,4709.9358,N,00831.0435,E,063946.210,A,A*51
$GPGSA,A,3,04,13,23,25,02,20,27,,,,,,2.5,1.2,2.1*30
$GPGSV,3,1,09,13,84,345,34,04,58,261,37,23,56,056,23,25,47,163,39*7B
$GPGSV,3,2,09,02,32,306,23,27,30,180,30,20,28,108,38,16,09,061,*79
$GPGSV,3,3,09,08,05,189,*4D
$GPRMC,063946.210,A,4709.9358,N,00831.0435,E,6.54,313.82,050807,,,A*60
$GPVTG,313.82,T,,M,6.54,N,12.1,K,A*33
$GPGGA,063947.210,4709.9369,N,00831.0414,E,1,07,1.2,488.0,M,,,,0000*07
$GPGLL,4709.9369,N,00831.0414,E,063947.210,A,A*51
$GPRMC,063947.210,A,4709.9369,N,00831.0414,E,6.98,317.15,050807,,,A*6A
$GPVTG,317.15,T,,M,6.98,N,12.9,K,A*31
$GPGGA,063948.210,4709.9382,N,00831.0395,E,1,07,1.2,488.5,M,,,,0000*06
$GPGLL,4709.9382,N,00831.0395,E,063948.210,A,A*55
$GPRMC,063948.210,A,4709.9382,N,00831.0395,E,7.32,325.73,050807,,,A*6E
$GPVTG,325.73,T,,M,7.32,N,13.6,K,A*3F
$GPGGA,063949.210,4709.9396,N,00831.0379,E,1,07,1.2,489.0,M,,,,0000*04
$GPGLL,4709.9396,N,00831.0379,E,063949.210,A,A*53
$GPRMC,063949.210,A,4709.9396,N,00831.0379,E,6.79,331.78,050807,,,A*68
$GPVTG,331.78,T,,M,6.79,N,12.6,K,A*3E
$GPGGA,063950.210,4709.9411,N,00831.0367,E,1,07,1.2,489.5,M,,,,0000*0E
