$GPGSA,A,3,28,20,23,08,,,,,,,,,3.5,2.7,2.2*30
$GPGSV,3,1,09,28,64,002,45,17,56,178,,04,47,266,,20,39,126,36*7F
$GPGSV,3,2,09,02,16,286,,11,14,121,,23,09,072,42,08,07,344,42*7E
$GPGSV,3,3,09,13,06,043,32*42
$GPRMC,062701.724,A,2608.6661,S,02758.8546,E,0.00,,160907,,,A*6B
$GPGGA,062702.724,2608.6661,S,02758.8546,E,1,04,2.7,1663.5,M,,,,0000*28
$GPGSA,A,3,28,20,23,08,,,,,,,,,3.5,2.7,2.2*30
$GPRMC,062702.724,A,2608.6661,S,02758.8546,E,0.00,,160907,,,A*68
$GPGGA,062703.724,2608.6661,S,02758.8546,E,1,04,2.7,1663.5,M,,,,0000*29
$GPGSA,A,3,28,20,23,08,,,,,,,,,3.5,2.7,2.2*30
$GPRMC,062703.724,A,2608.6661,S,02758.8546,E,0.00,,160907,,,A*69
$GPGGA,062704.724,2608.6661,S,02758.8546,E,1,04,2.7,1663.5,M,,,,0000*2E
$GPGSA,A,3,28,20,23,08,,,,,,,,,3.5,2.7,2.2*30
$GPRMC,062704.724,A,2608.6661,S,02758.8546,E,0.00,,160907,,,A*6E
$GPGGA,062705.724,2608.6661,S,02758.8546,E,1,04,2.7,1663.5,M,,,,0000*2F
$GPGSA,A,3,28,20,23,08,,,,,,,,,3.5,2.7,2.2*30
$GPRMC,062705.724,A,2608.6661,S,02758.8546,E,0.00,,160907,,,A*6F
$GPGGA,062706.724,2608.6661,S,02758.8546,E,1,04,2.7,1663.5,M,,,,0000*2C
$GPGSA,A,3,28,20,23,08,,,,,,,,,3.5,2.7,2.2*30
$GPGSV,3,1,09,28,64,002,45,17,56,178,,04,47,266,,20,39,126,37*7E
$GPGSV,3,2,09,02,16,286,,11,14,121,,23,09,072,42,08,07,344,42*7E
$GPGSV,3,3,09,13,06,044,32*45
$GPRMC,062706.724,A,2608.6661,S,02758.8546,E,0.00,,160907,,,A*6C
$GPGGA,062707.723,2608.6661,S,02758.8546,E,1,04,2.7,1663.5,M,,,,0000*2A
$GPGSA,A,3,28,20,23,08,,,,,,,,,3.5,2.7,2.2*30
$GPRMC,062707.723,A,2608.6661,S,02758.8546,E,0.00,,160907,,,A*6A
$GPGGA,062708.723,2608.6661,S,02758.8546,E,1,04,2.7,1663.5,M,,,,0000*25
$GPGSA,A,3,28,20,23,08,,,,,,,,,3.5,2.7,2.2*30
$GPRMC,062708.723,A,2608.6661,S,02758.8546,E,0.00,,160907,,,A*65
$GPGGA,062709.723,2608.6661,S,02758.8546,E,1,04,2.7,1663.5,M,,,,0000*24
$GPGSA,A,3,28,20,23,08,,,,,,,,,3.5,2.7,2.2*30
$GPRMC,062709.723,A,2608.6661,S,02758.8546,E,0.00,,160907,,,A*64
$GPGGA,062710.723,2608.6661,S,02758.8546,E,1,04,2.7,1663.5,M,,,,0000*2C
$GPGSA,A,3,28,20,23,08,,,,,,,,,3.5,2.7,2.2*30
$GPRMC,062710.723,A,2608.6661,S,02758.8546,E,0.00,,160907,,,A*6C
$GPGGA,062711.723,2608.6661,S,02758.8546,E,1,04,2.7,1663.5,M,,,,0000*2D
$GPGSA,A,3,28,20,23,08,,,,,,,,,3.5,2.7,2.2*30
$GPGSV,3,1,09,28,64,002,46,17,56,178,,04,47,266,,20,39,126,39*73
$GPGSV,3,2,09,02,16,286,,11,14,121,,23,09,072,42,08,07,344,42*7E
$GPGSV,3,3,09,13,06,044,32*45
$GPRMC,062711.723,A,2608.6661,S,02758.8546,E,0.00,,160907,,,A*6D
$GPGGA,062712.723,2608.6661,S,02758.8546,E,1,04,2.7,1663.5,M,,,,0000*2E
$GPGSA,A,3,28,20,23,08,,,,,,,,,3.5,2.7,2.2*30
$GPRMC,062712.723,A,2608.6661,S,02758.8546,E,0.00,,160907,,,A*6E
$GPGGA,062713.723,2608.6661,S,02758.8546,E,1,04,2.7,1663.5,M,,,,0000*2F
$GPGSA,A,3,28,20,23,08,,,,,,,,,3.5,2.7,2.2*30
$GPRMC,062713.723,A,2608.6661,S,02758.8546,E,0.00,,160907,,,A*6F
$GPGGA,062714.723,2608.6661,S,02758.8546,E,1,04,2.7,1663.5,M,,,,0000*28
$GPGSA,A,3,28,20,23,08,,,,,,,,,3.5,2.7,2.2*30
$GPRMC,062714.723,A,2608.6661,S,02758.8546,E,0.00,,160907,,,A*68
$GPGGA,062715.723,2608.6661,S,02758.8546,E,1,04,2.7,1663.5,M,,,,0000*29
$GPGSA,A,3,28,20,23,08,,,,,,,,,3.5,2.7,2.2*30
$GPRMC,062715.723,A,2608.6661,S,02758.8546,E,0.00,,160907,,,A*69
$GPGGA,062716.723,2608.6661,S,02758.8546,E,1,04,2.7,1663.5,M,,,,0000*2A
$GPGSA,A,3,28,20,23,08,,,,,,,,,3.5,2.7,2.2*30
$GPGSV,3,1,09,28,64,002,46,17,56,178,,04,47,266,,20,39,126,38*72
$GPGSV,3,2,09,02,16,286,,11,14,121,,23,09,072,42,08,07,344,43*7F
$GPGSV,3,3,09,13,06,044,34*43
$GPRMC,062716.723,A,2608.6661,S,02758.8546,E,0.00,,160907,,,A*6A
$GPGGA,062717.723,2608.6661,S,02758.8546,E,1,04,2.7,1663.5,M,,,,0000*2B
$GPGSA,A,3,28,20,23,08,,,,,,,,,3.5,2.7,2.2*30
$GPRMC,062717.723,A,2608.6661,S,02758.8546,E,0.00,,160907,,,A*6B
$GPGGA,062718.723,2608.6661,S,02758.8546,E,1,04,2.7,1663.5,M,,,,0000*24
$GPGSA,A,3,28,20,23,08,,,,,,,,,3.5,2.7,2.2*30
$GPRMC,062718.723,A,2608.6661,S,02758.8546,E,0.00,,160907,,,A*64
$GPGGA,062719.723,2608.6661,S,02758.8546,E,1,04,2.7,1663.5,M,,,,0000*25
$GPGSA,A,3,28,20,23,08,,,,,,,,,3.5,2.7,2.2*30
$GPRMC,062719.723,A,2608.6661,S,02758.8546,E,0.00,,160907,,,A*65
$GPGGA,062720.723,2608.6661,S,02758.8546,E,1,04,2.7,1663.5,M,,,,0000*2F
$GPGSA,A,3,28,20,23,08,,,,,,,,,3.5,2.7,2.2*30
$GPRMC,062720.723,A,2608.6661,S,02758.8546,E,0.00,,160907,,,A*6F
$GPGGA,062721.723,2608.6661,S,02758.8546,E,1,04,2.7,1663.5,M,,,,0000*2E
$GPGSA,A,3,28,20,23,08,,,,,,,,,3.5,2.7,2.2*30
$GPGSV,3,1,09,28,64,002,47,17,56,178,,04,47,266,,20,39,126,37*7C
$GPGSV,3,2,09,02,16,286,,11,14,121,,23,09,072,42,08,07,344,42*7E
$GPGSV,3,3,09,13,06,044,35*42
$GPRMC,062721.723,A,2608.6661,S,02758.8546,E,0.00,,160907,,,A*6E
$GPGGA,062722.723,2608.6661,S,02758.8546,E,1,04,2.7,1663.5,M,,,,0000*2D
$GPGSA,A,3,28,20,23,08,,,,,,,,,3.5,2.7,2.2*30
$GPRMC,062722.723,A,2608.6661,S,02758.8546,E,0.00,,160907,,,A*6D
$GPGGA,062723.723,2608.6684,S,02758.8522,E,1,04,2.7,1660.3,M,,,,0000*20
$GPGSA,A,3,28,20,23,08,,,,,,,,,3.5,2.7,2.2*30
$GPRMC,062723.723,A,2608.6684,S,02758.8522,E,0.09,214.46,160907,,,A*77
$GPGGA,062724.722,2608.6684,S,02758.8522,E,1,04,2.7,1660.3,M,,,,0000*26
$GPGSA,A,3,28,20,23,08,,,,,,,,,3.5,2.7,2.2*30
$GPRMC,062724.722,A,2608.6684,S,02758.8522,E,0.00,,160907,,,A*63
$GPGGA,062725.722,2608.6684,S,02758.8522,E,1,04,2.7,1660.3,M,,,,0000*27
$GPGSA,A,3,28,20,23,08,,,,,,,,,3.5,2.7,2.2*30
$GPRMC,062725.722,A,2608.6684,S,02758.8522,E,0.00,,160907,,,A*62
$GPGGA,062726.722,2608.6684,S,02758.8522,E,1,04,2.7,1660.3,M,,,,0000*24
$GPGSA,A,3,28,20,23,08,,,,,,,,,3.5,2.7,2.2*30
$GPGSV,3,1,09,28,64,002,47,17,56,178,,04,47,266,,20,39,126,37*7C
$GPGSV,3,2,09,02,16,286,,11,14,121,,23,09,072,42,08,07,344,43*7F
$GPGSV,3,3,09,13,06,044,34*43
$GPRMC,062726.722,A,2608.6684,S,02758.8522,E,0.00,,160907,,,A*61
$GPGGA,062727.722,2608.6684,S,02758.8522,E,1,04,2.7,1660.3,M,,,,0000*25
$GPGSA,A,3,28,20,23,08,,,,,,,,,3.5,2.7,2.2*30
$GPRMC,062727.722,A,2608.6684,S,02758.8522,E,0.00,,160907,,,A*60
$GPGGA,062728.722,2608.6684,S,02758.8522,E,1,04,2.7,1660.3,M,,,,0000*2A
$GPGSA,A,3,28,20,23,08,,,,,,,,,3.5,2.7,2.2*30
$GPRMC,062728.722,A,2608.6684,S,02758.8522,E,0.00,,160907,,,A*6F
$GPGGA,062729.722,2608.6684,S,02758.8522,E,1,04,2.7,1660.3,M,,,,0000*2B
$GPGSA,A,3,28,20,23,08,,,,,,,,,3.5,2.7,2.2*30
$GPRMC,062729.722,A,2608.6684,S,02758.8522,E,0.00,,160907,,,A*6E
$GPGGA,062730.722,2608.6684,S,02758.8522,E,1,04,2.7,1660.3,M,,,,0000*23
$GPGSA,A,3,28,20,23,08,,,,,,,,,3.5,2.7,2.2*30
$GPRMC,062730.722,A,2608.6684,S,02758.8522,E,0.00,,160907,,,A*66
$GPGGA,062731.722,2608.6684,S,02758.8522,E,1,04,2.7,1660.3,M,,,,0000*22
$GPGSA,A,3,28,20,23,08,,,,,,,,,3.5,2.7,2.2*30
$GPGSV,3,1,09,28,64,002,47,17,56,178,,04,47,266,,20,39,126,35*7E
$GPGSV,3,2,09,02,16,286,,11,14,121,16,23,09,072,40,08,07,344,44*7D
$GPGSV,3,3,09,13,06,044,35*42
$GPRMC,062731.722,A,2608.6684,S,02758.8522,E,0.00,,160907,,,A*67
$GPGGA,062732.722,2608.6684,S,02758.8522,E,1,04,2.7,1660.3,M,,,,0000*21
$GPGSA,A,3,28,20,23,08,,,,,,,,,3.5,2.7,2.2*30
$GPRMC,062732.722,A,2608.6684,S,02758.8522,E,0.00,,160907,,,A*64
$GPGGA,062733.722,2608.6684,S,02758.8522,E,1,04,2.7,1660.3,M,,,,0000*20
$GPGSA,A,3,28,20,23,08,,,,,,,,,3.5,2.7,2.2*30
$GPRMC,062733.722,A,2608.6684,S,02758.8522,E,0.00,,160907,,,A*65
$GPGGA,062734.722,2608.6684,S,02758.8522,E,1,04,2.7,1660.3,M,,,,0000*27
$GPGSA,A,3,28,20,23,08,,,,,,,,,3.5,2.7,2.2*30
$GPRMC,062734.722,A,2608.6684,S,02758.8522,E,0.00,,160907,,,A*62
$GPGGA,062735.722,2608.6684,S,02758.8522,E,1,05,1.4,1660.3,M,,,,0000*27
$GPGSA,A,3,28,20,02,23,08,,,,,,,,2.2,1.4,1.7*32
$GPRMC,062735.722,A,2608.6684,S,02758.8522,E,0.00,,160907,,,A*63
$GPGGA,062736.722,2608.6684,S,02758.8522,E,1,05,1.4,1660.3,M,,,,0000*24
$GPGSA,A,3,28,20,02,23,08,,,,,,,,2.2,1.4,1.7*32
$GPGSV,3,1,09,28,64,002,47,17,56,178,,04,47,266,,20,39,126,30*7B
$GPGSV,3,2,09,02,16,286,22,11,14,121,,23,09,072,39,08,07,344,41*71
$GPGSV,3,3,09,13,06,044,31*46
$GPRMC,062736.722,A,2608.6684,S,02758.8522,E,0.00,,160907,,,A*60
$GPGGA,062737.722,2608.6684,S,02758.8522,E,1,05,1.4,1660.3,M,,,,0000*25
$GPGSA,A,3,28,20,02,23,08,,,,,,,,2.2,1.4,1.7*32
$GPRMC,062737.722,A,2608.6684,S,02758.8522,E,0.00,,160907,,,A*61
$GPGGA,062738.722,2608.6684,S,02758.8522,E,1,05,1.4,1660.3,M,,,,0000*2A
$GPGSA,A,3,28,20,02,23,08,,,,,,,,2.2,1.4,1.7*32
$GPRMC,062738.722,A,2608.6684,S,02758.8522,E,0.00,,160907,,,A*6E
$GPGGA,062739.722,2608.6684,S,02758.8522,E,1,05,1.4,1660.3,M,,,,0000*2B
$GPGSA,A,3,28,20,02,23,08,,,,,,,,2.2,1.4,1.7*32
$GPRMC,062739.722,A,2608.6684,S,02758.8522,E,0.00,,160907,,,A*6F
$GPGGA,062740.721,2608.6684,S,02758.8522,E,1,04,2.7,1660.3,M,,,,0000*27
$GPGSA,A,3,28,20,23,08,,,,,,,,,3.5,2.7,2.2*30
$GPRMC,062740.721,A,2608.6684,S,02758.8522,E,0.00,,160907,,,A*62
$GPGGA,062741.721,2608.6684,S,02758.8522,E,1,05,1.4,1660.3,M,,,,0000*27
$GPGSA,A,3,28,20,02,23,08,,,,,,,,2.2,1.4,1.7*32
$GPGSV,3,1,09,28,64,002,46,17,56,178,,04,47,266,48,20,39,126,36*70
$GPGSV,3,2,09,02,16,286,27,11,14,121,27,23,09,072,44,08,07,344,43*79
$GPGSV,3,3,09,13,06,044,43*43
$GPRMC,062741.721,A,2608.6684,S,02758.8522,E,0.00,,160907,,,A*63
$GPGGA,062742.721,2608.6684,S,02758.8522,E,1,05,1.4,1660.3,M,,,,0000*24
$GPGSA,A,3,28,20,02,23,08,,,,,,,,2.2,1.4,1.7*32
$GPRMC,062742.721,A,2608.6684,S,02758.8522,E,0.00,,160907,,,A*60
$GPGGA,062743.721,2608.6684,S,02758.8522,E,1,05,1.4,1660.3,M,,,,0000*25
$GPGSA,A,3,28,20,02,23,08,,,,,,,,2.2,1.4,1.7*32
$GPRMC,062743.721,A,2608.6684,S,02758.8522,E,0.00,,160907,,,A*61
$GPGGA,062744.721,2608.6684,S,02758.8522,E,1,06,1.2,1660.3,M,,,,0000*27
$GPGSA,A,3,28,20,02,11,23,08,,,,,,,2.0,1.2,1.5*34
$GPRMC,062744.721,A,2608.6684,S,02758.8522,E,0.00,,160907,,,A*66
$GPGGA,062745.721,2608.6684,S,02758.8522,E,1,06,1.2,1660.3,M,,,,0000*26
$GPGSA,A,3,28,20,02,11,23,08,,,,,,,2.0,1.2,1.5*34
$GPRMC,062745.721,A,2608.6684,S,02758.8522,E,0.00,,160907,,,A*67
$GPGGA,062746.721,2608.6684,S,02758.8522,E,1,06,1.2,1660.3,M,,,,0000*25
$GPGSA,A,3,28,20,02,11,23,08,,,,,,,2.0,1.2,1.5*34
$GPGSV,3,1,09,28,64,002,47,17,56,178,,04,47,266,,20,39,126,35*7E
$GPGSV,3,2,09,02,16,286,25,11,14,121,24,23,09,072,45,08,07,344,44*7E
$GPGSV,3,3,09,13,06,044,34*43
$GPRMC,062746.721,A,2608.6684,S,02758.8522,E,0.00,,160907,,,A*64
$GPGGA,062747.721,2608.6684,S,02758.8522,E,1,04,2.7,1660.3,M,,,,0000*20
$GPGSA,A,3,28,20,23,08,,,,,,,,,3.5,2.7,2.2*30
$GPRMC,062747.721,A,2608.6684,S,02758.8522,E,0.00,,160907,,,A*65
$GPGGA,062748.721,2608.6684,S,02758.8522,E,1,05,2.2,1660.3,M,,,,0000*2B
$GPGSA,A,3,28,20,11,23,08,,,,,,,,2.8,2.2,1.8*30
$GPRMC,062748.721,A,2608.6684,S,02758.8522,E,0.00,,160907,,,A*6A
$GPGGA,062749.721,2608.6684,S,02758.8522,E,1,04,2.7,1660.3,M,,,,0000*2E
$GPGSA,A,3,28,20,23,08,,,,,,,,,3.5,2.7,2.2*30
$GPRMC,062749.721,A,2608.6684,S,02758.8522,E,0.00,,160907,,,A*6B
$GPGGA,062750.721,2608.6684,S,02758.8522,E,1,07,1.1,1660.3,M,,,,0000*20
$GPGSA,A,3,28,04,20,02,11,23,08,,,,,,1.8,1.1,1.5*38
$GPRMC,062750.721,A,2608.6684,S,02758.8522,E,0.00,,160907,,,A*63
$GPGGA,062751.721,2608.6684,S,02758.8522,E,1,06,1.2,1660.3,M,,,,0000*23
$GPGSA,A,3,28,20,02,11,23,08,,,,,,,2.0,1.2,1.5*34
$GPGSV,3,1,09,28,63,002,45,17,56,177,,04,47,265,,20,39,126,35*77
$GPGSV,3,2,09,02,16,285,21,11,14,121,23,23,09,073,44,08,07,344,44*7E
$GPGSV,3,3,09,13,06,044,34*43
$GPRMC,062751.721,A,2608.6684,S,02758.8522,E,0.00,,160907,,,A*62
$GPGGA,062752.721,2608.6684,S,02758.8522,E,1,06,1.2,1660.3,M,,,,0000*20
$GPGSA,A,3,28,20,02,11,23,08,,,,,,,2.0,1.2,1.5*34
$GPRMC,062752.721,A,2608.6684,S,02758.8522,E,0.00,,160907,,,A*61
$GPGGA,062753.721,2608.6684,S,02758.8522,E,1,06,1.2,1660.3,M,,,,0000*21
$GPGSA,A,3,28,20,02,11,23,08,,,,,,,2.0,1.2,1.5*34
$GPRMC,062753.721,A,2608.6684,S,02758.8522,E,0.00,,160907,,,A*60
$GPGGA,062754.721,2608.6684,S,02758.8522,E,1,06,1.2,1660.3,M,,,,0000*26
$GPGSA,A,3,28,20,02,11,23,08,,,,,,,2.0,1.2,1.5*34
$GPRMC,062754.721,A,2608.6684,S,02758.8522,E,0.00,,160907,,,A*67
$GPGGA,062755.721,2608.6684,S,02758.8522,E,1,06,1.2,1660.3,M,,,,0000*27
$GPGSA,A,3,28,20,02,11,23,08,,,,,,,2.0,1.2,1.5*34
$GPRMC,062755.721,A,2608.6684,S,02758.8522,E,0.00,,160907,,,A*66
$GPGGA,062756.721,2608.6684,S,02758.8522,E,1,06,1.2,1660.3,M,,,,0000*24
$GPGSA,A,3,28,20,02,11,23,08,,,,,,,2.0,1.2,1.5*34
$GPGSV,3,1,09,28,63,002,47,17,56,177,,04,47,265,,20,39,126,35*75
$GPGSV,3,2,09,02,16,285,20,11,14,121,24,23,09,073,45,08,07,344,44*79
$GPGSV,3,3,09,13,06,044,35*42
$GPRMC,062756.721,A,2608.6684,S,02758.8522,E,0.00,,160907,,,A*65
$GPGGA,062757.720,2608.6684,S,02758.8522,E,1,06,1.2,1660.3,M,,,,0000*24
$GPGSA,A,3,28,20,02,11,23,08,,,,,,,2.0,1.2,1.5*34
$GPRMC,062757.720,A,2608.6684,S,02758.8522,E,0.00,,160907,,,A*65
$GPGGA,062758.720,2608.6684,S,02758.8522,E,1,04,2.7,1660.3,M,,,,0000*2F
$GPGSA,A,3,28,20,23,08,,,,,,,,,3.5,2.7,2.2*30
$GPRMC,062758.720,A,2608.6684,S,02758.8522,E,0.00,,160907,,,A*6A
$GPGGA,062759.720,2608.6684,S,02758.8522,E,1,04,2.7,1660.3,M,,,,0000*2E
$GPGSA,A,3,28,20,23,08,,,,,,,,,3.5,2.7,2.2*30
$GPRMC,062759.720,A,2608.6684,S,02758.8522,E,0.00,,160907,,,A*6B
$GPGGA,062800.720,2608.6684,S,02758.8522,E,1,07,1.1,1660.3,M,,,,0000*2B
$GPGSA,A,3,28,04,20,02,11,23,08,,,,,,1.8,1.1,1.5*38
$GPRMC,062800.720,A,2608.6684,S,02758.8522,E,0.00,,160907,,,A*68
$GPGGA,062801.720,2608.6684,S,02758.8522,E,1,07,1.1,1660.3,M,,,,0000*2A
$GPGSA,A,3,28,04,20,02,11,23,08,,,,,,1.8,1.1,1.5*38
$GPGSV,3,1,09,28,63,002,47,17,56,177,,04,47,265,24,20,39,126,35*73
$GPGSV,3,2,09,02,16,285,20,11,14,121,22,23,09,073,44,08,07,344,44*7E
$GPGSV,3,3,09,13,06,044,33*44
$GPRMC,062801.720,A,2608.6684,S,02758.8522,E,0.00,,160907,,,A*69
$GPGGA,062802.720,2608.6684,S,02758.8522,E,1,07,1.1,1660.3,M,,,,0000*29
$GPGSA,A,3,28,04,20,02,11,23,08,,,,,,1.8,1.1,1.5*38
$GPRMC,062802.720,A,2608.6684,S,02758.8522,E,0.00,,160907,,,A*6A
$GPGGA,062803.720,2608.6684,S,02758.8522,E,1,07,1.1,1660.3,M,,,,0000*28
$GPGSA,A,3,28,04,20,02,11,23,08,,,,,,1.8,1.1,1.5*38
$GPRMC,062803.720,A,2608.6684,S,02758.8522,E,0.00,,160907,,,A*6B
$GPGGA,062804.720,2608.6684,S,02758.8522,E,1,07,1.1,1660.3,M,,,,0000*2F
$GPGSA,A,3,28,04,20,02,11,23,08,,,,,,1.8,1.1,1.5*38
$GPRMC,062804.720,A,2608.6684,S,02758.8522,E,0.00,,160907,,,A*6C
$GPGGA,062805.720,2608.6684,S,02758.8522,E,1,07,1.1,1660.3,M,,,,0000*2E
$GPGSA,A,3,28,04,20,02,11,23,08,,,,,,1.8,1.1,1.5*38
$GPRMC,062805.720,A,2608.6684,S,02758.8522,E,0.00,,160907,,,A*6D
$GPGGA,062806.720,2608.6684,S,02758.8522,E,1,07,1.1,1660.3,M,,,,0000*2D
$GPGSA,A,3,28,04,20,02,11,23,08,,,,,,1.8,1.1,1.5*38
$GPGSV,3,1,09,28,63,002,46,17,56,177,,04,47,265,44,20,39,126,35*74
$GPGSV,3,2,09,02,16,285,25,11,14,121,22,23,09,073,45,08,07,344,44*7A
$GPGSV,3,3,09,13,06,044,35*42
$GPRMC,062806.720,A,2608.6684,S,02758.8522,E,0.00,,160907,,,A*6E
$GPGGA,062807.720,2608.6684,S,02758.8522,E,1,07,1.1,1660.3,M,,,,0000*2C
$GPGSA,A,3,28,04,20,02,11,23,08,,,,,,1.8,1.1,1.5*38
$GPRMC,062807.720,A,2608.6684,S,02758.8522,E,0.00,,160907,,,A*6F
$GPGGA,062808.720,2608.6684,S,02758.8522,E,1,07,1.1,1660.3,M,,,,0000*23
$GPGSA,A,3,28,04,20,02,11,23,08,,,,,,1.8,1.1,1.5*38
$GPRMC,062808.720,A,2608.6684,S,02758.8522,E,0.00,,160907,,,A*60
$GPGGA,062809.720,2608.6684,S,02758.8522,E,1,06,1.4,1660.3,M,,,,0000*26
$GPGSA,A,3,28,04,20,11,23,08,,,,,,,2.2,1.4,1.7*34
$GPRMC,062809.720,A,2608.6684,S,02758.8522,E,0.00,,160907,,,A*61
$GPGGA,062810.720,2608.6684,S,02758.8522,E,1,06,1.4,1660.3,M,,,,0000*2E
$GPGSA,A,3,28,04,20,11,23,08,,,,,,,2.2,1.4,1.7*34
$GPRMC,062810.720,A,2608.6684,S,02758.8522,E,0.00,,160907,,,A*69
$GPGGA,062811.720,2608.6684,S,02758.8522,E,1,06,1.4,1660.3,M,,,,0000*2F
$GPGSA,A,3,28,04,20,11,23,08,,,,,,,2.2,1.4,1.7*34
$GPGSV,3,1,09,28,63,002,46,17,56,177,,04,47,265,23,20,39,126,33*73
$GPGSV,3,2,09,02,16,285,16,11,14,121,19,23,09,073,43,08,07,344,44*74
$GPGSV,3,3,09,13,06,044,35*42
$GPRMC,062811.720,A,2608.6684,S,02758.8522,E,0.00,,160907,,,A*68
$GPGGA,062812.720,2608.6684,S,02758.8522,E,1,06,1.4,1660.3,M,,,,0000*2C
$GPGSA,A,3,28,04,20,11,23,08,,,,,,,2.2,1.4,1.7*34
$GPRMC,062812.720,A,2608.6684,S,02758.8522,E,0.00,,160907,,,A*6B
$GPGGA,062813.720,2608.6684,S,02758.8522,E,1,04,2.7,1660.3,M,,,,0000*2F
$GPGSA,A,3,28,20,23,08,,,,,,,,,3.5,2.7,2.2*30
$GPRMC,062813.720,A,2608.6684,S,02758.8522,E,0.00,,160907,,,A*6A
$GPGGA,062814.719,2608.6684,S,02758.8522,E,1,05,1.6,1660.3,M,,,,0000*21
$GPGSA,A,3,28,04,20,23,08,,,,,,,,2.5,1.6,2.0*35
$GPRMC,062814.719,A,2608.6684,S,02758.8522,E,0.00,,160907,,,A*67
$GPGGA,062815.719,2608.6684,S,02758.8522,E,1,07,1.3,1660.3,M,,,,0000*27
$GPGSA,A,3,28,17,04,20,11,23,08,,,,,,2.2,1.3,1.7*35
$GPRMC,062815.719,A,2608.6684,S,02758.8522,E,0.00,,160907,,,A*66
$GPGGA,062816.719,2608.6684,S,02758.8522,E,1,07,1.3,1660.3,M,,,,0000*24
$GPGSA,A,3,28,17,04,20,11,23,08,,,,,,2.2,1.3,1.7*35
$GPGSV,3,1,09,28,63,002,46,17,56,177,24,04,47,265,27,20,39,126,33*71
$GPGSV,3,2,09,02,16,285,16,11,14,121,22,23,09,073,42,08,07,344,43*7A
$GPGSV,3,3,09,13,06,044,36*41
$GPRMC,062816.719,A,2608.6684,S,02758.8522,E,0.00,,160907,,,A*65
$GPGGA,062817.719,2608.6684,S,02758.8522,E,1,07,1.3,1660.3,M,,,,0000*25
$GPGSA,A,3,28,17,04,20,11,23,08,,,,,,2.2,1.3,1.7*35
$GPRMC,062817.719,A,2608.6684,S,02758.8522,E,0.00,,160907,,,A*64
$GPGGA,062818.719,2608.6684,S,02758.8522,E,1,07,1.3,1660.3,M,,,,0000*2A
$GPGSA,A,3,28,17,04,20,11,23,08,,,,,,2.2,1.3,1.7*35
$GPRMC,062818.719,A,2608.6684,S,02758.8522,E,0.00,,160907,,,A*6B
$GPGGA,062819.719,2608.6684,S,02758.8522,E,1,07,1.3,1660.3,M,,,,0000*2B
$GPGSA,A,3,28,17,04,20,11,23,08,,,,,,2.2,1.3,1.7*35
$GPRMC,062819.719,A,2608.6684,S,02758.8522,E,0.00,,160907,,,A*6A
$GPGGA,062820.719,2608.6684,S,02758.8522,E,1,07,1.3,1660.3,M,,,,0000*21
$GPGSA,A,3,28,17,04,20,11,23,08,,,,,,2.2,1.3,1.7*35
$GPRMC,062820.719,A,2608.6684,S,02758.8522,E,0.00,,160907,,,A*60
$GPGGA,062821.719,2608.6684,S,02758.8522,E,1,07,1.3,1660.3,M,,,,0000*20
$GPGSA,A,3,28,17,04,20,11,23,08,,,,,,2.2,1.3,1.7*35
$GPGSV,3,1,09,28,63,002,47,17,56,177,26,04,47,265,28,20,39,126,33*7D
$GPGSV,3,2,09,02,16,285,16,11,14,121,23,23,09,073,44,08,07,344,44*7A
$GPGSV,3,3,09,13,06,044,37*40
$GPRMC,062821.719,A,2608.6684,S,02758.8522,E,0.00,,160907,,,A*61
$GPGGA,062822.719,2608.6684,S,02758.8522,E,1,07,1.3,1660.3,M,,,,0000*23
$GPGSA,A,3,28,17,04,20,11,23,08,,,,,,2.2,1.3,1.7*35
$GPRMC,062822.719,A,2608.6684,S,02758.8522,E,0.00,,160907,,,A*62
$GPGGA,062823.719,2608.6684,S,02758.8522,E,1,07,1.3,1660.3,M,,,,0000*22
$GPGSA,A,3,28,17,04,20,11,23,08,,,,,,2.2,1.3,1.7*35
$GPRMC,062823.719,A,2608.6684,S,02758.8522,E,0.00,,160907,,,A*63
$GPGGA,062824.719,2608.6684,S,02758.8522,E,1,07,1.3,1660.3,M,,,,0000*25
$GPGSA,A,3,28,17,04,20,11,23,08,,,,,,2.2,1.3,1.7*35
$GPRMC,062824.719,A,2608.6684,S,02758.8522,E,0.00,,160907,,,A*64
$GPGGA,062825.719,2608.6684,S,02758.8522,E,1,07,1.3,1660.3,M,,,,0000*24
$GPGSA,A,3,28,17,04,20,11,23,08,,,,,,2.2,1.3,1.7*35
$GPRMC,062825.719,A,2608.6684,S,02758.8522,E,0.00,,160907,,,A*65
$GPGGA,062826.719,2608.6684,S,02758.8522,E,1,07,1.3,1660.3,M,,,,0000*27
$GPGSA,A,3,28,17,04,20,11,23,08,,,,,,2.2,1.3,1.7*35
$GPGSV,3,1,09,28,63,002,47,17,56,177,27,04,47,265,25,20,39,126,33*71
$GPGSV,3,2,09,02,16,285,,11,14,121,23,23,09,073,42,08,07,344,44*7B
$GPGSV,3,3,09,13,06,044,39*4E
$GPRMC,062826.719,A,2608.6684,S,02758.8522,E,0.00,,160907,,,A*66
$GPGGA,062827.719,2608.6684,S,02758.8522,E,1,07,1.3,1660.3,M,,,,0000*26
$GPGSA,A,3,28,17,04,20,11,23,08,,,,,,2.2,1.3,1.7*35
$GPRMC,062827.719,A,2608.6684,S,02758.8522,E,0.00,,160907,,,A*67
$GPGGA,062828.719,2608.6684,S,02758.8522,E,1,07,1.3,1660.3,M,,,,0000*29
$GPGSA,A,3,28,17,04,20,11,23,08,,,,,,2.2,1.3,1.7*35
$GPRMC,062828.719,A,2608.6684,S,02758.8522,E,0.00,,160907,,,A*68
$GPGGA,062829.719,2608.6684,S,02758.8522,E,1,07,1.3,1660.3,M,,,,0000*28
$GPGSA,A,3,28,17,04,20,11,23,08,,,,,,2.2,1.3,1.7*35
$GPRMC,062829.719,A,2608.6684,S,02758.8522,E,0.00,,160907,,,A*69
$GPGGA,062830.718,2608.6684,S,02758.8522,E,1,07,1.3,1660.3,M,,,,0000*21
$GPGSA,A,3,28,17,04,20,11,23,08,,,,,,2.2,1.3,1.7*35
$GPRMC,062830.718,A,2608.6684,S,02758.8522,E,0.00,,160907,,,A*60
$GPGGA,062831.718,2608.6684,S,02758.8522,E,1,07,1.3,1660.3,M,,,,0000*20
$GPGSA,A,3,28,17,04,20,11,23,08,,,,,,2.2,1.3,1.7*35
$GPGSV,3,1,09,28,63,002,47,17,56,177,29,04,47,265,28,20,39,126,32*73
$GPGSV,3,2,09,02,16,285,,11,14,121,24,23,09,073,42,08,07,344,44*7C
$GPGSV,3,3,09,13,06,044,38*4F
$GPRMC,062831.718,A,2608.6684,S,02758.8522,E,0.00,,160907,,,A*61
$GPGGA,062832.718,2608.6684,S,02758.8522,E,1,07,1.3,1660.3,M,,,,0000*23
$GPGSA,A,3,28,17,04,20,11,23,08,,,,,,2.2,1.3,1.7*35
$GPRMC,062832.718,A,2608.6684,S,02758.8522,E,0.00,,160907,,,A*62
$GPGGA,062833.718,2608.6684,S,02758.8522,E,1,07,1.3,1660.3,M,,,,0000*22
$GPGSA,A,3,28,17,04,20,11,23,08,,,,,,2.2,1.3,1.7*35
$GPRMC,062833.718,A,2608.6684,S,02758.8522,E,0.00,,160907,,,A*63
$GPGGA,062834.718,2608.6684,S,02758.8522,E,1,07,1.3,1660.3,M,,,,0000*25
$GPGSA,A,3,28,17,04,20,11,23,08,,,,,,2.2,1.3,1.7*35
$GPRMC,062834.718,A,2608.6684,S,02758.8522,E,0.00,,160907,,,A*64
$GPGGA,062835.718,2608.6684,S,02758.8522,E,1,07,1.3,1660.3,M,,,,0000*24
$GPGSA,A,3,28,17,04,20,11,23,08,,,,,,2.2,1.3,1.7*35
$GPRMC,062835.718,A,2608.6684,S,02758.8522,E,0.00,,160907,,,A*65
$GPGGA,062836.718,2608.6684,S,02758.8522,E,1,07,1.3,1660.3,M,,,,0000*27
$GPGSA,A,3,28,17,04,20,11,23,08,,,,,,2.2,1.3,1.7*35
$GPGSV,3,1,09,28,63,002,48,17,56,177,29,04,47,265,26,20,39,126,33*73
$GPGSV,3,2,09,02,16,285,,11,14,121,27,23,09,073,42,08,07,344,45*7E
$GPGSV,3,3,09,13,06,044,38*4F
$GPRMC,062836.718,A,2608.6684,S,02758.8522,E,0.00,,160907,,,A*66
$GPGGA,062837.718,2608.6684,S,02758.8522,E,1,07,1.3,1660.3,M,,,,0000*26
$GPGSA,A,3,28,17,04,20,11,23,08,,,,,,2.2,1.3,1.7*35
$GPRMC,062837.718,A,2608.6684,S,02758.8522,E,0.00,,160907,,,A*67
$GPGGA,062838.718,2608.6684,S,02758.8522,E,1,07,1.3,1660.3,M,,,,0000*29
$GPGSA,A,3,28,17,04,20,11,23,08,,,,,,2.2,1.3,1.7*35
$GPRMC,062838.718,A,2608.6684,S,02758.8522,E,0.00,,160907,,,A*68
$GPGGA,062839.718,2608.6684,S,02758.8522,E,1,07,1.3,1660.3,M,,,,0000*28
$GPGSA,A,3,28,17,04,20,11,23,08,,,,,,2.2,1.3,1.7*35
$GPRMC,062839.718,A,2608.6684,S,02758.8522,E,0.00,,160907,,,A*69
$GPGGA,062840.718,2608.6684,S,02758.8522,E,1,07,1.3,1660.3,M,,,,0000*26
$GPGSA,A,3,28,17,04,20,11,23,08,,,,,,2.2,1.3,1.7*35
$GPRMC,062840.718,A,2608.6684,S,02758.8522,E,0.00,,160907,,,A*67
$GPGGA,062841.718,2608.6684,S,02758.8522,E,1,07,1.3,1660.3,M,,,,0000*27
$GPGSA,A,3,28,17,04,20,11,23,08,,,,,,2.2,1.3,1.7*35
$GPGSV,3,1,09,28,63,002,47,17,56,177,28,04,47,265,24,20,39,126,33*7F
$GPGSV,3,2,09,02,17,285,,11,14,121,27,23,10,073,43,08,07,344,45*76
$GPGSV,3,3,09,13,06,044,36*41
$GPRMC,062841.718,A,2608.6684,S,02758.8522,E,0.00,,160907,,,A*66
$GPGGA,062842.718,2608.6684,S,02758.8522,E,1,07,1.3,1660.3,M,,,,0000*24
$GPGSA,A,3,28,17,04,20,11,23,08,,,,,,2.2,1.3,1.7*35
$GPRMC,062842.718,A,2608.6684,S,02758.8522,E,0.00,,160907,,,A*65
$GPGGA,062843.718,2608.6684,S,02758.8522,E,1,07,1.3,1660.3,M,,,,0000*25
$GPGSA,A,3,28,17,04,20,11,23,08,,,,,,2.2,1.3,1.7*35
$GPRMC,062843.718,A,2608.6684,S,02758.8522,E,0.00,,160907,,,A*64
$GPGGA,062844.718,2608.6684,S,02758.8522,E,1,07,1.3,1660.3,M,,,,0000*22
$GPGSA,A,3,28,17,04,20,11,23,08,,,,,,2.2,1.3,1.7*35
$GPRMC,062844.718,A,2608.6684,S,02758.8522,E,0.00,,160907,,,A*63
$GPGGA,062845.718,2608.6684,S,02758.8522,E,1,07,1.3,1660.3,M,,,,0000*23
$GPGSA,A,3,28,17,04,20,11,23,08,,,,,,2.2,1.3,1.7*35
$GPRMC,062845.718,A,2608.6684,S,02758.8522,E,0.00,,160907,,,A*62
$GPGGA,062846.718,2608.6684,S,02758.8522,E,1,07,1.3,1660.3,M,,,,0000*20
$GPGSA,A,3,28,17,04,20,11,23,08,,,,,,2.2,1.3,1.7*35
$GPGSV,3,1,09,28,63,002,47,17,56,177,31,04,47,265,25,20,39,126,34*71
$GPGSV,3,2,09,02,17,285,,11,14,121,29,23,10,073,43,08,07,344,45*78
$GPGSV,3,3,09,13,06,044,35*42
$GPRMC,062846.718,A,2608.6684,S,02758.8522,E,0.00,,160907,,,A*61
$GPGGA,062847.717,2608.6684,S,02758.8522,E,1,07,1.3,1660.3,M,,,,0000*2E
$GPGSA,A,3,28,17,04,20,11,23,08,,,,,,2.2,1.3,1.7*35
$GPRMC,062847.717,A,2608.6684,S,02758.8522,E,0.00,,160907,,,A*6F
$GPGGA,062848.717,2608.6684,S,02758.8522,E,1,07,1.3,1660.3,M,,,,0000*21
$GPGSA,A,3,28,17,04,20,11,23,08,,,,,,2.2,1.3,1.7*35
$GPRMC,062848.717,A,2608.6684,S,02758.8522,E,0.00,,160907,,,A*60
$GPGGA,062849.717,2608.6684,S,02758.8522,E,1,06,1.7,1660.3,M,,,,0000*25
$GPGSA,A,3,28,17,20,11,23,08,,,,,,,2.5,1.7,1.8*3D
$GPRMC,062849.717,A,2608.6684,S,02758.8522,E,0.00,,160907,,,A*61
$GPGGA,062850.717,2608.6684,S,02758.8522,E,1,06,1.7,1660.3,M,,,,0000*2D
$GPGSA,A,3,28,17,20,11,23,08,,,,,,,2.5,1.7,1.8*3D
$GPRMC,062850.717,A,2608.6684,S,02758.8522,E,0.00,,160907,,,A*69
$GPGGA,062851.717,2608.6684,S,02758.8522,E,1,07,1.3,1660.3,M,,,,0000*29
$GPGSA,A,3,28,17,04,20,11,23,08,,,,,,2.2,1.3,1.7*35
$GPGSV,3,1,09,28,63,002,47,17,56,177,30,04,47,265,25,20,39,127,35*70
$GPGSV,3,2,09,02,17,285,19,11,14,121,30,23,10,073,43,08,07,344,45*78
$GPGSV,3,3,09,13,06,044,35*42
$GPRMC,062851.717,A,2608.6684,S,02758.8522,E,0.00,,160907,,,A*68
$GPGGA,062852.717,2608.6684,S,02758.8522,E,1,08,1.1,1660.3,M,,,,0000*27
$GPGSA,A,3,28,17,04,20,02,11,23,08,,,,,1.8,1.1,1.4*3F
$GPRMC,062852.717,A,2608.6684,S,02758.8522,E,0.00,,160907,,,A*6B
$GPGGA,062853.717,2608.6684,S,02758.8522,E,1,08,1.1,1660.3,M,,,,0000*26
$GPGSA,A,3,28,17,04,20,02,11,23,08,,,,,1.8,1.1,1.4*3F
$GPRMC,062853.717,A,2608.6684,S,02758.8522,E,0.00,,160907,,,A*6A
$GPGGA,062854.717,2608.6684,S,02758.8522,E,1,08,1.1,1660.3,M,,,,0000*21
$GPGSA,A,3,28,17,04,20,02,11,23,08,,,,,1.8,1.1,1.4*3F
$GPRMC,062854.717,A,2608.6684,S,02758.8522,E,0.00,,160907,,,A*6D
$GPGGA,062855.717,2608.6684,S,02758.8522,E,1,08,1.1,1660.3,M,,,,0000*20
$GPGSA,A,3,28,17,04,20,02,11,23,08,,,,,1.8,1.1,1.4*3F
$GPRMC,062855.717,A,2608.6684,S,02758.8522,E,0.00,,160907,,,A*6C
$GPGGA,062856.717,2608.6684,S,02758.8522,E,1,08,1.1,1660.3,M,,,,0000*23
$GPGSA,A,3,28,17,04,20,02,11,23,08,,,,,1.8,1.1,1.4*3F
$GPGSV,3,1,09,28,63,002,47,17,56,177,30,04,47,265,25,20,39,127,35*70
$GPGSV,3,2,09,02,17,285,21,11,14,121,29,23,10,073,42,08,07,344,45*7A
$GPGSV,3,3,09,13,06,044,36*41
$GPRMC,062856.717,A,2608.6684,S,02758.8522,E,0.00,,160907,,,A*6F
$GPGGA,062857.717,2608.6684,S,02758.8522,E,1,08,1.1,1660.3,M,,,,0000*22
$GPGSA,A,3,28,17,04,20,02,11,23,08,,,,,1.8,1.1,1.4*3F
$GPRMC,062857.717,A,2608.6684,S,02758.8522,E,0.00,,160907,,,A*6E
$GPGGA,062858.717,2608.6684,S,02758.8522,E,1,08,1.1,1660.3,M,,,,0000*2D
$GPGSA,A,3,28,17,04,20,02,11,23,08,,,,,1.8,1.1,1.4*3F
$GPRMC,062858.717,A,2608.6684,S,02758.8522,E,0.00,,160907,,,A*61
$GPGGA,062859.717,2608.6684,S,02758.8522,E,1,08,1.1,1660.3,M,,,,0000*2C
$GPGSA,A,3,28,17,04,20,02,11,23,08,,,,,1.8,1.1,1.4*3F
$GPRMC,062859.717,A,2608.6684,S,02758.8522,E,0.00,,160907,,,A*60
$GPGGA,062900.717,2608.6684,S,02758.8522,E,1,08,1.1,1660.3,M,,,,0000*21
$GPGSA,A,3,28,17,04,20,02,11,23,08,,,,,1.8,1.1,1.4*3F
$GPRMC,062900.717,A,2608.6684,S,02758.8522,E,0.00,,160907,,,A*6D
$GPGGA,062901.717,2608.6684,S,02758.8522,E,1,08,1.1,1660.3,M,,,,0000*20
$GPGSA,A,3,28,17,04,20,02,11,23,08,,,,,1.8,1.1,1.4*3F
$GPGSV,3,1,09,28,63,002,47,17,56,177,31,04,47,265,25,20,39,127,35*71
$GPGSV,3,2,09,02,17,285,20,11,14,121,29,23,10,073,42,08,07,344,46*78
$GPGSV,3,3,09,13,06,044,35*42
$GPRMC,062901.717,A,2608.6684,S,02758.8522,E,0.00,,160907,,,A*6C
$GPGGA,062902.717,2608.6684,S,02758.8522,E,1,07,1.3,1660.3,M,,,,0000*2E
$GPGSA,A,3,28,17,04,20,11,23,08,,,,,,2.2,1.3,1.7*35
$GPRMC,062902.717,A,2608.6684,S,02758.8522,E,0.00,,160907,,,A*6F
$GPGGA,062903.716,2608.6684,S,02758.8522,E,1,07,1.3,1660.3,M,,,,0000*2E
$GPGSA,A,3,28,17,04,20,11,23,08,,,,,,2.2,1.3,1.7*35
$GPRMC,062903.716,A,2608.6684,S,02758.8522,E,0.00,,160907,,,A*6F
$GPGGA,062904.716,2608.6684,S,02758.8522,E,1,07,1.3,1660.3,M,,,,0000*29
$GPGSA,A,3,28,17,04,20,11,23,08,,,,,,2.2,1.3,1.7*35
$GPRMC,062904.716,A,2608.6684,S,02758.8522,E,0.00,,160907,,,A*68
$GPGGA,062905.716,2608.6684,S,02758.8522,E,1,07,1.3,1660.3,M,,,,0000*28
$GPGSA,A,3,28,17,04,20,11,23,08,,,,,,2.2,1.3,1.7*35
$GPRMC,062905.716,A,2608.6684,S,02758.8522,E,0.00,,160907,,,A*69
$GPGGA,062906.716,2608.6684,S,02758.8522,E,1,07,1.3,1660.3,M,,,,0000*2B
$GPGSA,A,3,28,17,04,20,11,23,08,,,,,,2.2,1.3,1.7*35
$GPGSV,3,1,09,28,63,002,47,17,56,177,31,04,47,265,18,20,39,127,35*7F
$GPGSV,3,2,09,02,17,285,16,11,14,121,30,23,10,073,42,08,07,344,46*75
$GPGSV,3,3,09,13,06,044,34*43
$GPRMC,062906.716,A,2608.6684,S,02758.8522,E,0.00,,160907,,,A*6A
$GPGGA,062907.716,2608.6684,S,02758.8522,E,1,07,1.3,1660.3,M,,,,0000*2A
$GPGSA,A,3,28,17,04,20,11,23,08,,,,,,2.2,1.3,1.7*35
$GPRMC,062907.716,A,2608.6684,S,02758.8522,E,0.00,,160907,,,A*6B
$GPGGA,062908.716,2608.6684,S,02758.8522,E,1,07,1.3,1660.3,M,,,,0000*25
$GPGSA,A,3,28,17,04,20,11,23,08,,,,,,2.2,1.3,1.7*35
$GPRMC,062908.716,A,2608.6684,S,02758.8522,E,0.00,,160907,,,A*64
$GPGGA,062909.716,2608.6684,S,02758.8522,E,1,07,1.3,1660.3,M,,,,0000*24
$GPGSA,A,3,28,17,04,20,11,23,08,,,,,,2.2,1.3,1.7*35
$GPRMC,062909.716,A,2608.6684,S,02758.8522,E,0.00,,160907,,,A*65
$GPGGA,062910.716,2608.6684,S,02758.8522,E,1,06,1.7,1660.3,M,,,,0000*29
$GPGSA,A,3,28,17,20,11,23,08,,,,,,,2.5,1.7,1.8*3D
$GPRMC,062910.716,A,2608.6684,S,02758.8522,E,0.00,,160907,,,A*6D
$GPGGA,062911.716,2608.6684,S,02758.8522,E,1,06,1.7,1660.3,M,,,,0000*28
$GPGSA,A,3,28,17,20,11,23,08,,,,,,,2.5,1.7,1.8*3D
$GPGSV,3,1,09,28,63,003,47,17,57,176,29,04,47,264,17,20,39,127,33*7F
$GPGSV,3,2,09,02,17,285,16,11,14,121,31,23,10,073,42,08,07,345,46*75
$GPGSV,3,3,09,13,06,044,33*44
$GPRMC,062911.716,A,2608.6684,S,02758.8522,E,0.00,,160907,,,A*6C
$GPGGA,062912.716,2608.6684,S,02758.8522,E,1,06,1.7,1660.3,M,,,,0000*2B
$GPGSA,A,3,28,17,20,11,23,08,,,,,,,2.5,1.7,1.8*3D
$GPRMC,062912.716,A,2608.6684,S,02758.8522,E,0.00,,160907,,,A*6F
$GPGGA,062913.716,2608.6684,S,02758.8522,E,1,06,1.7,1660.3,M,,,,0000*2A
$GPGSA,A,3,28,17,20,11,23,08,,,,,,,2.5,1.7,1.8*3D
$GPRMC,062913.716,A,2608.6684,S,02758.8522,E,0.00,,160907,,,A*6E
$GPGGA,062914.716,2608.6684,S,02758.8522,E,1,06,1.7,1660.3,M,,,,0000*2D
$GPGSA,A,3,28,17,20,11,23,08,,,,,,,2.5,1.7,1.8*3D
$GPRMC,062914.716,A,2608.6684,S,02758.8522,E,0.00,,160907,,,A*69
$GPGGA,062915.716,2608.6684,S,02758.8522,E,1,06,1.7,1660.3,M,,,,0000*2C
$GPGSA,A,3,28,17,20,11,23,08,,,,,,,2.5,1.7,1.8*3D
$GPRMC,062915.716,A,2608.6684,S,02758.8522,E,0.00,,160907,,,A*68
$GPGGA,062916.716,2608.6684,S,02758.8522,E,1,06,1.7,1660.3,M,,,,0000*2F
$GPGSA,A,3,28,17,20,11,23,08,,,,,,,2.5,1.7,1.8*3D
$GPGSV,3,1,09,28,63,003,47,17,57,176,30,04,47,264,17,20,39,127,33*77
$GPGSV,3,2,09,02,17,285,,11,14,121,29,23,10,073,42,08,07,345,46*7B
$GPGSV,3,3,09,13,06,044,33*44
$GPRMC,062916.716,A,2608.6684,S,02758.8522,E,0.00,,160907,,,A*6B
$GPGGA,062917.716,2608.6684,S,02758.8522,E,1,06,1.7,1660.3,M,,,,0000*2E
$GPGSA,A,3,28,17,20,11,23,08,,,,,,,2.5,1.7,1.8*3D
$GPRMC,062917.716,A,2608.6684,S,02758.8522,E,0.00,,160907,,,A*6A
$GPGGA,062918.716,2608.6684,S,02758.8522,E,1,06,1.7,1660.3,M,,,,0000*21
$GPGSA,A,3,28,17,20,11,23,08,,,,,,,2.5,1.7,1.8*3D
$GPRMC,062918.716,A,2608.6684,S,02758.8522,E,0.00,,160907,,,A*65
$GPGGA,062919.716,2608.6684,S,02758.8522,E,1,05,4.0,1660.3,M,,,,0000*21
$GPGSA,A,3,28,17,20,11,23,,,,,,,,6.5,4.0,5.1*3E
$GPRMC,062919.716,A,2608.6684,S,02758.8522,E,0.00,,160907,,,A*64
$GPGGA,062920.715,2608.6684,S,02758.8522,E,1,05,4.0,1660.3,M,,,,0000*28
$GPGSA,A,3,28,17,20,11,23,,,,,,,,6.5,4.0,5.1*3E
$GPRMC,062920.715,A,2608.6684,S,02758.8522,E,0.00,,160907,,,A*6D
$GPGGA,062921.715,2608.6684,S,02758.8522,E,1,05,4.0,1660.3,M,,,,0000*29
$GPGSA,A,3,28,17,20,11,23,,,,,,,,6.5,4.0,5.1*3E
$GPGSV,3,1,09,28,63,003,46,17,57,176,24,04,47,264,,20,39,127,33*75
$GPGSV,3,2,09,02,17,285,,11,14,121,29,23,10,073,38,08,07,345,43*73
$GPGSV,3,3,09,13,06,044,38*4F
$GPRMC,062921.715,A,2608.6684,S,02758.8522,E,0.00,,160907,,,A*6C
$GPGGA,062922.715,2608.6684,S,02758.8522,E,1,04,6.0,1660.3,M,,,,0000*29
$GPGSA,A,3,28,20,11,23,,,,,,,,,8.8,6.0,6.5*3E
$GPRMC,062922.715,A,2608.6684,S,02758.8522,E,0.00,,160907,,,A*6F
$GPGGA,062923.715,2608.6684,S,02758.8522,E,1,04,6.0,1660.3,M,,,,0000*28
$GPGSA,A,3,28,20,11,23,,,,,,,,,8.8,6.0,6.5*3E
$GPRMC,062923.715,A,2608.6684,S,02758.8522,E,0.00,,160907,,,A*6E
$GPGGA,062924.715,2608.6684,S,02758.8522,E,1,04,6.0,1660.3,M,,,,0000*2F
$GPGSA,A,3,28,20,11,23,,,,,,,,,8.8,6.0,6.5*3E
$GPRMC,062924.715,A,2608.6684,S,02758.8522,E,0.00,,160907,,,A*69
$GPGGA,062925.715,2608.6684,S,02758.8522,E,1,06,1.3,1660.3,M,,,,0000*28
$GPGSA,A,3,28,17,20,02,11,23,,,,,,,2.0,1.3,1.5*3B
$GPRMC,062925.715,A,2608.6684,S,02758.8522,E,0.00,,160907,,,A*68
$GPGGA,062926.715,2608.6684,S,02758.8522,E,1,06,1.3,1660.3,M,,,,0000*2B
$GPGSA,A,3,28,17,20,02,11,23,,,,,,,2.0,1.3,1.5*3B
$GPGSV,3,1,09,28,63,003,46,17,57,176,23,04,47,264,,20,39,127,32*73
$GPGSV,3,2,09,02,17,285,22,11,14,121,27,23,10,073,39,08,07,345,43*7C
$GPGSV,3,3,09,13,06,044,40*40
$GPRMC,062926.715,A,2608.6684,S,02758.8522,E,0.00,,160907,,,A*6B
$GPGGA,062927.715,2608.6684,S,02758.8522,E,1,06,1.3,1660.3,M,,,,0000*2A
$GPGSA,A,3,28,17,20,02,11,23,,,,,,,2.0,1.3,1.5*3B
$GPRMC,062927.715,A,2608.6684,S,02758.8522,E,0.00,,160907,,,A*6A
$GPGGA,062928.715,2608.6684,S,02758.8522,E,1,06,1.3,1660.3,M,,,,0000*25
$GPGSA,A,3,28,17,20,02,11,23,,,,,,,2.0,1.3,1.5*3B
$GPRMC,062928.715,A,2608.6684,S,02758.8522,E,0.00,,160907,,,A*65
$GPGGA,062929.715,2608.6684,S,02758.8522,E,1,06,1.3,1660.3,M,,,,0000*24
$GPGSA,A,3,28,17,20,02,11,23,,,,,,,2.0,1.3,1.5*3B
$GPRMC,062929.715,A,2608.6684,S,02758.8522,E,0.00,,160907,,,A*64
$GPGGA,062930.715,2608.6684,S,02758.8522,E,1,06,1.3,1660.3,M,,,,0000*2C
$GPGSA,A,3,28,17,20,02,11,23,,,,,,,2.0,1.3,1.5*3B
$GPRMC,062930.715,A,2608.6684,S,02758.8522,E,0.00,,160907,,,A*6C
$GPGGA,062931.715,2608.6684,S,02758.8522,E,1,06,1.3,1660.3,M,,,,0000*2D
$GPGSA,A,3,28,17,20,02,11,23,,,,,,,2.0,1.3,1.5*3B
$GPGSV,3,1,09,28,63,003,46,17,57,176,24,04,47,264,28,20,39,127,29*74
$GPGSV,3,2,09,02,17,285,22,11,14,121,26,23,10,073,38,08,07,345,42*7D
$GPGSV,3,3,09,13,06,044,39*4E
$GPRMC,062931.715,A,2608.6684,S,02758.8522,E,0.00,,160907,,,A*6D
$GPGGA,062932.715,2608.6684,S,02758.8522,E,1,06,1.3,1660.3,M,,,,0000*2E
$GPGSA,A,3,28,17,20,02,11,23,,,,,,,2.0,1.3,1.5*3B
$GPRMC,062932.715,A,2608.6684,S,02758.8522,E,0.00,,160907,,,A*6E
$GPGGA,062933.715,2608.6684,S,02758.8522,E,1,06,1.3,1660.3,M,,,,0000*2F
$GPGSA,A,3,28,17,20,02,11,23,,,,,,,2.0,1.3,1.5*3B
$GPRMC,062933.715,A,2608.6684,S,02758.8522,E,0.00,,160907,,,A*6F
$GPGGA,062934.715,2608.6684,S,02758.8522,E,1,06,1.3,1660.3,M,,,,0000*28
$GPGSA,A,3,28,17,20,02,11,23,,,,,,,2.0,1.3,1.5*3B
$GPRMC,062934.715,A,2608.6684,S,02758.8522,E,0.00,,160907,,,A*68
$GPGGA,062935.715,2608.6684,S,02758.8522,E,1,04,2.6,1660.3,M,,,,0000*2D
$GPGSA,A,3,28,20,23,08,,,,,,,,,3.4,2.6,2.2*30
$GPRMC,062935.715,A,2608.6684,S,02758.8522,E,0.00,,160907,,,A*69
$GPGGA,062936.714,2608.6684,S,02758.8522,E,1,05,4.0,1660.3,M,,,,0000*2E
$GPGSA,A,3,28,17,20,11,23,,,,,,,,6.5,4.0,5.1*3E
$GPGSV,3,1,09,28,63,003,47,17,57,176,27,04,47,264,31,20,39,127,30*76
$GPGSV,3,2,09,02,17,285,22,11,14,121,25,23,10,073,37,08,07,345,41*72
$GPGSV,3,3,09,13,06,044,39*4E
$GPRMC,062936.714,A,2608.6684,S,02758.8522,E,0.00,,160907,,,A*6B
$GPGGA,062937.714,2608.6684,S,02758.8522,E,1,04,4.4,1660.3,M,,,,0000*2A
$GPGSA,A,3,28,17,20,23,,,,,,,,,7.5,4.4,6.1*38
$GPRMC,062937.714,A,2608.6684,S,02758.8522,E,0.00,,160907,,,A*6A
$GPGGA,062938.714,2608.6684,S,02758.8522,E,1,04,2.6,1660.3,M,,,,0000*21
$GPGSA,A,3,28,20,23,08,,,,,,,,,3.4,2.6,2.2*30
$GPRMC,062938.714,A,2608.6684,S,02758.8522,E,0.00,,160907,,,A*65
$GPGGA,062939.714,2608.6684,S,02758.8522,E,1,04,2.6,1660.3,M,,,,0000*20
$GPGSA,A,3,28,20,23,08,,,,,,,,,3.4,2.6,2.2*30
$GPRMC,062939.714,A,2608.6684,S,02758.8522,E,0.00,,160907,,,A*64
$GPGGA,062940.714,2608.6684,S,02758.8522,E,1,04,2.6,1660.3,M,,,,0000*2E
$GPGSA,A,3,28,20,23,08,,,,,,,,,3.4,2.6,2.2*30
$GPRMC,062940.714,A,2608.6684,S,02758.8522,E,0.00,,160907,,,A*6A
$GPGGA,062941.714,2608.6684,S,02758.8522,E,1,04,6.0,1660.3,M,,,,0000*2D
$GPGSA,A,3,28,20,11,23,,,,,,,,,8.8,6.0,6.5*3E
$GPGSV,3,1,09,28,63,003,47,17,57,176,24,04,47,264,30,20,39,127,31*75
$GPGSV,3,2,09,02,17,285,20,11,14,121,26,23,10,073,35,08,07,345,40*70
$GPGSV,3,3,09,13,06,044,38*4F
$GPRMC,062941.714,A,2608.6684,S,02758.8522,E,0.00,,160907,,,A*6B
$GPGGA,062942.714,2608.6684,S,02758.8522,E,1,04,2.6,1660.3,M,,,,0000*2C
$GPGSA,A,3,28,20,23,08,,,,,,,,,3.4,2.6,2.2*30
$GPRMC,062942.714,A,2608.6684,S,02758.8522,E,0.00,,160907,,,A*68
$GPGGA,062943.714,2608.6684,S,02758.8522,E,1,04,2.6,1660.3,M,,,,0000*2D
$GPGSA,A,3,28,20,23,08,,,,,,,,,3.4,2.6,2.2*30
$GPRMC,062943.714,A,2608.6684,S,02758.8522,E,0.00,,160907,,,A*69
$GPGGA,062944.714,2608.6684,S,02758.8522,E,1,04,2.6,1660.3,M,,,,0000*2A
$GPGSA,A,3,28,20,23,08,,,,,,,,,3.4,2.6,2.2*30
$GPRMC,062944.714,A,2608.6684,S,02758.8522,E,0.00,,160907,,,A*6E
$GPGGA,062945.714,2608.6684,S,02758.8522,E,1,04,2.4,1660.3,M,,,,0000*29
$GPGSA,A,3,28,20,08,13,,,,,,,,,3.2,2.4,2.2*37
$GPRMC,062945.714,A,2608.6684,S,02758.8522,E,0.00,,160907,,,A*6F
$GPGGA,062946.714,2608.6684,S,02758.8522,E,1,04,4.5,1660.3,M,,,,0000*2D
$GPGSA,A,3,28,17,20,23,,,,,,,,,7.6,4.5,6.1*3A
$GPGSV,3,1,09,28,62,003,47,17,57,176,26,04,47,264,30,20,38,127,28*7F
$GPGSV,3,2,09,02,17,285,22,11,14,121,22,23,10,074,33,08,07,345,40*77
$GPGSV,3,3,09,13,07,044,33*45
$GPRMC,062946.714,A,2608.6684,S,02758.8522,E,0.00,,160907,,,A*6C
$GPGGA,062947.714,2608.6684,S,02758.8522,E,1,04,4.5,1660.3,M,,,,0000*2C
$GPGSA,A,3,28,17,20,23,,,,,,,,,7.6,4.5,6.1*3A
$GPRMC,062947.714,A,2608.6684,S,02758.8522,E,0.00,,160907,,,A*6D
$GPGGA,062948.714,2608.6684,S,02758.8522,E,1,04,4.5,1660.3,M,,,,0000*23
$GPGSA,A,3,28,17,20,23,,,,,,,,,7.6,4.5,6.1*3A
$GPRMC,062948.714,A,2608.6684,S,02758.8522,E,0.00,,160907,,,A*62
$GPGGA,062949.714,2608.6684,S,02758.8522,E,1,07,1.2,1660.3,M,,,,0000*23
$GPGSA,A,3,28,17,04,20,02,11,23,,,,,,1.9,1.2,1.5*34
$GPRMC,062949.714,A,2608.6684,S,02758.8522,E,0.00,,160907,,,A*63
$GPGGA,062950.714,2608.6684,S,02758.8522,E,1,07,1.2,1660.3,M,,,,0000*2B
$GPGSA,A,3,28,17,04,20,02,11,23,,,,,,1.9,1.2,1.5*34
$GPRMC,062950.714,A,2608.6684,S,02758.8522,E,0.00,,160907,,,A*6B
$GPGGA,062951.714,2608.6684,S,02758.8522,E,1,07,1.2,1660.3,M,,,,0000*2A
$GPGSA,A,3,28,17,04,20,02,11,23,,,,,,1.9,1.2,1.5*34
$GPGSV,3,1,09,28,62,003,46,17,57,176,27,04,47,264,30,20,38,127,32*74
$GPGSV,3,2,09,02,17,285,20,11,13,121,20,23,10,074,38,13,07,045,32*77
$GPGSV,3,3,09,08,07,345,40*49
$GPRMC,062951.714,A,2608.6684,S,02758.8522,E,0.00,,160907,,,A*6A
$GPGGA,062952.714,2608.6684,S,02758.8522,E,1,07,1.2,1660.3,M,,,,0000*29
$GPGSA,A,3,28,17,04,20,02,11,23,,,,,,1.9,1.2,1.5*34
$GPRMC,062952.714,A,2608.6684,S,02758.8522,E,0.00,,160907,,,A*69
$GPGGA,062953.713,2608.6684,S,02758.8522,E,1,07,1.2,1660.3,M,,,,0000*2F
$GPGSA,A,3,28,17,04,20,02,11,23,,,,,,1.9,1.2,1.5*34
$GPRMC,062953.713,A,2608.6684,S,02758.8522,E,0.00,,160907,,,A*6F
$GPGGA,062954.713,2608.6684,S,02758.8522,E,1,07,1.2,1660.3,M,,,,0000*28
$GPGSA,A,3,28,17,04,20,02,11,23,,,,,,1.9,1.2,1.5*34
$GPRMC,062954.713,A,2608.6684,S,02758.8522,E,0.00,,160907,,,A*68
$GPGGA,062955.713,2608.6684,S,02758.8522,E,1,07,1.2,1660.3,M,,,,0000*29
$GPGSA,A,3,28,17,04,20,02,11,23,,,,,,1.9,1.2,1.5*34
$GPRMC,062955.713,A,2608.6684,S,02758.8522,E,0.00,,160907,,,A*69
$GPGGA,062956.713,2608.6684,S,02758.8522,E,1,07,1.2,1660.3,M,,,,0000*2A
$GPGSA,A,3,28,17,04,20,02,11,23,,,,,,1.9,1.2,1.5*34
$GPGSV,3,1,09,28,62,003,46,17,57,176,25,04,47,264,27,20,38,127,29*7A
$GPGSV,3,2,09,02,17,285,18,11,13,121,19,23,10,074,38,13,07,045,32*76
$GPGSV,3,3,09,08,07,345,40*49
$GPRMC,062956.713,A,2608.6684,S,02758.8522,E,0.00,,160907,,,A*6A
$GPGGA,062957.713,2608.6684,S,02758.8522,E,1,07,1.2,1660.3,M,,,,0000*2B
$GPGSA,A,3,28,17,04,20,02,11,23,,,,,,1.9,1.2,1.5*34
$GPRMC,062957.713,A,2608.6684,S,02758.8522,E,0.00,,160907,,,A*6B
$GPGGA,062958.713,2608.6684,S,02758.8522,E,1,07,1.2,1660.3,M,,,,0000*24
$GPGSA,A,3,28,17,04,20,02,11,23,,,,,,1.9,1.2,1.5*34
$GPRMC,062958.713,A,2608.6684,S,02758.8522,E,0.00,,160907,,,A*64
$GPGGA,062959.713,2608.6684,S,02758.8522,E,1,06,1.4,1660.3,M,,,,0000*22
$GPGSA,A,3,28,17,04,20,02,23,,,,,,,2.1,1.4,1.7*3B
$GPRMC,062959.713,A,2608.6684,S,02758.8522,E,0.00,,160907,,,A*65
$GPGGA,063000.713,2608.6684,S,02758.8522,E,1,07,1.2,1660.3,M,,,,0000*21
$GPGSA,A,3,28,17,04,20,02,11,23,,,,,,1.9,1.2,1.5*34
$GPRMC,063000.713,A,2608.6684,S,02758.8522,E,0.00,,160907,,,A*61
$GPGGA,063001.713,2608.6684,S,02758.8522,E,1,07,1.2,1660.3,M,,,,0000*20
$GPGSA,A,3,28,17,04,20,02,11,23,,,,,,1.9,1.2,1.5*34
$GPGSV,3,1,09,28,62,003,47,17,57,176,28,04,47,264,27,20,38,127,28*77
$GPGSV,3,2,09,02,17,285,19,11,13,121,22,23,10,074,38,13,07,045,30*7D
$GPGSV,3,3,09,08,07,345,40*49
$GPRMC,063001.713,A,2608.6684,S,02758.8522,E,0.00,,160907,,,A*60
$GPGGA,063002.713,2608.6684,S,02758.8522,E,1,07,1.2,1660.3,M,,,,0000*23
$GPGSA,A,3,28,17,04,20,02,11,23,,,,,,1.9,1.2,1.5*34
$GPRMC,063002.713,A,2608.6684,S,02758.8522,E,0.00,,160907,,,A*63
$GPGGA,063003.713,2608.6684,S,02758.8522,E,1,07,1.2,1660.3,M,,,,0000*22
$GPGSA,A,3,28,17,04,20,02,11,23,,,,,,1.9,1.2,1.5*34
$GPRMC,063003.713,A,2608.6684,S,02758.8522,E,0.00,,160907,,,A*62
$GPGGA,063004.713,2608.6684,S,02758.8522,E,1,07,1.2,1660.3,M,,,,0000*25
$GPGSA,A,3,28,17,04,20,02,11,23,,,,,,1.9,1.2,1.5*34
$GPRMC,063004.713,A,2608.6684,S,02758.8522,E,0.00,,160907,,,A*65
$GPGGA,063005.713,2608.6684,S,02758.8522,E,1,07,1.2,1660.3,M,,,,0000*24
$GPGSA,A,3,28,17,04,20,02,11,23,,,,,,1.9,1.2,1.5*34
$GPRMC,063005.713,A,2608.6684,S,02758.8522,E,0.00,,160907,,,A*64
$GPGGA,063006.713,2608.6684,S,02758.8522,E,1,07,1.2,1660.3,M,,,,0000*27
$GPGSA,A,3,28,17,04,20,02,11,23,,,,,,1.9,1.2,1.5*34
$GPGSV,3,1,09,28,62,003,47,17,57,176,31,04,47,264,25,20,38,127,28*7D
$GPGSV,3,2,09,02,17,285,21,11,13,121,20,23,10,074,36,13,07,045,27*7C
$GPGSV,3,3,09,08,07,345,39*47
$GPRMC,063006.713,A,2608.6684,S,02758.8522,E,0.00,,160907,,,A*67
$GPGGA,063007.713,2608.6684,S,02758.8522,E,1,07,1.2,1660.3,M,,,,0000*26
$GPGSA,A,3,28,17,04,20,02,11,23,,,,,,1.9,1.2,1.5*34
$GPRMC,063007.713,A,2608.6684,S,02758.8522,E,0.00,,160907,,,A*66
$GPGGA,063008.713,2608.6684,S,02758.8522,E,1,07,1.2,1660.3,M,,,,0000*29
$GPGSA,A,3,28,17,04,20,02,11,23,,,,,,1.9,1.2,1.5*34
$GPRMC,063008.713,A,2608.6684,S,02758.8522,E,0.00,,160907,,,A*69
$GPGGA,063009.713,2608.6684,S,02758.8522,E,1,06,1.6,1660.3,M,,,,0000*2D
$GPGSA,A,3,28,17,04,20,11,23,,,,,,,2.8,1.6,2.3*35
$GPRMC,063009.713,A,2608.6684,S,02758.8522,E,0.00,,160907,,,A*68
$GPGGA,063010.712,2608.6684,S,02758.8522,E,1,06,1.6,1660.3,M,,,,0000*24
$GPGSA,A,3,28,17,04,20,11,23,,,,,,,2.8,1.6,2.3*35
$GPRMC,063010.712,A,2608.6684,S,02758.8522,E,0.00,,160907,,,A*61
$GPGGA,063011.712,2608.6684,S,02758.8522,E,1,06,1.6,1660.3,M,,,,0000*25
$GPGSA,A,3,28,17,04,20,11,23,,,,,,,2.8,1.6,2.3*35
$GPGSV,3,1,09,28,62,003,47,17,57,176,29,04,47,264,22,20,38,127,28*73
$GPGSV,3,2,09,02,17,285,16,11,13,121,21,23,10,074,38,13,07,045,31*70
$GPGSV,3,3,09,08,07,345,40*49
$GPRMC,063011.712,A,2608.6684,S,02758.8522,E,0.00,,160907,,,A*60
$GPGGA,063012.712,2608.6684,S,02758.8522,E,1,06,1.6,1660.3,M,,,,0000*26
$GPGSA,A,3,28,17,04,20,11,23,,,,,,,2.8,1.6,2.3*35
$GPRMC,063012.712,A,2608.6684,S,02758.8522,E,0.00,,160907,,,A*63
$GPGGA,063013.712,2608.6684,S,02758.8522,E,1,06,1.6,1660.3,M,,,,0000*27
$GPGSA,A,3,28,17,04,20,11,23,,,,,,,2.8,1.6,2.3*35
$GPRMC,063013.712,A,2608.6684,S,02758.8522,E,0.00,,160907,,,A*62
$GPGGA,063014.712,2608.6684,S,02758.8522,E,1,06,1.6,1660.3,M,,,,0000*20
$GPGSA,A,3,28,17,04,20,11,23,,,,,,,2.8,1.6,2.3*35
$GPRMC,063014.712,A,2608.6684,S,02758.8522,E,0.00,,160907,,,A*65
$GPGGA,063015.712,2608.6684,S,02758.8522,E,1,06,1.6,1660.3,M,,,,0000*21
$GPGSA,A,3,28,17,04,20,11,23,,,,,,,2.8,1.6,2.3*35
$GPRMC,063015.712,A,2608.6684,S,02758.8522,E,0.00,,160907,,,A*64
$GPGGA,063016.712,2608.6684,S,02758.8522,E,1,06,1.6,1660.3,M,,,,0000*22
$GPGSA,A,3,28,17,04,20,11,23,,,,,,,2.8,1.6,2.3*35
$GPGSV,3,1,09,28,62,003,46,17,57,176,28,04,47,264,24,20,38,127,25*78
$GPGSV,3,2,09,02,17,285,16,11,13,121,19,23,10,074,37,13,07,045,37*72
$GPGSV,3,3,09,08,07,345,39*47
$GPRMC,063016.712,A,2608.6684,S,02758.8522,E,0.00,,160907,,,A*67
$GPGGA,063017.712,2608.6684,S,02758.8522,E,1,06,1.6,1660.3,M,,,,0000*23
$GPGSA,A,3,28,17,04,20,11,23,,,,,,,2.8,1.6,2.3*35
$GPRMC,063017.712,A,2608.6684,S,02758.8522,E,0.00,,160907,,,A*66
$GPGGA,063018.712,2608.6684,S,02758.8522,E,1,06,1.6,1660.3,M,,,,0000*2C
$GPGSA,A,3,28,17,04,20,11,23,,,,,,,2.8,1.6,2.3*35
$GPRMC,063018.712,A,2608.6684,S,02758.8522,E,0.00,,160907,,,A*69
$GPGGA,063019.712,2608.6684,S,02758.8522,E,1,06,1.6,1660.3,M,,,,0000*2D
$GPGSA,A,3,28,17,04,20,11,23,,,,,,,2.8,1.6,2.3*35
$GPRMC,063019.712,A,2608.6684,S,02758.8522,E,0.00,,160907,,,A*68
$GPGGA,063020.712,2608.6684,S,02758.8522,E,1,06,1.6,1660.3,M,,,,0000*27
$GPGSA,A,3,28,17,04,20,11,23,,,,,,,2.8,1.6,2.3*35
$GPRMC,063020.712,A,2608.6684,S,02758.8522,E,0.00,,160907,,,A*62
$GPGGA,063021.712,2608.6684,S,02758.8522,E,1,06,1.6,1660.3,M,,,,0000*26
$GPGSA,A,3,28,17,04,20,11,23,,,,,,,2.8,1.6,2.3*35
$GPGSV,3,1,09,28,62,003,47,17,57,176,28,04,47,264,27,20,38,127,27*78
$GPGSV,3,2,09,02,17,284,16,11,13,120,20,23,10,074,37,13,07,045,30*7F
$GPGSV,3,3,09,08,06,345,39*46
$GPRMC,063021.712,A,2608.6684,S,02758.8522,E,0.00,,160907,,,A*63
$GPGGA,063022.712,2608.6684,S,02758.8522,E,1,06,1.6,1660.3,M,,,,0000*25
$GPGSA,A,3,28,17,04,20,11,23,,,,,,,2.8,1.6,2.3*35
$GPRMC,063022.712,A,2608.6684,S,02758.8522,E,0.00,,160907,,,A*60
$GPGGA,063023.712,2608.6684,S,02758.8522,E,1,06,1.6,1660.3,M,,,,0000*24
$GPGSA,A,3,28,17,04,20,11,23,,,,,,,2.8,1.6,2.3*35
$GPRMC,063023.712,A,2608.6684,S,02758.8522,E,0.00,,160907,,,A*61
$GPGGA,063024.712,2608.6684,S,02758.8522,E,1,05,1.7,1660.3,M,,,,0000*21
$GPGSA,A,3,28,17,04,20,23,,,,,,,,3.1,1.7,2.6*39
$GPRMC,063024.712,A,2608.6684,S,02758.8522,E,0.00,,160907,,,A*66
$GPGGA,063025.712,2608.6684,S,02758.8522,E,1,06,1.6,1660.3,M,,,,0000*22
$GPGSA,A,3,28,17,04,20,11,23,,,,,,,2.8,1.6,2.3*35
$GPRMC,063025.712,A,2608.6684,S,02758.8522,E,0.00,,160907,,,A*67
$GPGGA,063026.711,2608.6684,S,02758.8522,E,1,06,1.6,1660.3,M,,,,0000*22
$GPGSA,A,3,28,17,04,20,11,23,,,,,,,2.8,1.6,2.3*35
$GPGSV,3,1,09,28,62,003,47,17,57,176,24,04,47,264,27,20,38,127,28*7B
$GPGSV,3,2,09,02,17,284,,11,13,120,22,23,10,074,38,13,07,045,31*74
$GPGSV,3,3,09,08,06,345,38*47
$GPRMC,063026.711,A,2608.6684,S,02758.8522,E,0.00,,160907,,,A*67
$GPGGA,063027.711,2608.6684,S,02758.8522,E,1,06,1.6,1660.3,M,,,,0000*23
$GPGSA,A,3,28,17,04,20,11,23,,,,,,,2.8,1.6,2.3*35
$GPRMC,063027.711,A,2608.6684,S,02758.8522,E,0.00,,160907,,,A*66
$GPGGA,063028.711,2608.6684,S,02758.8522,E,1,06,1.6,1660.3,M,,,,0000*2C
$GPGSA,A,3,28,17,04,20,11,23,,,,,,,2.8,1.6,2.3*35
$GPRMC,063028.711,A,2608.6684,S,02758.8522,E,0.00,,160907,,,A*69
$GPGGA,063029.711,2608.6684,S,02758.8522,E,1,06,1.6,1660.3,M,,,,0000*2D
$GPGSA,A,3,28,17,04,20,11,23,,,,,,,2.8,1.6,2.3*35
$GPRMC,063029.711,A,2608.6684,S,02758.8522,E,0.00,,160907,,,A*68
$GPGGA,063030.711,2608.6684,S,02758.8522,E,1,06,1.6,1660.3,M,,,,0000*25
$GPGSA,A,3,28,17,04,20,11,23,,,,,,,2.8,1.6,2.3*35
$GPRMC,063030.711,A,2608.6684,S,02758.8522,E,0.00,,160907,,,A*60
$GPGGA,063031.711,2608.6684,S,02758.8522,E,1,06,1.6,1660.3,M,,,,0000*24
$GPGSA,A,3,28,17,04,20,11,23,,,,,,,2.8,1.6,2.3*35
$GPGSV,3,1,09,28,62,003,47,17,57,176,25,04,47,264,29,20,38,127,29*75
$GPGSV,3,2,09,02,17,284,,11,13,120,25,23,10,074,38,13,07,045,31*73
$GPGSV,3,3,09,08,06,345,38*47
$GPRMC,063031.711,A,2608.6684,S,02758.8522,E,0.00,,160907,,,A*61
$GPGGA,063032.711,2608.6684,S,02758.8522,E,1,06,1.6,1660.3,M,,,,0000*27
$GPGSA,A,3,28,17,04,20,11,23,,,,,,,2.8,1.6,2.3*35
$GPRMC,063032.711,A,2608.6684,S,02758.8522,E,0.00,,160907,,,A*62
$GPGGA,063033.711,2608.6684,S,02758.8522,E,1,05,1.7,1660.3,M,,,,0000*24
$GPGSA,A,3,28,17,04,20,23,,,,,,,,3.1,1.7,2.6*39
$GPRMC,063033.711,A,2608.6684,S,02758.8522,E,0.00,,160907,,,A*63
$GPGGA,063034.711,2608.6684,S,02758.8522,E,1,06,1.6,1660.3,M,,,,0000*21
$GPGSA,A,3,28,17,04,20,11,23,,,,,,,2.8,1.6,2.3*35
$GPRMC,063034.711,A,2608.6684,S,02758.8522,E,0.00,,160907,,,A*64
$GPGGA,063035.711,2608.6684,S,02758.8522,E,1,06,1.6,1660.3,M,,,,0000*20
$GPGSA,A,3,28,17,04,20,11,23,,,,,,,2.8,1.6,2.3*35
$GPRMC,063035.711,A,2608.6684,S,02758.8522,E,0.00,,160907,,,A*65
$GPGGA,063036.711,2608.6684,S,02758.8522,E,1,06,1.6,1660.3,M,,,,0000*23
$GPGSA,A,3,28,17,04,20,11,23,,,,,,,2.8,1.6,2.3*35
$GPGSV,3,1,09,28,62,003,48,17,57,176,28,04,47,264,29,20,38,127,31*7E
$GPGSV,3,2,09,02,17,284,,11,13,120,25,23,10,074,35,13,07,045,36*79
$GPGSV,3,3,09,08,06,345,39*46
$GPRMC,063036.711,A,2608.6684,S,02758.8522,E,0.00,,160907,,,A*66
$GPGGA,063037.711,2608.6684,S,02758.8522,E,1,06,1.6,1660.3,M,,,,0000*22
$GPGSA,A,3,28,17,04,20,11,23,,,,,,,2.8,1.6,2.3*35
$GPRMC,063037.711,A,2608.6684,S,02758.8522,E,0.00,,160907,,,A*67
$GPGGA,063038.711,2608.6684,S,02758.8522,E,1,06,1.6,1660.3,M,,,,0000*2D
$GPGSA,A,3,28,17,04,20,11,23,,,,,,,2.8,1.6,2.3*35
$GPRMC,063038.711,A,2608.6684,S,02758.8522,E,0.00,,160907,,,A*68
$GPGGA,063039.711,2608.6684,S,02758.8522,E,1,06,1.6,1660.3,M,,,,0000*2C
$GPGSA,A,3,28,17,04,20,11,23,,,,,,,2.8,1.6,2.3*35
$GPRMC,063039.711,A,2608.6684,S,02758.8522,E,0.00,,160907,,,A*69
$GPGGA,063040.711,2608.6684,S,02758.8522,E,1,06,1.6,1660.3,M,,,,0000*22
$GPGSA,A,3,28,17,04,20,11,23,,,,,,,2.8,1.6,2.3*35
$GPRMC,063040.711,A,2608.6684,S,02758.8522,E,0.00,,160907,,,A*67
$GPGGA,063041.711,2608.6684,S,02758.8522,E,1,06,1.6,1660.3,M,,,,0000*23
$GPGSA,A,3,28,17,04,20,11,23,,,,,,,2.8,1.6,2.3*35
$GPGSV,3,1,09,28,62,003,48,17,57,175,28,04,47,263,29,20,38,127,27*7D
$GPGSV,3,2,09,02,17,284,,11,13,120,26,23,10,074,36,13,07,045,32*7D
$GPGSV,3,3,09,08,06,345,38*47
$GPRMC,063041.711,A,2608.6684,S,02758.8522,E,0.00,,160907,,,A*66
$GPGGA,063042.711,2608.6684,S,02758.8522,E,1,06,1.6,1660.3,M,,,,0000*20
$GPGSA,A,3,28,17,04,20,11,23,,,,,,,2.8,1.6,2.3*35
$GPRMC,063042.711,A,2608.6684,S,02758.8522,E,0.00,,160907,,,A*65
$GPGGA,063043.710,2608.6684,S,02758.8522,E,1,06,1.6,1660.3,M,,,,0000*20
$GPGSA,A,3,28,17,04,20,11,23,,,,,,,2.8,1.6,2.3*35
$GPRMC,063043.710,A,2608.6684,S,02758.8522,E,0.00,,160907,,,A*65
$GPGGA,063044.710,2608.6684,S,02758.8522,E,1,06,1.6,1660.3,M,,,,0000*27
$GPGSA,A,3,28,17,04,20,11,23,,,,,,,2.8,1.6,2.3*35
$GPRMC,063044.710,A,2608.6684,S,02758.8522,E,0.00,,160907,,,A*62
$GPGGA,063045.710,2608.6684,S,02758.8522,E,1,06,1.6,1660.3,M,,,,0000*26
$GPGSA,A,3,28,17,04,20,11,23,,,,,,,2.8,1.6,2.3*35
$GPRMC,063045.710,A,2608.6684,S,02758.8522,E,0.00,,160907,,,A*63
$GPGGA,063046.710,2608.6684,S,02758.8522,E,1,06,1.6,1660.3,M,,,,0000*25
$GPGSA,A,3,28,17,04,20,11,23,,,,,,,2.8,1.6,2.3*35
$GPGSV,3,1,09,28,62,003,47,17,57,175,21,04,47,263,22,20,38,127,28*7F
$GPGSV,3,2,09,02,17,284,,11,13,120,27,23,10,074,41,13,07,045,23*7C
$GPGSV,3,3,09,08,06,345,32*4D
$GPRMC,063046.710,A,2608.6684,S,02758.8522,E,0.00,,160907,,,A*60
$GPGGA,063047.710,2608.6684,S,02758.8522,E,1,06,1.6,1660.3,M,,,,0000*24
$GPGSA,A,3,28,17,04,20,11,23,,,,,,,2.8,1.6,2.4*32
$GPRMC,063047.710,A,2608.6684,S,02758.8522,E,0.00,,160907,,,A*61
$GPGGA,063048.710,2608.6684,S,02758.8522,E,1,06,1.6,1660.3,M,,,,0000*2B
$GPGSA,A,3,28,17,04,20,11,23,,,,,,,2.8,1.6,2.4*32
$GPRMC,063048.710,A,2608.6684,S,02758.8522,E,0.00,,160907,,,A*6E
$GPGGA,063049.710,2608.6684,S,02758.8522,E,1,06,1.6,1660.3,M,,,,0000*2A
$GPGSA,A,3,28,17,04,20,11,23,,,,,,,2.8,1.6,2.4*32
$GPRMC,063049.710,A,2608.6684,S,02758.8522,E,0.00,,160907,,,A*6F
$GPGGA,063050.710,2608.6684,S,02758.8522,E,1,06,1.6,1660.3,M,,,,0000*22
$GPGSA,A,3,28,17,04,20,11,23,,,,,,,2.8,1.6,2.4*32
$GPRMC,063050.710,A,2608.6684,S,02758.8522,E,0.00,,160907,,,A*67
$GPGGA,063051.710,2608.6684,S,02758.8522,E,1,06,1.6,1660.3,M,,,,0000*23
$GPGSA,A,3,28,17,04,20,11,23,,,,,,,2.8,1.6,2.4*32
$GPGSV,3,1,09,28,62,003,47,17,57,175,21,04,47,263,24,20,38,127,29*78
$GPGSV,3,2,09,02,17,284,,11,13,120,38,23,10,074,42,13,07,045,23*71
$GPGSV,3,3,09,08,06,345,45*4D
$GPRMC,063051.710,A,2608.6684,S,02758.8522,E,0.00,,160907,,,A*66
$GPGGA,063052.710,2608.6684,S,02758.8522,E,1,06,1.6,1660.3,M,,,,0000*20
$GPGSA,A,3,28,17,04,20,11,23,,,,,,,2.8,1.6,2.4*32
$GPRMC,063052.710,A,2608.6684,S,02758.8522,E,0.00,,160907,,,A*65
$GPGGA,063053.710,2608.6684,S,02758.8522,E,1,06,1.6,1660.3,M,,,,0000*21
$GPGSA,A,3,28,17,04,20,11,23,,,,,,,2.8,1.6,2.4*32
$GPRMC,063053.710,A,2608.6684,S,02758.8522,E,0.00,,160907,,,A*64
$GPGGA,063054.710,2608.6684,S,02758.8522,E,1,06,1.6,1660.3,M,,,,0000*26
$GPGSA,A,3,28,17,04,20,11,23,,,,,,,2.8,1.6,2.4*32
$GPRMC,063054.710,A,2608.6684,S,02758.8522,E,0.00,,160907,,,A*63
$GPGGA,063055.710,2608.6684,S,02758.8522,E,1,06,1.6,1660.3,M,,,,0000*27
$GPGSA,A,3,28,17,04,20,11,23,,,,,,,2.8,1.6,2.4*32
$GPRMC,063055.710,A,2608.6684,S,02758.8522,E,0.00,,160907,,,A*62
$GPGGA,063056.710,2608.6684,S,02758.8522,E,1,06,1.6,1660.3,M,,,,0000*24
$GPGSA,A,3,28,17,04,20,11,23,,,,,,,2.8,1.6,2.4*32
$GPGSV,3,1,09,28,62,003,46,17,57,175,23,04,47,263,22,20,38,127,31*74
$GPGSV,3,2,09,02,17,284,,11,13,120,23,23,10,074,41,13,07,045,26*7D
$GPGSV,3,3,09,08,06,345,33*4C
$GPRMC,063056.710,A,2608.6684,S,02758.8522,E,0.00,,160907,,,A*61
$GPGGA,063057.710,2608.6684,S,02758.8522,E,1,06,1.6,1660.3,M,,,,0000*25
$GPGSA,A,3,28,17,04,20,11,23,,,,,,,2.8,1.6,2.4*32
$GPRMC,063057.710,A,2608.6684,S,02758.8522,E,0.00,,160907,,,A*60
$GPGGA,063058.710,2608.6684,S,02758.8522,E,1,06,1.6,1660.3,M,,,,0000*2A
$GPGSA,A,3,28,17,04,20,11,23,,,,,,,2.8,1.6,2.4*32
$GPRMC,063058.710,A,2608.6684,S,02758.8522,E,0.00,,160907,,,A*6F
$GPGGA,063059.709,2608.6684,S,02758.8522,E,1,06,1.6,1660.3,M,,,,0000*23
$GPGSA,A,3,28,17,04,20,11,23,,,,,,,2.8,1.6,2.4*32
$GPRMC,063059.709,A,2608.6684,S,02758.8522,E,0.00,,160907,,,A*66
$GPGGA,063100.709,2608.6684,S,02758.8522,E,1,06,1.6,1660.3,M,,,,0000*2E
$GPGSA,A,3,28,17,04,20,11,23,,,,,,,2.8,1.6,2.4*32
$GPRMC,063100.709,A,2608.6684,S,02758.8522,E,0.00,,160907,,,A*6B
$GPGGA,063101.709,2608.6684,S,02758.8522,E,1,06,1.6,1660.3,M,,,,0000*2F
$GPGSA,A,3,28,17,04,20,11,23,,,,,,,2.8,1.6,2.4*32
$GPGSV,3,1,09,28,62,003,46,17,57,175,24,04,47,263,23,20,38,127,31*72
$GPGSV,3,2,09,02,17,284,,11,13,120,23,23,10,074,43,13,07,045,18*72
$GPGSV,3,3,09,08,06,345,30*4F
$GPRMC,063101.709,A,2608.6684,S,02758.8522,E,0.00,,160907,,,A*6A
$GPGGA,063102.709,2608.6684,S,02758.8522,E,1,06,1.6,1660.3,M,,,,0000*2C
$GPGSA,A,3,28,17,04,20,11,23,,,,,,,2.8,1.6,2.4*32
$GPRMC,063102.709,A,2608.6684,S,02758.8522,E,0.00,,160907,,,A*69
$GPGGA,063103.709,2608.6684,S,02758.8522,E,1,06,1.6,1660.3,M,,,,0000*2D
$GPGSA,A,3,28,17,04,20,11,23,,,,,,,2.8,1.6,2.4*32
$GPRMC,063103.709,A,2608.6684,S,02758.8522,E,0.00,,160907,,,A*68
$GPGGA,063104.709,2608.6684,S,02758.8522,E,1,06,1.6,1660.3,M,,,,0000*2A
$GPGSA,A,3,28,17,04,20,11,23,,,,,,,2.8,1.6,2.4*32
$GPRMC,063104.709,A,2608.6684,S,02758.8522,E,0.00,,160907,,,A*6F
$GPGGA,063105.709,2608.6684,S,02758.8522,E,1,06,1.6,1660.3,M,,,,0000*2B
$GPGSA,A,3,28,17,04,20,11,23,,,,,,,2.8,1.6,2.4*32
$GPRMC,063105.709,A,2608.6684,S,02758.8522,E,0.00,,160907,,,A*6E
$GPGGA,063106.709,2608.6684,S,02758.8522,E,1,06,1.6,1660.3,M,,,,0000*28
$GPGSA,A,3,28,17,04,20,11,23,,,,,,,2.8,1.6,2.4*32
$GPGSV,3,1,09,28,62,003,46,17,57,175,24,04,47,263,20,20,38,127,31*71
$GPGSV,3,2,09,02,17,284,,11,13,120,20,23,10,074,43,13,07,045,16*7F
$GPGSV,3,3,09,08,06,345,32*4D
$GPRMC,063106.709,A,2608.6684,S,02758.8522,E,0.00,,160907,,,A*6D
$GPGGA,063107.709,2608.6684,S,02758.8522,E,1,06,1.6,1660.3,M,,,,0000*29
$GPGSA,A,3,28,17,04,20,11,23,,,,,,,2.8,1.6,2.4*32
$GPRMC,063107.709,A,2608.6684,S,02758.8522,E,0.00,,160907,,,A*6C
$GPGGA,063108.709,2608.6684,S,02758.8522,E,1,06,1.6,1660.3,M,,,,0000*26
$GPGSA,A,3,28,17,04,20,11,23,,,,,,,2.8,1.6,2.4*32
$GPRMC,063108.709,A,2608.6684,S,02758.8522,E,0.00,,160907,,,A*63
$GPGGA,063109.709,2608.6684,S,02758.8522,E,1,06,1.6,1660.3,M,,,,0000*27
$GPGSA,A,3,28,17,04,20,11,23,,,,,,,2.8,1.6,2.4*32
$GPRMC,063109.709,A,2608.6684,S,02758.8522,E,0.00,,160907,,,A*62
$GPGGA,063110.709,2608.6684,S,02758.8522,E,1,06,1.6,1660.3,M,,,,0000*2F
$GPGSA,A,3,28,17,04,20,11,23,,,,,,,2.8,1.6,2.4*32
$GPRMC,063110.709,A,2608.6684,S,02758.8522,E,0.00,,160907,,,A*6A
$GPGGA,063111.709,2608.6684,S,02758.8522,E,1,06,1.6,1660.3,M,,,,0000*2E
$GPGSA,A,3,28,17,04,20,11,23,,,,,,,2.8,1.6,2.4*32
$GPGSV,3,1,09,28,62,003,46,17,57,175,23,04,47,263,21,20,38,127,31*77
$GPGSV,3,2,09,02,17,284,,11,13,120,23,23,10,074,43,13,07,045,15*7F
$GPGSV,3,3,09,08,06,345,32*4D
$GPRMC,063111.709,A,2608.6684,S,02758.8522,E,0.00,,160907,,,A*6B
$GPGGA,063112.709,2608.6684,S,02758.8522,E,1,06,1.6,1660.3,M,,,,0000*2D
$GPGSA,A,3,28,17,04,20,11,23,,,,,,,2.8,1.6,2.4*32
$GPRMC,063112.709,A,2608.6684,S,02758.8522,E,0.00,,160907,,,A*68
$GPGGA,063113.709,2608.6684,S,02758.8522,E,1,06,1.6,1660.3,M,,,,0000*2C
$GPGSA,A,3,28,17,04,20,11,23,,,,,,,2.8,1.6,2.4*32
$GPRMC,063113.709,A,2608.6684,S,02758.8522,E,0.00,,160907,,,A*69
$GPGGA,063114.709,2608.6684,S,02758.8522,E,1,06,1.6,1660.3,M,,,,0000*2B
$GPGSA,A,3,28,17,04,20,11,23,,,,,,,2.8,1.6,2.4*32
$GPRMC,063114.709,A,2608.6684,S,02758.8522,E,0.00,,160907,,,A*6E
$GPGGA,063115.709,2608.6684,S,02758.8522,E,1,06,1.6,1660.3,M,,,,0000*2A
$GPGSA,A,3,28,17,04,20,11,23,,,,,,,2.8,1.6,2.4*32
$GPRMC,063115.709,A,2608.6684,S,02758.8522,E,0.00,,160907,,,A*6F
$GPGGA,063116.708,2608.6684,S,02758.8522,E,1,06,1.6,1660.3,M,,,,0000*28
$GPGSA,A,3,28,17,04,20,11,23,,,,,,,2.8,1.6,2.4*32
$GPGSV,3,1,09,28,62,003,46,17,57,175,25,04,47,263,25,20,38,127,31*75
$GPGSV,3,2,09,02,17,284,,11,13,120,20,23,10,074,42,13,07,045,15*7D
$GPGSV,3,3,09,08,06,345,32*4D
$GPRMC,063116.708,A,2608.6684,S,02758.8522,E,0.00,,160907,,,A*6D
$GPGGA,063117.708,2608.6684,S,02758.8522,E,1,06,1.6,1660.3,M,,,,0000*29
$GPGSA,A,3,28,17,04,20,11,23,,,,,,,2.8,1.6,2.4*32
$GPRMC,063117.708,A,2608.6684,S,02758.8522,E,0.00,,160907,,,A*6C
$GPGGA,063118.708,2608.6684,S,02758.8522,E,1,06,1.6,1660.3,M,,,,0000*26
$GPGSA,A,3,28,17,04,20,11,23,,,,,,,2.8,1.6,2.4*32
$GPRMC,063118.708,A,2608.6684,S,02758.8522,E,0.00,,160907,,,A*63
$GPGGA,063119.708,2608.6684,S,02758.8522,E,1,06,1.6,1660.3,M,,,,0000*27
$GPGSA,A,3,28,17,04,20,11,23,,,,,,,2.8,1.6,2.4*32
$GPRMC,063119.708,A,2608.6684,S,02758.8522,E,0.00,,160907,,,A*62
$GPGGA,063120.708,2608.6684,S,02758.8522,E,1,06,1.6,1660.3,M,,,,0000*2D
$GPGSA,A,3,28,17,04,20,11,23,,,,,,,2.8,1.6,2.4*32
$GPRMC,063120.708,A,2608.6684,S,02758.8522,E,0.00,,160907,,,A*68
$GPGGA,063121.708,2608.6684,S,02758.8522,E,1,06,1.6,1660.3,M,,,,0000*2C
$GPGSA,A,3,28,17,04,20,11,23,,,,,,,2.8,1.6,2.4*32
$GPGSV,3,1,09,28,62,003,47,17,57,175,24,04,47,263,24,20,38,127,31*74
$GPGSV,3,2,09,02,17,284,,11,13,120,22,23,10,074,42,13,07,045,*7B
$GPGSV,3,3,09,08,06,345,32*4D
$GPRMC,063121.708,A,2608.6684,S,02758.8522,E,0.00,,160907,,,A*69
$GPGGA,063122.708,2608.6684,S,02758.8522,E,1,03,42.6,1660.3,M,,,,0000*1D
$GPGSA,A,2,28,20,23,,,,,,,,,,50.0,42.6,50.0*0A
$GPRMC,063122.708,A,2608.6684,S,02758.8522,E,0.00,,160907,,,A*6A
$GPGGA,063123.708,2608.6684,S,02758.8522,E,1,03,42.6,1660.3,M,,,,0000*1C
$GPGSA,A,2,28,20,23,,,,,,,,,,50.0,42.6,50.0*0A
$GPRMC,063123.708,A,2608.6684,S,02758.8522,E,0.00,,160907,,,A*6B
$GPGGA,063124.708,2608.6684,S,02758.8522,E,1,03,42.6,1660.3,M,,,,0000*1B
$GPGSA,A,2,28,20,23,,,,,,,,,,50.0,42.6,50.0*0A
$GPRMC,063124.708,A,2608.6684,S,02758.8522,E,0.00,,160907,,,A*6C
$GPGGA,063125.708,2608.6684,S,02758.8522,E,1,06,1.6,1660.3,M,,,,0000*28
$GPGSA,A,3,28,17,04,20,11,23,,,,,,,2.8,1.6,2.4*32
$GPRMC,063125.708,A,2608.6684,S,02758.8522,E,0.00,,160907,,,A*6D
$GPGGA,063126.708,2608.6684,S,02758.8522,E,1,06,1.6,1660.3,M,,,,0000*2B
$GPGSA,A,3,28,17,04,20,11,23,,,,,,,2.8,1.6,2.4*32
$GPGSV,3,1,09,28,62,003,47,17,57,175,20,04,47,263,21,20,38,127,31*75
$GPGSV,3,2,09,02,17,284,,11,13,120,26,23,10,074,41,13,07,045,23*7D
$GPGSV,3,3,09,08,06,345,*4C
$GPRMC,063126.708,A,2608.6684,S,02758.8522,E,0.00,,160907,,,A*6E
$GPGGA,063127.708,2608.6684,S,02758.8522,E,1,06,1.6,1660.3,M,,,,0000*2A
$GPGSA,A,3,28,17,04,20,11,23,,,,,,,2.8,1.6,2.4*32
$GPRMC,063127.708,A,2608.6684,S,02758.8522,E,0.00,,160907,,,A*6F
$GPGGA,063128.708,2608.6684,S,02758.8522,E,1,06,1.6,1660.3,M,,,,0000*25
$GPGSA,A,3,28,17,04,20,11,23,,,,,,,2.8,1.6,2.4*32
$GPRMC,063128.708,A,2608.6684,S,02758.8522,E,0.00,,160907,,,A*60
$GPGGA,063129.708,2608.6684,S,02758.8522,E,1,06,1.6,1660.3,M,,,,0000*24
$GPGSA,A,3,28,17,04,20,11,23,,,,,,,2.8,1.6,2.4*32
$GPRMC,063129.708,A,2608.6684,S,02758.8522,E,0.00,,160907,,,A*61
$GPGGA,063130.708,2608.6684,S,02758.8522,E,1,06,1.6,1660.3,M,,,,0000*2C
$GPGSA,A,3,28,17,04,20,11,23,,,,,,,2.8,1.6,2.4*32
$GPRMC,063130.708,A,2608.6684,S,02758.8522,E,0.00,,160907,,,A*69
$GPGGA,063131.708,2608.6684,S,02758.8522,E,1,05,1.7,1660.3,M,,,,0000*2F
$GPGSA,A,3,28,17,04,20,23,,,,,,,,3.1,1.7,2.7*38
$GPGSV,3,1,09,28,62,003,47,17,57,175,22,04,47,263,22,20,38,127,29*7D
$GPGSV,3,2,09,02,17,284,,11,13,120,25,23,10,074,43,13,07,045,26*79
$GPGSV,3,3,09,08,06,345,33*4C
$GPRMC,063131.708,A,2608.6684,S,02758.8522,E,0.00,,160907,,,A*68
$GPGGA,063132.708,2608.6684,S,02758.8522,E,1,05,1.7,1660.3,M,,,,0000*2C
$GPGSA,A,3,28,17,04,20,23,,,,,,,,3.1,1.7,2.7*38
$GPRMC,063132.708,A,2608.6684,S,02758.8522,E,0.00,,160907,,,A*6B
$GPGGA,063133.707,2608.6684,S,02758.8522,E,1,05,1.7,1660.3,M,,,,0000*22
$GPGSA,A,3,28,17,04,20,23,,,,,,,,3.1,1.7,2.7*38
