$GPRMC,175947.000,A,4812.0597,N,01136.4663,E,0.0,163.8,010907,,,A*62
$GPGGA,175947.000,4812.0597,N,01136.4663,E,1,07,1.4,495.3,M,,,,*09
$GPRMC,180005.000,A,4812.0597,N,01136.4663,E,0.0,163.8,010907,,,A*67
$GPGGA,180005.000,4812.0597,N,01136.4663,E,1,07,1.4,495.3,M,,,,*0C
$GPRMC,180007.000,A,4812.0570,N,01136.4688,E,4.1,132.8,010907,,,A*68
$GPGGA,180008.000,4812.0561,N,01136.4699,E,1,07,1.4,500.7,M,,,,*04
$GPRMC,180015.000,A,4812.0535,N,01136.4726,E,3.5,123.2,010907,,,A*66
$GPGGA,180015.000,4812.0535,N,01136.4726,E,1,07,1.4,500.4,M,,,,*0F
$GPRMC,180021.000,A,4812.0527,N,01136.4812,E,3.3,106.0,010907,,,A*69
$GPGGA,180021.000,4812.0527,N,01136.4812,E,1,07,1.4,500.6,M,,,,*01
$GPRMC,180039.000,A,4812.0220,N,01136.4751,E,5.3,206.1,010907,,,A*6C
$GPGGA,180039.000,4812.0220,N,01136.4751,E,1,07,1.4,498.4,M,,,,*02
$GPRMC,180042.000,A,4812.0199,N,01136.4651,E,12.0,244.1,010907,,,A*53
$GPGGA,180042.000,4812.0199,N,01136.4651,E,1,07,1.4,498.3,M,,,,*09
$GPRMC,180127.000,A,4812.0323,N,01136.3646,E,0.0,278.2,010907,,,A*6C
$GPGGA,180127.000,4812.0323,N,01136.3646,E,1,07,1.4,498.3,M,,,,*09
$GPRMC,180203.000,A,4812.0323,N,01136.3646,E,0.0,278.2,010907,,,A*69
$GPGGA,180203.000,4812.0323,N,01136.3646,E,1,07,1.4,498.3,M,,,,*0C
$GPRMC,180242.000,A,4811.7987,N,01136.2341,E,34.2,198.3,010907,,,A*56
$GPGGA,180242.000,4811.7987,N,01136.2341,E,1,07,1.4,502.9,M,,,,*02
$GPRMC,180258.000,A,4811.6545,N,01136.1628,E,33.1,198.1,010907,,,A*51
$GPGGA,180258.000,4811.6545,N,01136.1628,E,1,07,1.4,502.3,M,,,,*09
$GPRMC,180319.000,A,4811.5695,N,01135.9922,E,9.1,273.7,010907,,,A*6F
$GPGGA,180319.000,4811.5695,N,01135.9922,E,1,07,1.4,500.4,M,,,,*0B
$GPRMC,180356.000,A,4811.6830,N,01135.9581,E,27.4,0.1,010907,,,A*5A
$GPGGA,180356.000,4811.6830,N,01135.9581,E,1,07,1.4,499.5,M,,,,*07
$GPRMC,180430.000,A,4811.7695,N,01135.6416,E,28.9,281.1,010907,,,A*54
$GPGGA,180430.000,4811.7695,N,01135.6416,E,1,07,1.4,498.8,M,,,,*0C
$GPRMC,180432.000,A,4811.7723,N,01135.6209,E,21.4,281.4,010907,,,A*53
$GPGGA,180432.000,4811.7723,N,01135.6209,E,1,07,1.4,498.7,M,,,,*05
$GPRMC,180436.000,A,4811.7706,N,01135.5965,E,12.8,253.2,010907,,,A*57
$GPGGA,180436.000,4811.7706,N,01135.5965,E,1,07,1.4,498.2,M,,,,*01
$GPRMC,180438.000,A,4811.7627,N,01135.5933,E,16.0,218.9,010907,,,A*50
$GPGGA,180438.000,4811.7627,N,01135.5933,E,1,07,1.4,497.8,M,,,,*0B
$GPRMC,180510.000,A,4811.5664,N,01135.5893,E,9.8,216.6,010907,,,A*62
$GPGGA,180510.000,4811.5664,N,01135.5893,E,1,07,1.4,513.2,M,,,,*09
$GPRMC,180556.000,A,4811.5664,N,01135.4431,E,0.0,268.5,010907,,,A*6E
$GPGGA,180556.000,4811.5664,N,01135.4431,E,1,07,1.4,522.0,M,,,,*0E
$GPRMC,180632.000,A,4811.5606,N,01135.1384,E,20.7,268.4,010907,,,A*53
$GPGGA,180632.000,4811.5606,N,01135.1384,E,1,07,1.4,516.7,M,,,,*07
$GPRMC,180644.000,A,4811.5599,N,01135.0573,E,10.6,273.4,010907,,,A*50
$GPGGA,180644.000,4811.5599,N,01135.0573,E,1,07,1.4,511.6,M,,,,*0A
$GPRMC,180717.000,A,4811.7801,N,01135.0716,E,29.8,7.5,010907,,,A*5C
$GPGGA,180718.000,4811.7884,N,01135.0732,E,1,07,1.4,502.3,M,,,,*01
$GPRMC,180803.000,A,4811.9388,N,01135.1020,E,25.8,7.9,010907,,,A*51
$GPGGA,180803.000,4811.9388,N,01135.1020,E,1,07,1.4,496.7,M,,,,*00
$GPRMC,180827.000,A,4812.0525,N,01135.1275,E,9.6,8.7,010907,,,A*6F
$GPGGA,180827.000,4812.0525,N,01135.1275,E,1,07,1.4,489.1,M,,,,*07
$GPRMC,180827.000,A,4812.0525,N,01135.1275,E,9.6,8.7,010907,,,A*6F
$GPGGA,180827.000,4812.0525,N,01135.1275,E,1,07,1.4,489.1,M,,,,*07
$GPRMC,180920.000,A,4812.0976,N,01135.5740,E,0.0,90.1,010907,,,A*5C
$GPGGA,180920.000,4812.0976,N,01135.5740,E,1,07,1.4,499.3,M,,,,*0F
$GPRMC,181005.000,A,4812.0889,N,01135.8801,E,1.7,84.5,010907,,,A*52
$GPGGA,181005.000,4812.0889,N,01135.8801,E,1,06,1.4,501.3,M,,,,*07
$GPRMC,181016.000,A,4812.1206,N,01135.8935,E,18.0,13.9,010907,,,A*67
$GPGGA,181016.000,4812.1206,N,01135.8935,E,1,07,1.4,496.6,M,,,,*04
$GPRMC,181044.000,A,4812.2130,N,01135.9681,E,10.8,85.2,010907,,,A*60
$GPGGA,181044.000,4812.2130,N,01135.9681,E,1,07,1.4,496.0,M,,,,*01
$GPRMC,181047.000,A,4812.2045,N,01135.9802,E,16.0,122.0,010907,,,A*55
$GPGGA,181047.000,4812.2045,N,01135.9802,E,1,07,1.4,495.8,M,,,,*0F
$GPRMC,181143.000,A,4812.1671,N,01136.3802,E,13.9,57.1,010907,,,A*65
$GPGGA,181144.000,4812.1687,N,01136.3847,E,1,07,1.4,500.0,M,,,,*0B
$GPRMC,181216.000,A,4812.0797,N,01136.4827,E,11.4,106.7,010907,,,A*52
$GPGGA,181216.000,4812.0797,N,01136.4827,E,1,05,1.8,504.4,M,,,,*01
$GPRMC,181218.000,A,4812.0779,N,01136.4904,E,8.3,111.4,010907,,,A*66
$GPGGA,181219.000,4812.0766,N,01136.4927,E,1,07,1.4,504.3,M,,,,*08
$GPRMC,181230.000,A,4812.0539,N,01136.4822,E,4.7,227.8,010907,,,A*6D
$GPGGA,181230.000,4812.0539,N,01136.4822,E,1,06,1.4,503.2,M,,,,*08
$GPRMC,181257.000,A,4812.0551,N,01136.4742,E,5.9,277.9,010907,,,A*60
$GPGGA,181257.000,4812.0551,N,01136.4742,E,1,07,1.4,502.2,M,,,,*0E
$GPRMC,181320.000,A,4812.0568,N,01136.4653,E,0.0,281.4,010907,,,A*62
$GPGGA,181320.000,4812.0568,N,01136.4653,E,1,06,1.4,503.5,M,,,,*03
