@Sonygps/ver1.0/wgs-84
$GPGGA,162516,3554.2118,N,10619.4925,W,1,03,06.8,02294.9,M,-022.4,M,,*7F
$GPGSA,A,2,02,05,12,,,,,,,,,,06.9,06.8,00.9*0F
$GPGSV,3,1,09,02,70,025,35,04,32,048,00,05,53,297,34,09,14,221,00*7A
$GPGSV,3,2,09,10,38,160,33,12,69,285,34,17,05,097,00,29,15,293,00*72
$GPGSV,3,3,09,30,36,311,35,,,,,,,,,,,,*43
$GPRMC,162516,A,3554.2118,N,10619.4925,W,003.2,272.2,140208,,,A*66
$GPVTG,272.2,T,,M,003.2,N,006.0,K,A*0F
$GPGGA,162541,3554.2432,N,10619.4933,W,1,03,06.8,02294.9,M,-022.4,M,,*77
$GPGSA,A,2,02,05,12,,,,,,,,,,06.8,06.8,01.0*06
$GPGSV,3,1,11,02,70,025,45,04,32,048,00,05,53,297,43,09,14,221,24*72
$GPGSV,3,2,11,10,38,160,36,12,69,285,42,17,05,097,00,29,15,293,28*75
$GPGSV,3,3,11,30,36,311,36,14,,,26,13,,,00,,,,*4A
$GPRMC,162541,A,3554.2432,N,10619.4933,W,001.1,357.0,140208,,,A*6B
$GPVTG,357.0,T,,M,001.1,N,002.1,K,A*0F
$GPGGA,162556,3554.2282,N,10619.4943,W,1,04,08.8,02295.4,M,-022.4,M,,*7E
$GPGSA,A,3,02,04,05,12,,,,,,,,,10.9,08.8,06.4*08
$GPGSV,3,1,09,02,70,026,45,04,32,048,40,05,53,297,41,09,14,221,00*78
$GPGSV,3,2,09,10,38,160,42,12,69,284,40,17,05,097,00,29,16,293,00*75
$GPGSV,3,3,09,30,36,311,42,,,,,,,,,,,,*43
$GPRMC,162556,A,3554.2282,N,10619.4943,W,000.0,357.0,140208,,,A*67
$GPVTG,357.0,T,,M,000.0,N,000.0,K,A*0C
$GPGGA,162611,3554.2367,N,10619.4966,W,1,03,06.7,02300.3,M,-022.4,M,,*7F
$GPGSA,A,2,02,05,12,,,,,,,,,,06.8,06.7,00.9*01
$GPGSV,3,1,10,02,70,026,39,04,32,048,36,05,53,297,41,09,14,221,00*7A
$GPGSV,3,2,10,10,38,160,41,12,69,284,35,17,05,097,00,29,16,293,00*7C
$GPGSV,3,3,10,30,36,310,42,24,,,36,,,,,,,,*49
$GPRMC,162611,A,3554.2367,N,10619.4966,W,000.0,357.0,140208,,,A*6A
$GPVTG,357.0,T,,M,000.0,N,000.0,K,A*0C
$GPGGA,162626,3554.2376,N,10619.4957,W,1,04,08.6,02314.6,M,-022.4,M,,*71
$GPGSA,A,3,02,04,05,12,,,,,,,,,10.7,08.6,06.3*0F
$GPGSV,3,1,11,02,69,026,45,04,32,048,35,05,53,297,36,09,14,221,51*7F
$GPGSV,3,2,11,10,39,160,42,12,70,284,41,17,05,097,00,29,16,293,00*74
$GPGSV,3,3,11,30,36,310,35,24,,,46,13,,,00,,,,*4D
$GPRMC,162626,A,3554.2376,N,10619.4957,W,000.0,357.0,140208,,,A*6C
$GPVTG,357.0,T,,M,000.0,N,000.0,K,A*0C
$GPGGA,162641,3554.2360,N,10619.4966,W,1,05,01.4,02310.6,M,-022.4,M,,*7B
$GPGSA,A,3,04,05,09,10,12,,,,,,,,02.5,01.4,02.1*09
$GPGSV,3,1,10,02,69,026,46,04,32,048,43,05,53,297,38,09,14,220,45*76
$GPGSV,3,2,10,10,39,160,41,12,70,283,40,17,04,097,00,29,16,293,00*71
$GPGSV,3,3,10,30,36,310,39,24,,,34,,,,,,,,*47
$GPRMC,162641,A,3554.2360,N,10619.4966,W,000.0,357.0,140208,,,A*68
$GPVTG,357.0,T,,M,000.0,N,000.0,K,A*0C
$GPGGA,162656,3554.2370,N,10619.4971,W,1,06,01.3,02309.9,M,-022.4,M,,*79
$GPGSA,A,3,02,04,05,09,10,12,,,,,,,02.4,01.3,01.9*06
$GPGSV,3,1,10,02,69,026,48,04,31,048,55,05,53,296,54,09,14,220,36*73
$GPGSV,3,2,10,10,39,160,47,12,70,283,54,17,04,097,00,29,16,293,00*72
$GPGSV,3,3,10,30,36,310,49,24,,,41,,,,,,,,*42
$GPRMC,162656,A,3554.2370,N,10619.4971,W,000.0,357.0,140208,,,A*69
$GPVTG,357.0,T,,M,000.0,N,000.0,K,A*0C
$GPGGA,162711,3554.2377,N,10619.4972,W,1,05,01.8,02310.1,M,-022.4,M,,*77
$GPGSA,A,3,02,04,05,10,12,,,,,,,,04.2,01.8,03.8*07
$GPGSV,3,1,10,02,69,026,46,04,31,048,54,05,54,296,52,09,14,220,00*78
$GPGSV,3,2,10,10,39,159,50,12,70,283,55,17,04,097,00,29,16,293,00*7F
$GPGSV,3,3,10,30,37,310,47,24,,,41,,,,,,,,*4D
$GPRMC,162711,A,3554.2377,N,10619.4972,W,000.0,357.0,140208,,,A*6F
$GPVTG,357.0,T,,M,000.0,N,000.0,K,A*0C
$GPGGA,162726,3554.2384,N,10619.4974,W,1,05,01.8,02309.8,M,-022.4,M,,*78
$GPGSA,A,3,02,04,05,10,12,,,,,,,,04.2,01.8,03.8*07
$GPGSV,3,1,10,02,69,026,46,04,31,048,53,05,54,296,51,09,14,220,30*7F
$GPGSV,3,2,10,10,39,159,51,12,70,282,54,17,04,097,00,29,16,293,00*7E
$GPGSV,3,3,10,30,37,310,42,24,,,42,,,,,,,,*4B
$GPRMC,162726,A,3554.2384,N,10619.4974,W,000.0,357.0,140208,,,A*61
$GPVTG,357.0,T,,M,000.0,N,000.0,K,A*0C
$GPGGA,162741,3554.2391,N,10619.4976,W,1,06,01.3,02309.3,M,-022.4,M,,*7C
$GPGSA,A,3,02,04,05,09,10,12,,,,,,,02.3,01.3,01.9*01
$GPGSV,3,1,10,02,69,026,43,04,31,048,52,05,54,296,52,09,14,220,35*7D
$GPGSV,3,2,10,10,39,159,51,12,70,282,54,17,04,098,00,29,16,293,00*71
$GPGSV,3,3,10,30,37,310,46,24,,,43,,,,,,,,*4E
$GPRMC,162741,A,3554.2391,N,10619.4976,W,000.0,357.0,140208,,,A*66
$GPVTG,357.0,T,,M,000.0,N,000.0,K,A*0C
$GPGGA,162756,3554.2707,N,10619.4497,W,1,06,01.3,02296.9,M,-022.4,M,,*7E
$GPGSA,A,3,02,04,05,09,10,12,,,,,,,02.3,01.3,01.9*01
$GPGSV,3,1,10,02,69,026,49,04,31,048,52,05,54,296,51,09,13,220,40*71
$GPGSV,3,2,10,10,39,159,51,12,70,282,52,17,04,098,00,29,16,294,00*70
$GPGSV,3,3,10,30,37,310,43,24,,,40,,,,,,,,*48
$GPRMC,162756,A,3554.2707,N,10619.4497,W,016.9,071.7,140208,,,A*67
$GPVTG,071.7,T,,M,016.9,N,031.3,K,A*03
$GPGGA,162811,3554.2911,N,10619.3581,W,1,06,01.4,02290.9,M,-022.4,M,,*7B
$GPGSA,A,3,02,04,05,09,10,12,,,,,,,02.3,01.4,01.9*06
$GPGSV,3,1,10,02,69,027,46,04,31,048,49,05,54,296,51,09,13,220,44*71
$GPGSV,3,2,10,10,39,159,51,12,70,281,49,17,04,098,00,29,16,294,00*79
$GPGSV,3,3,10,30,37,310,42,24,,,41,,,,,,,,*48
$GPRMC,162811,A,3554.2911,N,10619.3581,W,019.2,073.7,140208,,,A*65
$GPVTG,073.7,T,,M,019.2,N,035.7,K,A*05
$GPGGA,162826,3554.2516,N,10619.2738,W,1,06,01.4,02287.1,M,-022.4,M,,*7B
$GPGSA,A,3,02,04,05,09,10,12,,,,,,,02.3,01.4,01.9*06
$GPGSV,3,1,10,02,69,027,52,04,31,048,41,05,54,296,50,09,13,220,47*7E
$GPGSV,3,2,10,10,40,159,50,12,70,281,50,17,04,098,00,29,16,294,00*7E
$GPGSV,3,3,10,30,37,310,48,24,,,50,,,,,,,,*42
$GPRMC,162826,A,3554.2516,N,10619.2738,W,023.1,158.3,140208,,,A*6D
$GPVTG,158.3,T,,M,023.1,N,042.8,K,A*0C
$GPGGA,162841,3554.1819,N,10619.2318,W,1,06,01.4,02280.0,M,-022.4,M,,*7B
$GPGSA,A,3,02,04,05,09,10,12,,,,,,,02.3,01.4,01.9*06
$GPGSV,3,1,10,02,68,027,52,04,31,048,48,05,54,295,45,09,13,220,37*76
$GPGSV,3,2,10,10,40,159,51,12,70,281,51,17,04,098,00,29,16,294,00*7E
$GPGSV,3,3,10,30,37,310,42,24,,,46,,,,,,,,*4F
$GPRMC,162841,A,3554.1819,N,10619.2318,W,018.7,142.0,140208,,,A*6D
$GPVTG,142.0,T,,M,018.7,N,034.6,K,A*05
$GPGGA,162856,3554.1105,N,10619.1475,W,1,05,01.8,02277.3,M,-022.4,M,,*72
$GPGSA,A,3,02,04,05,10,12,,,,,,,,04.2,01.8,03.8*07
$GPGSV,3,1,10,02,68,027,53,04,31,048,47,05,54,295,45,09,13,220,33*7C
$GPGSV,3,2,10,10,40,159,47,12,70,280,48,17,04,098,00,29,16,294,00*70
$GPGSV,3,3,10,30,37,310,32,24,,,49,,,,,,,,*47
$GPRMC,162856,A,3554.1105,N,10619.1475,W,028.1,132.0,140208,,,A*62
$GPVTG,132.0,T,,M,028.1,N,052.1,K,A*00
$GPGGA,162911,3554.0253,N,10619.0381,W,1,05,02.8,02272.7,M,-022.4,M,,*7E
$GPGSA,A,3,02,05,09,10,12,,,,,,,,05.2,02.8,04.3*04
$GPGSV,3,1,10,02,68,027,53,04,31,048,33,05,54,295,47,09,13,220,44*7D
$GPGSV,3,2,10,10,40,159,46,12,70,280,50,17,04,098,00,29,17,294,00*79
$GPGSV,3,3,10,30,37,310,35,24,,,45,,,,,,,,*4C
$GPRMC,162911,A,3554.0253,N,10619.0381,W,026.5,149.2,140208,,,A*68
$GPVTG,149.2,T,,M,026.5,N,049.1,K,A*0E
$GPGGA,162926,3553.9950,N,10619.0341,W,1,06,01.4,02262.1,M,-022.4,M,,*7B
$GPGSA,A,3,02,04,05,09,10,12,,,,,,,02.3,01.4,01.9*06
$GPGSV,3,1,10,02,68,027,51,04,30,048,43,05,54,295,52,09,13,220,50*78
$GPGSV,3,2,10,10,40,159,50,12,70,280,52,17,04,098,00,29,17,294,00*7C
$GPGSV,3,3,10,30,37,310,46,24,,,51,,,,,,,,*4D
$GPRMC,162926,A,3553.9950,N,10619.0341,W,006.7,253.3,140208,,,A*6F
$GPVTG,253.3,T,,M,006.7,N,012.5,K,A*0D
$GPGGA,162941,3553.9614,N,10619.1358,W,1,06,01.4,02257.0,M,-022.4,M,,*7B
$GPGSA,A,3,02,04,05,09,10,12,,,,,,,02.3,01.4,01.8*07
$GPGSV,3,1,10,02,68,027,48,04,30,048,38,05,54,295,48,09,13,220,36*77
$GPGSV,3,2,10,10,40,159,42,12,70,279,31,17,04,098,00,29,17,294,00*7C
$GPGSV,3,3,10,30,37,310,34,24,,,45,,,,,,,,*4D
$GPRMC,162941,A,3553.9614,N,10619.1358,W,028.5,237.9,140208,,,A*6E
$GPVTG,237.9,T,,M,028.5,N,052.8,K,A*02
$GPGGA,162956,3553.9059,N,10619.1178,W,1,05,01.4,02267.2,M,-022.4,M,,*70
$GPGSA,A,3,02,04,05,09,10,,,,,,,,02.5,01.4,02.1*08
$GPGSV,3,1,10,02,68,027,46,04,30,048,36,05,54,295,34,09,13,219,35*75
$GPGSV,3,2,10,10,40,159,41,12,70,279,00,17,04,098,00,29,17,294,00*7D
$GPGSV,3,3,10,30,38,310,46,24,,,33,,,,,,,,*46
$GPRMC,162956,A,3553.9059,N,10619.1178,W,022.1,174.9,140208,,,A*6D
$GPVTG,174.9,T,,M,022.1,N,041.0,K,A*02
$GPGGA,163011,3553.8134,N,10619.1045,W,1,06,01.4,02250.0,M,-022.4,M,,*7A
$GPGSA,A,3,02,04,05,09,10,12,,,,,,,02.3,01.4,01.8*07
$GPGSV,3,1,10,02,68,027,46,04,30,048,40,05,54,295,42,09,13,219,31*71
$GPGSV,3,2,10,10,40,159,42,12,70,279,35,17,03,098,00,29,17,294,00*7F
$GPGSV,3,3,10,30,38,309,46,24,,,35,,,,,,,,*48
$GPRMC,163011,A,3553.8134,N,10619.1045,W,019.8,175.6,140208,,,A*6D
$GPVTG,175.6,T,,M,019.8,N,036.7,K,A*0A
$GPGGA,163026,3553.8061,N,10619.1465,W,1,06,01.4,02244.9,M,-022.4,M,,*75
$GPGSA,A,3,02,04,05,09,10,12,,,,,,,02.3,01.4,01.8*07
$GPGSV,3,1,10,02,68,027,35,04,30,048,35,05,55,294,49,09,13,219,30*7D
$GPGSV,3,2,10,10,40,159,32,12,70,278,48,17,03,098,00,29,17,294,00*73
$GPGSV,3,3,10,30,38,309,41,24,,,34,,,,,,,,*4E
$GPRMC,163026,A,3553.8061,N,10619.1465,W,017.5,322.3,140208,,,A*68
$GPVTG,322.3,T,,M,017.5,N,032.4,K,A*0B
$GPGGA,163041,3553.8260,N,10619.1590,W,1,06,01.4,02232.2,M,-022.4,M,,*76
$GPGSA,A,3,02,04,05,09,10,12,,,,,,,02.3,01.4,01.8*07
$GPGSV,3,1,10,02,68,028,45,04,30,048,34,05,55,294,47,09,13,219,33*79
$GPGSV,3,2,10,10,41,159,41,12,70,278,33,17,03,099,00,29,17,294,00*7B
$GPGSV,3,3,10,30,38,309,45,24,,,35,,,,,,,,*4B
$GPRMC,163041,A,3553.8260,N,10619.1590,W,002.8,337.5,140208,,,A*6A
$GPVTG,337.5,T,,M,002.8,N,005.1,K,A*01
$GPGGA,163056,3553.8252,N,10619.1574,W,1,06,01.4,02232.7,M,-022.4,M,,*7E
$GPGSA,A,3,02,04,05,09,10,12,,,,,,,02.3,01.4,01.8*07
$GPGSV,3,1,10,02,67,028,41,04,30,048,45,05,55,294,49,09,13,219,33*7A
$GPGSV,3,2,10,10,41,159,36,12,70,278,40,17,03,099,00,29,17,294,00*7F
$GPGSV,3,3,10,30,38,309,49,24,,,35,,,,,,,,*47
$GPRMC,163056,A,3553.8252,N,10619.1574,W,000.1,151.2,140208,,,A*69
$GPVTG,151.2,T,,M,000.1,N,000.2,K,A*09
$GPGGA,163111,3553.8238,N,10619.1570,W,1,06,01.4,02229.4,M,-022.4,M,,*7D
$GPGSA,A,3,02,04,05,09,10,12,,,,,,,02.3,01.4,01.8*07
$GPGSV,3,1,10,02,67,028,35,04,30,049,48,05,55,294,43,09,12,219,31*7C
$GPGSV,3,2,10,10,41,159,38,12,70,277,45,17,03,099,00,29,17,295,00*7A
$GPGSV,3,3,10,30,38,309,53,24,,,42,,,,,,,,*4C
$GPRMC,163111,A,3553.8238,N,10619.1570,W,000.2,151.2,140208,,,A*60
$GPVTG,151.2,T,,M,000.2,N,000.4,K,A*0C
$GPGGA,163126,3553.8233,N,10619.1572,W,1,06,01.4,02229.3,M,-022.4,M,,*77
$GPGSA,A,3,02,04,05,09,10,12,,,,,,,02.3,01.4,01.8*07
$GPGSV,3,1,10,02,67,028,39,04,30,049,50,05,55,294,42,09,12,219,33*7A
$GPGSV,3,2,10,10,41,158,40,12,71,277,44,17,03,099,00,29,17,295,00*74
$GPGSV,3,3,10,30,38,309,52,24,,,42,,,,,,,,*4D
$GPRMC,163126,A,3553.8233,N,10619.1572,W,000.2,154.4,140208,,,A*6E
$GPVTG,154.4,T,,M,000.2,N,000.5,K,A*0E
$GPGGA,163141,3553.8223,N,10619.1567,W,1,06,01.4,02229.1,M,-022.4,M,,*71
$GPGSA,A,3,02,04,05,09,10,12,,,,,,,02.3,01.4,01.8*07
$GPGSV,3,1,10,02,67,028,38,04,30,049,50,05,55,294,38,09,12,219,39*7C
$GPGSV,3,2,10,10,41,158,37,12,71,277,47,17,03,099,00,29,17,295,00*77
$GPGSV,3,3,10,30,38,309,53,24,,,35,,,,,,,,*4C
$GPRMC,163141,A,3553.8223,N,10619.1567,W,000.3,154.4,140208,,,A*6B
$GPVTG,154.4,T,,M,000.3,N,000.7,K,A*0D
$GPGGA,163201,3553.8184,N,10619.1585,W,1,06,01.4,02228.0,M,-022.4,M,,*74
$GPGSA,A,3,02,04,05,09,10,12,,,,,,,02.3,01.4,01.8*07
$GPGSV,3,1,10,02,67,028,31,04,29,049,46,05,55,293,35,09,12,219,39*70
$GPGSV,3,2,10,10,41,158,36,12,71,276,44,17,03,099,00,29,17,295,00*74
$GPGSV,3,3,10,30,38,309,54,24,,,43,,,,,,,,*4A
$GPRMC,163201,A,3553.8184,N,10619.1585,W,001.7,305.5,140208,,,A*6C
$GPVTG,305.5,T,,M,001.7,N,003.2,K,A*09
$GPGGA,163216,3553.8187,N,10619.1580,W,1,06,01.4,02234.6,M,-022.4,M,,*7F
$GPGSA,A,3,02,04,05,09,10,12,,,,,,,02.3,01.4,01.8*07
$GPGSV,3,1,10,02,67,028,40,04,29,049,47,05,55,293,42,09,12,219,29*76
$GPGSV,3,2,10,10,41,158,38,12,71,276,39,17,03,099,00,29,17,295,00*70
$GPGSV,3,3,10,30,38,309,54,24,,,41,,,,,,,,*48
$GPRMC,163216,A,3553.8187,N,10619.1580,W,000.0,305.5,140208,,,A*6A
$GPVTG,305.5,T,,M,000.0,N,000.1,K,A*0F
$GPGGA,163231,3553.8292,N,10619.1608,W,1,05,01.8,02237.7,M,-022.4,M,,*73
$GPGSA,A,3,02,04,05,10,12,,,,,,,,04.3,01.8,03.8*06
$GPGSV,3,1,10,02,67,028,53,04,29,049,51,05,55,293,48,09,12,219,28*78
$GPGSV,3,2,10,10,41,158,49,12,71,275,48,17,03,099,00,29,18,295,00*7C
$GPGSV,3,3,10,30,39,309,48,24,,,42,,,,,,,,*47
$GPRMC,163231,A,3553.8292,N,10619.1608,W,000.5,313.5,140208,,,A*69
$GPVTG,313.5,T,,M,000.5,N,000.9,K,A*05
$GPGGA,163246,3553.8276,N,10619.1603,W,1,05,01.8,02241.1,M,-022.4,M,,*75
$GPGSA,A,3,02,04,05,10,12,,,,,,,,04.3,01.8,03.8*06
$GPGSV,3,1,10,02,67,028,55,04,29,049,52,05,55,293,47,09,12,219,31*7A
$GPGSV,3,2,10,10,42,158,52,12,71,275,48,17,03,099,00,29,18,295,00*75
$GPGSV,3,3,10,30,39,309,51,24,,,38,,,,,,,,*42
$GPRMC,163246,A,3553.8276,N,10619.1603,W,000.0,313.5,140208,,,A*6D
$GPVTG,313.5,T,,M,000.0,N,000.0,K,A*09
$GPGGA,163301,3553.8267,N,10619.1603,W,1,05,01.8,02241.8,M,-022.4,M,,*7E
$GPGSA,A,3,02,04,05,10,12,,,,,,,,04.3,01.8,03.9*07
$GPGSV,3,1,10,02,67,029,55,04,29,049,52,05,55,293,47,09,12,219,34*7E
$GPGSV,3,2,10,10,42,158,51,12,71,275,49,17,03,099,00,29,18,295,00*77
$GPGSV,3,3,10,30,39,309,50,24,,,40,,,,,,,,*4C
$GPRMC,163301,A,3553.8267,N,10619.1603,W,000.2,313.5,140208,,,A*6D
$GPVTG,313.5,T,,M,000.2,N,000.4,K,A*0F
$GPGGA,163316,3553.8253,N,10619.1598,W,1,05,01.8,02242.7,M,-022.4,M,,*72
$GPGSA,A,3,02,04,05,10,12,,,,,,,,04.3,01.8,03.9*07
$GPGSV,3,1,10,02,66,029,55,04,29,049,52,05,55,292,45,09,12,219,29*70
$GPGSV,3,2,10,10,42,158,51,12,71,274,46,17,03,099,00,29,18,295,00*79
$GPGSV,3,3,10,30,39,309,50,24,,,40,,,,,,,,*4C
$GPRMC,163316,A,3553.8253,N,10619.1598,W,000.3,313.5,140208,,,A*6C
$GPVTG,313.5,T,,M,000.3,N,000.6,K,A*0C
$GPGGA,163331,3553.8246,N,10619.1599,W,1,05,01.8,02242.6,M,-022.4,M,,*73
$GPGSA,A,3,02,04,05,10,12,,,,,,,,04.3,01.8,03.9*07
$GPGSV,3,1,10,02,66,029,55,04,29,049,52,05,55,292,50,09,12,218,31*7C
$GPGSV,3,2,10,10,42,158,52,12,71,274,50,17,03,099,00,29,18,295,00*7D
$GPGSV,3,3,10,30,39,309,46,24,,,42,,,,,,,,*49
$GPRMC,163331,A,3553.8246,N,10619.1599,W,000.3,313.5,140208,,,A*6C
$GPVTG,313.5,T,,M,000.3,N,000.5,K,A*0F
$GPGGA,163346,3553.8238,N,10619.1585,W,1,05,01.8,02243.2,M,-022.4,M,,*72
$GPGSA,A,3,02,04,05,10,12,,,,,,,,04.3,01.8,03.9*07
$GPGSV,3,1,10,02,66,029,54,04,29,049,52,05,55,292,48,09,12,218,29*7D
$GPGSV,3,2,10,10,42,158,52,12,71,274,49,17,02,099,00,29,18,295,00*74
$GPGSV,3,3,10,30,39,308,47,24,,,45,,,,,,,,*4E
$GPRMC,163346,A,3553.8238,N,10619.1585,W,000.0,313.5,140208,,,A*6B
$GPVTG,313.5,T,,M,000.0,N,000.1,K,A*08
$GPGGA,163401,3553.8234,N,10619.1585,W,1,05,01.8,02243.9,M,-022.4,M,,*71
$GPGSA,A,3,02,04,05,10,12,,,,,,,,04.3,01.8,03.9*07
$GPGSV,3,1,10,02,66,029,55,04,29,049,53,05,56,292,49,09,12,218,30*77
$GPGSV,3,2,10,10,42,158,50,12,71,273,46,17,02,100,00,29,18,295,00*7F
$GPGSV,3,3,10,30,39,308,48,24,,,46,,,,,,,,*42
$GPRMC,163401,A,3553.8234,N,10619.1585,W,000.2,313.5,140208,,,A*61
$GPVTG,313.5,T,,M,000.2,N,000.5,K,A*0E
$GPGGA,163416,3553.8224,N,10619.1588,W,1,05,01.8,02244.3,M,-022.4,M,,*76
$GPGSA,A,3,02,04,05,10,12,,,,,,,,04.3,01.8,03.9*07
$GPGSV,3,1,10,02,66,029,54,04,29,049,53,05,56,292,50,09,11,218,30*7D
$GPGSV,3,2,10,10,42,158,51,12,71,273,49,17,02,100,00,29,18,295,00*71
$GPGSV,3,3,10,30,39,308,49,24,,,46,,,,,,,,*43
$GPRMC,163416,A,3553.8224,N,10619.1588,W,000.2,313.5,140208,,,A*6B
$GPVTG,313.5,T,,M,000.2,N,000.5,K,A*0E
$GPGGA,163431,3553.8221,N,10619.1591,W,1,05,01.8,02244.8,M,-022.4,M,,*75
$GPGSA,A,3,02,04,05,10,12,,,,,,,,04.3,01.8,03.9*07
$GPGSV,3,1,10,02,66,029,55,04,29,049,54,05,56,292,51,09,11,218,32*78
$GPGSV,3,2,10,10,42,158,52,12,71,273,47,17,02,100,00,29,18,296,00*7F
$GPGSV,3,3,10,30,39,308,49,24,,,43,,,,,,,,*46
$GPRMC,163431,A,3553.8221,N,10619.1591,W,000.3,313.5,140208,,,A*62
$GPVTG,313.5,T,,M,000.3,N,000.6,K,A*0C
$GPGGA,163446,3553.8210,N,10619.1587,W,1,05,01.8,02245.0,M,-022.4,M,,*79
$GPGSA,A,3,02,04,05,10,12,,,,,,,,04.3,01.8,03.9*07
$GPGSV,3,1,10,02,66,029,55,04,28,049,55,05,56,291,50,09,11,218,32*7A
$GPGSV,3,2,10,10,42,158,51,12,71,272,48,17,02,100,00,29,18,296,00*72
$GPGSV,3,3,10,30,39,308,48,24,,,42,,,,,,,,*46
$GPRMC,163446,A,3553.8210,N,10619.1587,W,000.2,313.5,140208,,,A*66
$GPVTG,313.5,T,,M,000.2,N,000.4,K,A*0F
$GPGGA,163501,3553.8210,N,10619.1588,W,1,05,01.9,02245.4,M,-022.4,M,,*71
$GPGSA,A,3,02,04,05,10,12,,,,,,,,04.3,01.9,03.9*06
$GPGSV,3,1,10,02,66,029,55,04,28,049,55,05,56,291,51,09,11,218,28*70
$GPGSV,3,2,10,10,43,157,52,12,71,272,49,17,02,100,00,29,18,296,00*7E
$GPGSV,3,3,10,30,40,308,47,24,,,41,,,,,,,,*44
$GPRMC,163501,A,3553.8210,N,10619.1588,W,000.2,313.5,140208,,,A*6B
$GPVTG,313.5,T,,M,000.2,N,000.4,K,A*0F
$GPGGA,163516,3553.8206,N,10619.1589,W,1,05,01.9,02246.1,M,-022.4,M,,*77
$GPGSA,A,3,02,04,05,10,12,,,,,,,,04.3,01.9,03.9*06
$GPGSV,3,1,10,02,66,029,55,04,28,049,54,05,56,291,51,09,11,218,33*7B
$GPGSV,3,2,10,10,43,157,50,12,71,271,52,17,02,100,00,29,18,296,00*75
$GPGSV,3,3,10,30,40,308,46,24,,,42,,,,,,,,*46
$GPRMC,163516,A,3553.8206,N,10619.1589,W,000.4,313.5,140208,,,A*6D
$GPVTG,313.5,T,,M,000.4,N,000.7,K,A*0A
$GPGGA,163531,3553.8197,N,10619.1580,W,1,05,01.9,02246.7,M,-022.4,M,,*76
$GPGSA,A,3,02,04,05,10,12,,,,,,,,04.3,01.9,03.9*06
$GPGSV,3,1,10,02,65,030,54,04,28,049,55,05,56,291,52,09,11,218,32*72
$GPGSV,3,2,10,10,43,157,50,12,71,271,50,17,02,100,00,29,18,296,00*77
$GPGSV,3,3,10,30,40,308,42,24,,,46,,,,,,,,*46
$GPRMC,163531,A,3553.8197,N,10619.1580,W,000.3,313.5,140208,,,A*6D
$GPVTG,313.5,T,,M,000.3,N,000.6,K,A*0C
$GPGGA,163546,3553.8191,N,10619.1585,W,1,05,01.9,02246.8,M,-022.4,M,,*7A
$GPGSA,A,3,02,04,05,10,12,,,,,,,,04.3,01.9,03.9*06
$GPGSV,3,1,10,02,65,030,55,04,28,049,55,05,56,291,50,09,11,218,35*76
$GPGSV,3,2,10,10,43,157,50,12,71,271,49,17,02,100,00,29,19,296,00*7E
$GPGSV,3,3,10,30,40,308,41,24,,,43,,,,,,,,*40
$GPRMC,163546,A,3553.8191,N,10619.1585,W,000.3,313.5,140208,,,A*6E
$GPVTG,313.5,T,,M,000.3,N,000.6,K,A*0C
$GPGGA,163601,3553.8199,N,10619.1566,W,1,06,01.4,02250.5,M,-022.4,M,,*7B
$GPGSA,A,3,02,04,05,09,10,12,,,,,,,02.2,01.4,01.7*09
$GPGSV,3,1,10,02,65,030,55,04,28,049,55,05,56,291,51,09,11,218,37*75
$GPGSV,3,2,10,10,43,157,50,12,71,270,50,17,02,100,00,29,19,296,00*77
$GPGSV,3,3,10,30,40,308,42,24,,,41,,,,,,,,*41
$GPRMC,163601,A,3553.8199,N,10619.1566,W,000.1,313.5,140208,,,A*69
$GPVTG,313.5,T,,M,000.1,N,000.2,K,A*0A
$GPGGA,163616,3553.8195,N,10619.1580,W,1,06,01.4,02249.9,M,-022.4,M,,*7D
$GPGSA,A,3,02,04,05,09,10,12,,,,,,,02.2,01.4,01.7*09
$GPGSV,3,1,10,02,65,030,55,04,28,049,55,05,56,290,51,09,11,218,36*75
$GPGSV,3,2,10,10,43,157,51,12,71,270,46,17,02,100,00,29,19,296,00*71
$GPGSV,3,3,10,30,40,308,46,24,,,46,,,,,,,,*42
$GPRMC,163616,A,3553.8195,N,10619.1580,W,000.3,313.5,140208,,,A*69
$GPVTG,313.5,T,,M,000.3,N,000.5,K,A*0F
$GPGGA,163631,3553.8184,N,10619.1578,W,1,06,01.4,02249.9,M,-022.4,M,,*7F
$GPGSA,A,3,02,04,05,09,10,12,,,,,,,02.2,01.4,01.7*09
$GPGSV,3,1,10,02,65,030,55,04,28,049,55,05,56,290,52,09,11,218,39*79
$GPGSV,3,2,10,10,43,157,48,12,71,270,46,17,02,100,00,29,19,296,00*79
$GPGSV,3,3,10,30,40,308,46,24,,,47,,,,,,,,*43
$GPRMC,163631,A,3553.8184,N,10619.1578,W,000.4,313.5,140208,,,A*6C
$GPVTG,313.5,T,,M,000.4,N,000.7,K,A*0A
$GPGGA,163646,3553.8209,N,10619.1581,W,1,05,01.9,02249.8,M,-022.4,M,,*70
$GPGSA,A,3,02,04,05,10,12,,,,,,,,04.3,01.9,03.9*06
$GPGSV,3,1,10,02,65,030,55,04,28,049,54,05,56,290,49,09,11,218,35*7E
$GPGSV,3,2,10,10,43,157,45,12,71,269,46,17,02,100,00,29,19,296,00*7C
$GPGSV,3,3,10,30,40,308,48,24,,,49,,,,,,,,*43
$GPRMC,163646,A,3553.8209,N,10619.1581,W,000.5,342.5,140208,,,A*69
$GPVTG,342.5,T,,M,000.5,N,001.0,K,A*09
$GPGGA,163701,3553.8206,N,10619.1575,W,1,06,01.4,02250.0,M,-022.4,M,,*78
$GPGSA,A,3,02,04,05,09,10,12,,,,,,,02.2,01.4,01.7*09
$GPGSV,3,1,10,02,65,030,54,04,28,049,54,05,56,290,47,09,11,217,35*7E
$GPGSV,3,2,10,10,43,157,46,12,71,269,49,17,02,101,00,29,19,296,00*71
$GPGSV,3,3,10,30,40,307,45,24,,,50,,,,,,,,*49
$GPRMC,163701,A,3553.8206,N,10619.1575,W,000.0,342.5,140208,,,A*6A
$GPVTG,342.5,T,,M,000.0,N,000.1,K,A*0C
$GPGGA,163716,3553.8197,N,10619.1571,W,1,05,01.9,02250.2,M,-022.4,M,,*7D
$GPGSA,A,3,02,04,05,10,12,,,,,,,,04.3,01.9,03.9*06
$GPGSV,3,1,10,02,65,030,54,04,27,049,54,05,56,290,46,09,11,217,34*71
$GPGSV,3,2,10,10,44,157,46,12,71,268,50,17,01,101,00,29,19,296,00*7C
$GPGSV,3,3,10,30,40,307,47,24,,,52,,,,,,,,*49
$GPRMC,163716,A,3553.8197,N,10619.1571,W,000.2,342.5,140208,,,A*61
$GPVTG,342.5,T,,M,000.2,N,000.4,K,A*0B
$GPGGA,163731,3553.8184,N,10619.1558,W,1,05,01.9,02250.4,M,-022.4,M,,*77
$GPGSA,A,3,02,04,05,10,12,,,,,,,,04.3,01.9,03.9*06
$GPGSV,3,1,10,02,65,030,55,04,27,050,53,05,56,289,47,09,10,217,27*75
$GPGSV,3,2,10,10,44,157,49,12,71,268,50,17,01,101,00,29,19,296,00*73
$GPGSV,3,3,10,30,40,307,48,24,,,52,,,,,,,,*46
$GPRMC,163731,A,3553.8184,N,10619.1558,W,000.4,342.5,140208,,,A*6B
$GPVTG,342.5,T,,M,000.4,N,000.7,K,A*0E
$GPGGA,163746,3553.8181,N,10619.1573,W,1,05,01.9,02250.6,M,-022.4,M,,*79
$GPGSA,A,3,02,04,05,10,12,,,,,,,,04.4,01.9,03.9*01
$GPGSV,3,1,10,02,64,030,55,04,27,050,53,05,57,289,48,09,10,217,33*7F
$GPGSV,3,2,10,10,44,157,49,12,71,268,46,17,01,101,00,29,19,296,00*74
$GPGSV,3,3,10,30,41,307,46,24,,,51,,,,,,,,*4A
$GPRMC,163746,A,3553.8181,N,10619.1573,W,000.2,342.5,140208,,,A*61
$GPVTG,342.5,T,,M,000.2,N,000.3,K,A*0C
$GPGGA,163801,3553.8184,N,10619.1578,W,1,05,01.9,02250.8,M,-022.4,M,,*75
$GPGSA,A,3,02,04,05,10,12,,,,,,,,04.4,01.9,03.9*01
$GPGSV,3,1,10,02,64,030,55,04,27,050,52,05,57,289,48,09,10,217,34*79
$GPGSV,3,2,10,10,44,157,49,12,71,267,44,17,01,101,00,29,19,297,00*78
$GPGSV,3,3,10,30,41,307,46,24,,,52,,,,,,,,*49
$GPRMC,163801,A,3553.8184,N,10619.1578,W,000.4,342.5,140208,,,A*65
$GPVTG,342.5,T,,M,000.4,N,000.7,K,A*0E
$GPGGA,163816,3553.8180,N,10619.1585,W,1,05,01.9,02251.0,M,-022.4,M,,*7C
$GPGSA,A,3,02,04,05,10,12,,,,,,,,04.4,01.9,03.9*01
$GPGSV,3,1,10,02,64,031,55,04,27,050,52,05,57,289,48,09,10,217,27*7A
$GPGSV,3,2,10,10,44,157,51,12,71,267,49,17,01,101,00,29,19,297,00*7C
$GPGSV,3,3,10,30,41,307,47,24,,,51,,,,,,,,*4B
$GPRMC,163816,A,3553.8180,N,10619.1585,W,000.4,342.5,140208,,,A*65
$GPVTG,342.5,T,,M,000.4,N,000.9,K,A*00
$GPGGA,163831,3553.8184,N,10619.1580,W,1,06,01.4,02250.8,M,-022.4,M,,*7F
$GPGSA,A,3,02,04,05,09,10,12,,,,,,,02.2,01.4,01.6*08
$GPGSV,3,1,10,02,64,031,54,04,27,050,52,05,57,289,41,09,10,217,35*71
$GPGSV,3,2,10,10,44,157,52,12,71,267,49,17,01,101,00,29,19,297,00*7F
$GPGSV,3,3,10,30,41,307,48,24,,,50,,,,,,,,*45
$GPRMC,163831,A,3553.8184,N,10619.1580,W,000.2,342.5,140208,,,A*67
$GPVTG,342.5,T,,M,000.2,N,000.5,K,A*0A
$GPGGA,163846,3553.8183,N,10619.1589,W,1,06,01.4,02250.0,M,-022.4,M,,*79
$GPGSA,A,3,02,04,05,09,10,12,,,,,,,02.2,01.4,01.6*08
$GPGSV,3,1,10,02,64,031,53,04,27,050,51,05,57,289,41,09,10,217,34*74
$GPGSV,3,2,10,10,44,156,51,12,71,266,47,17,01,101,00,29,20,297,00*78
$GPGSV,3,3,10,30,41,307,46,24,,,51,,,,,,,,*4A
$GPRMC,163846,A,3553.8183,N,10619.1589,W,000.1,342.5,140208,,,A*6A
$GPVTG,342.5,T,,M,000.1,N,000.3,K,A*0F
$GPGGA,163901,3553.8201,N,10619.1607,W,1,06,01.4,02249.2,M,-022.4,M,,*7D
$GPGSA,A,3,02,04,05,09,10,12,,,,,,,02.2,01.4,01.6*08
$GPGSV,3,1,10,02,64,031,52,04,27,050,52,05,57,288,43,09,10,217,36*77
$GPGSV,3,2,10,10,44,156,52,12,71,266,47,17,01,101,00,29,20,297,00*7B
$GPGSV,3,3,10,30,41,307,45,24,,,50,,,,,,,,*48
$GPRMC,163901,A,3553.8201,N,10619.1607,W,000.3,318.0,140208,,,A*6C
$GPVTG,318.0,T,,M,000.3,N,000.6,K,A*02
$GPGGA,163916,3553.8207,N,10619.1601,W,1,06,01.4,02250.8,M,-022.4,M,,*79
$GPGSA,A,3,02,04,05,09,10,12,,,,,,,02.2,01.4,01.6*08
$GPGSV,3,1,10,02,64,031,54,04,27,050,51,05,57,288,42,09,10,217,37*72
$GPGSV,3,2,10,10,45,156,51,12,71,265,45,17,01,101,00,29,20,297,00*78
$GPGSV,3,3,10,30,41,307,46,24,,,49,,,,,,,,*43
$GPRMC,163916,A,3553.8207,N,10619.1601,W,000.1,318.0,140208,,,A*68
$GPVTG,318.0,T,,M,000.1,N,000.2,K,A*04
$GPGGA,163931,3553.8205,N,10619.1585,W,1,06,01.4,02253.4,M,-022.4,M,,*7E
$GPGSA,A,3,02,04,05,09,10,12,,,,,,,02.2,01.4,01.6*08
$GPGSV,3,1,10,02,64,031,54,04,27,050,51,05,57,288,41,09,10,217,39*7F
$GPGSV,3,2,10,10,45,156,48,12,71,265,43,17,01,101,00,29,20,297,00*76
$GPGSV,3,3,10,30,41,307,46,24,,,51,,,,,,,,*4A
$GPRMC,163931,A,3553.8205,N,10619.1585,W,000.5,311.3,140208,,,A*6E
$GPVTG,311.3,T,,M,000.5,N,001.0,K,A*09
$GPGGA,163946,3553.8209,N,10619.1595,W,1,06,01.4,02253.1,M,-022.4,M,,*76
$GPGSA,A,3,02,04,05,09,10,12,,,,,,,02.2,01.4,01.6*08
$GPGSV,3,1,10,02,64,031,54,04,27,050,51,05,57,288,40,09,10,217,37*70
$GPGSV,3,2,10,10,45,156,48,12,71,265,43,17,01,101,00,29,20,297,00*76
$GPGSV,3,3,10,30,41,307,51,24,,,46,,,,,,,,*4A
$GPRMC,163946,A,3553.8209,N,10619.1595,W,000.4,311.3,140208,,,A*62
$GPVTG,311.3,T,,M,000.4,N,000.8,K,A*01
$GPGGA,164001,3553.8196,N,10619.1571,W,1,06,01.4,02253.1,M,-022.4,M,,*74
$GPGSA,A,3,02,04,05,09,10,12,,,,,,,02.1,01.4,01.6*0B
$GPGSV,3,1,10,02,63,031,53,04,26,050,50,05,57,288,45,09,10,217,36*74
$GPGSV,3,2,10,10,45,156,51,12,71,264,42,17,01,101,00,29,20,297,00*7E
$GPGSV,3,3,10,30,41,306,47,24,,,48,,,,,,,,*42
$GPRMC,164001,A,3553.8196,N,10619.1571,W,000.2,291.8,140208,,,A*64
$GPVTG,291.8,T,,M,000.2,N,000.3,K,A*0E
$GPGGA,164016,3553.8271,N,10619.1626,W,1,06,01.4,02252.9,M,-022.4,M,,*70
$GPGSA,A,3,02,04,05,09,10,12,,,,,,,02.1,01.4,01.6*0B
$GPGSV,3,1,10,02,63,031,53,04,26,050,51,05,57,287,48,09,10,217,35*74
$GPGSV,3,2,10,10,45,156,43,12,71,264,52,17,01,102,00,29,20,297,00*7F
$GPGSV,3,3,10,30,41,306,52,24,,,39,,,,,,,,*40
$GPRMC,164016,A,3553.8271,N,10619.1626,W,003.9,339.0,140208,,,A*6A
$GPVTG,339.0,T,,M,003.9,N,007.2,K,A*0B
$GPGGA,164031,3553.8242,N,10619.1647,W,1,06,01.4,02253.3,M,-022.4,M,,*79
$GPGSA,A,3,02,04,05,09,10,12,,,,,,,02.1,01.4,01.6*0B
$GPGSV,3,1,10,02,63,031,51,04,26,050,47,05,57,287,52,09,10,216,35*7B
$GPGSV,3,2,10,10,45,156,48,12,71,263,50,17,01,102,00,29,20,297,00*71
$GPGSV,3,3,10,30,42,306,51,24,,,45,,,,,,,,*4B
$GPRMC,164031,A,3553.8242,N,10619.1647,W,000.5,325.2,140208,,,A*68
$GPVTG,325.2,T,,M,000.5,N,001.0,K,A*0F
$GPGGA,164046,3553.8214,N,10619.1614,W,1,06,01.4,02253.2,M,-022.4,M,,*7D
$GPGSA,A,3,02,04,05,09,10,12,,,,,,,02.1,01.4,01.6*0B
$GPGSV,3,1,10,02,63,031,51,04,26,050,43,05,57,287,48,09,09,216,34*7D
$GPGSV,3,2,10,10,45,156,52,12,71,263,51,17,00,102,00,29,20,297,00*7A
$GPGSV,3,3,10,30,42,306,46,24,,,46,,,,,,,,*4E
$GPRMC,164046,A,3553.8214,N,10619.1614,W,003.1,166.0,140208,,,A*6D
$GPVTG,166.0,T,,M,003.1,N,005.7,K,A*0C
$GPGGA,164101,3553.7974,N,10619.1266,W,1,06,01.4,02251.9,M,-022.4,M,,*75
$GPGSA,A,3,02,04,05,09,10,12,,,,,,,02.1,01.4,01.6*0B
$GPGSV,3,1,10,02,63,032,51,04,26,050,51,05,57,287,50,09,09,216,33*73
$GPGSV,3,2,10,10,45,156,50,12,71,263,52,17,00,102,00,29,20,297,00*7B
$GPGSV,3,3,10,30,42,306,37,24,,,31,,,,,,,,*48
$GPRMC,164101,A,3553.7974,N,10619.1266,W,012.2,111.5,140208,,,A*6A
$GPVTG,111.5,T,,M,012.2,N,022.6,K,A*0E
$GPGGA,164116,3553.8233,N,10619.1000,W,1,05,01.9,02252.3,M,-022.4,M,,*71
$GPGSA,A,3,02,04,05,10,12,,,,,,,,04.4,01.9,03.9*01
$GPGSV,3,1,10,02,63,032,51,04,26,050,51,05,57,287,51,09,09,216,31*70
$GPGSV,3,2,10,10,45,156,44,12,71,262,49,17,00,102,00,29,20,298,00*7A
$GPGSV,3,3,10,30,42,306,51,24,,,42,,,,,,,,*4C
$GPRMC,164116,A,3553.8233,N,10619.1000,W,014.0,353.3,140208,,,A*6F
$GPVTG,353.3,T,,M,014.0,N,026.0,K,A*0A
$GPGGA,164131,3553.9043,N,10619.1118,W,1,06,01.4,02252.0,M,-022.4,M,,*75
$GPGSA,A,3,02,04,05,09,10,12,,,,,,,02.1,01.4,01.6*0B
$GPGSV,3,1,10,02,63,032,51,04,26,050,38,05,57,286,51,09,09,216,33*7C
$GPGSV,3,2,10,10,46,156,47,12,71,262,43,17,00,102,00,29,20,298,00*70
$GPGSV,3,3,10,30,42,306,52,24,,,34,,,,,,,,*4E
$GPRMC,164131,A,3553.9043,N,10619.1118,W,022.6,351.0,140208,,,A*64
$GPVTG,351.0,T,,M,022.6,N,041.8,K,A*01
$GPGGA,164151,3553.9586,N,10619.1707,W,1,06,01.4,02253.2,M,-022.4,M,,*74
$GPGSA,A,3,02,04,05,09,10,12,,,,,,,02.1,01.4,01.6*0B
$GPGSV,3,1,10,02,63,032,48,04,26,050,44,05,57,286,54,09,09,216,41*7F
$GPGSV,3,2,10,10,46,156,51,12,71,261,49,17,00,102,00,29,20,298,00*7E
$GPGSV,3,3,10,30,42,306,52,24,,,49,,,,,,,,*44
$GPRMC,164151,A,3553.9586,N,10619.1707,W,020.6,264.6,140208,,,A*65
$GPVTG,264.6,T,,M,020.6,N,038.2,K,A*06
$GPGGA,164216,3553.8713,N,10619.3382,W,1,05,01.9,02232.6,M,-022.4,M,,*7D
$GPGSA,A,3,02,04,05,10,12,,,,,,,,04.4,01.9,03.9*01
$GPGSV,3,1,10,02,63,032,47,04,26,050,44,05,58,286,50,09,09,216,27*7B
$GPGSV,3,2,10,10,46,155,48,12,71,261,52,17,00,102,00,29,21,298,00*7E
$GPGSV,3,3,10,30,42,306,48,24,,,35,,,,,,,,*44
$GPRMC,164216,A,3553.8713,N,10619.3382,W,027.6,196.8,140208,,,A*66
$GPVTG,196.8,T,,M,027.6,N,051.2,K,A*0E
$GPGGA,164231,3553.7688,N,10619.2854,W,1,05,01.9,02258.9,M,-022.4,M,,*76
$GPGSA,A,3,02,04,05,10,12,,,,,,,,04.4,01.9,03.9*01
$GPGSV,3,1,09,02,62,032,52,04,26,050,52,05,58,286,52,09,09,216,31*74
$GPGSV,3,2,09,10,46,155,52,12,71,260,51,29,21,298,00,30,42,306,46*78
$GPGSV,3,3,09,24,,,36,,,,,,,,,,,,*73
$GPRMC,164231,A,3553.7688,N,10619.2854,W,027.9,140.1,140208,,,A*63
$GPVTG,140.1,T,,M,027.9,N,051.7,K,A*06
$GPGGA,164246,3553.6520,N,10619.2218,W,1,04,02.5,02260.5,M,-022.4,M,,*7D
$GPGSA,A,3,02,05,10,12,,,,,,,,,09.7,02.5,09.4*03
$GPGSV,3,1,09,02,62,032,49,04,25,050,31,05,58,285,50,09,09,216,28*71
$GPGSV,3,2,09,10,46,155,51,12,71,260,35,29,21,298,00,30,42,305,48*74
$GPGSV,3,3,09,24,,,45,,,,,,,,,,,,*77
$GPRMC,164246,A,3553.6520,N,10619.2218,W,035.6,174.0,140208,,,A*6B
$GPVTG,174.0,T,,M,035.6,N,065.9,K,A*05
$GPGGA,164301,3553.5016,N,10619.2025,W,1,06,01.4,02241.5,M,-022.4,M,,*73
$GPGSA,A,3,02,04,05,09,10,12,,,,,,,02.1,01.4,01.5*08
$GPGSV,3,1,09,02,62,032,48,04,25,050,35,05,58,285,50,09,09,216,35*78
$GPGSV,3,2,09,10,46,155,45,12,71,259,46,29,21,298,00,30,42,305,52*74
$GPGSV,3,3,09,24,,,52,,,,,,,,,,,,*71
$GPRMC,164301,A,3553.5016,N,10619.2025,W,034.1,172.5,140208,,,A*63
$GPVTG,172.5,T,,M,034.1,N,063.3,K,A*0C
$GPGGA,164321,3553.3482,N,10619.1428,W,1,06,01.4,02235.9,M,-022.4,M,,*7B
$GPGSA,A,3,02,04,05,09,10,12,,,,,,,02.1,01.4,01.5*08
$GPGSV,3,1,09,02,62,032,47,04,25,051,42,05,58,285,42,09,09,216,33*73
$GPGSV,3,2,09,10,46,155,35,12,71,259,46,29,21,298,00,30,43,305,41*70
$GPGSV,3,3,09,24,,,39,,,,,,,,,,,,*7C
$GPRMC,164321,A,3553.3482,N,10619.1428,W,025.8,149.0,140208,,,A*60
$GPVTG,149.0,T,,M,025.8,N,047.8,K,A*05
$GPGGA,164336,3553.2398,N,10619.1060,W,1,06,01.4,02231.0,M,-022.4,M,,*75
$GPGSA,A,3,02,04,05,09,10,12,,,,,,,02.1,01.4,01.5*08
$GPGSV,3,1,10,02,62,033,52,04,25,051,48,05,58,285,51,09,09,216,45*77
$GPGSV,3,2,10,10,47,155,48,12,71,259,49,29,21,298,00,30,43,305,48*75
$GPGSV,3,3,10,31,00,326,00,24,,,46,,,,,,,,*49
$GPRMC,164336,A,3553.2398,N,10619.1060,W,029.3,156.2,140208,,,A*68
$GPVTG,156.2,T,,M,029.3,N,054.3,K,A*07
$GPGGA,164351,3553.1288,N,10619.0854,W,1,06,01.4,02228.6,M,-022.4,M,,*77
$GPGSA,A,3,02,04,05,09,10,12,,,,,,,02.1,01.4,01.5*08
$GPGSV,3,1,10,02,62,033,49,04,25,051,46,05,58,284,51,09,09,216,50*76
$GPGSV,3,2,10,10,47,155,51,12,71,258,51,29,21,298,00,30,43,305,43*7E
$GPGSV,3,3,10,31,00,326,00,24,,,50,,,,,,,,*4E
$GPRMC,164351,A,3553.1288,N,10619.0854,W,027.6,190.3,140208,,,A*64
$GPVTG,190.3,T,,M,027.6,N,051.2,K,A*03
$GPGGA,164406,3553.0416,N,10619.0919,W,1,06,01.4,02223.6,M,-022.4,M,,*71
$GPGSA,A,3,02,04,05,09,10,12,,,,,,,02.1,01.4,01.5*08
$GPGSV,3,1,10,02,62,033,51,04,25,051,50,05,58,284,48,09,08,215,34*70
$GPGSV,3,2,10,10,47,155,49,12,71,258,50,29,21,298,00,30,43,305,43*76
$GPGSV,3,3,10,31,00,326,00,24,,,34,,,,,,,,*4C
$GPRMC,164406,A,3553.0416,N,10619.0919,W,014.7,138.3,140208,,,A*6A
$GPVTG,138.3,T,,M,014.7,N,027.3,K,A*00
$GPGGA,164421,3553.0447,N,10618.9719,W,1,05,02.0,02225.0,M,-022.4,M,,*72
$GPGSA,A,3,02,04,05,10,12,,,,,,,,04.4,02.0,03.9*0B
$GPGSV,3,1,10,02,62,033,53,04,25,051,36,05,58,284,49,09,08,215,27*71
$GPGSV,3,2,10,10,47,155,47,12,71,257,54,29,21,298,00,30,43,305,42*72
$GPGSV,3,3,10,31,00,326,00,24,,,00,,,,,,,,*4B
$GPRMC,164421,A,3553.0447,N,10618.9719,W,030.5,084.2,140208,,,A*6E
$GPVTG,084.2,T,,M,030.5,N,056.4,K,A*02
$GPGGA,164436,3553.0389,N,10618.8166,W,1,05,02.0,02225.3,M,-022.4,M,,*7D
$GPGSA,A,3,02,04,05,10,12,,,,,,,,04.4,02.0,03.9*0B
$GPGSV,3,1,10,02,62,033,52,04,25,051,49,05,58,284,44,09,08,215,00*70
$GPGSV,3,2,10,10,47,155,36,12,71,257,55,29,21,299,00,30,43,305,47*71
$GPGSV,3,3,10,31,00,326,00,24,,,00,,,,,,,,*4B
$GPRMC,164436,A,3553.0389,N,10618.8166,W,032.8,095.7,140208,,,A*68
$GPVTG,095.7,T,,M,032.8,N,060.7,K,A*0E
$GPGGA,164451,3553.0148,N,10618.6624,W,1,05,02.0,02225.8,M,-022.4,M,,*77
$GPGSA,A,3,02,04,05,10,12,,,,,,,,04.4,02.0,03.9*0B
$GPGSV,3,1,10,02,61,033,45,04,25,051,51,05,58,284,39,09,08,215,00*76
$GPGSV,3,2,10,10,47,155,45,12,71,257,52,29,21,299,00,30,43,305,35*77
$GPGSV,3,3,10,31,00,326,00,24,,,00,,,,,,,,*4B
$GPRMC,164451,A,3553.0148,N,10618.6624,W,028.6,113.8,140208,,,A*6C
$GPVTG,113.8,T,,M,028.6,N,053.0,K,A*0C
$GPGGA,164506,3553.0067,N,10618.5127,W,1,05,02.0,02226.7,M,-022.4,M,,*73
$GPGSA,A,3,02,04,05,10,12,,,,,,,,04.4,02.0,03.9*0B
$GPGSV,3,1,10,02,61,033,52,04,25,051,41,05,58,283,47,09,08,215,00*7F
$GPGSV,3,2,10,10,47,154,50,12,71,256,55,29,21,299,00,30,43,305,44*72
$GPGSV,3,3,10,31,00,326,00,24,,,00,,,,,,,,*4B
$GPRMC,164506,A,3553.0067,N,10618.5127,W,028.0,087.4,140208,,,A*62
$GPVTG,087.4,T,,M,028.0,N,051.9,K,A*01
$GPGGA,164521,3552.9710,N,10618.4084,W,1,05,02.0,02228.5,M,-022.4,M,,*7C
$GPGSA,A,3,02,04,05,10,12,,,,,,,,04.4,02.0,03.9*0B
$GPGSV,3,1,10,02,61,033,35,04,24,051,49,05,58,283,52,09,08,215,00*73
$GPGSV,3,2,10,10,47,154,43,12,71,256,51,29,22,299,00,30,43,305,49*7A
$GPGSV,3,3,10,31,00,326,00,24,,,00,,,,,,,,*4B
$GPRMC,164521,A,3552.9710,N,10618.4084,W,020.3,132.8,140208,,,A*69
$GPVTG,132.8,T,,M,020.3,N,037.6,K,A*06
$GPGGA,164536,3552.9351,N,10618.3030,W,1,06,01.4,02230.1,M,-022.4,M,,*7A
$GPGSA,A,3,02,04,05,09,10,12,,,,,,,02.1,01.4,01.5*08
$GPGSV,3,1,10,02,61,033,46,04,24,051,43,05,58,283,33,09,08,215,35*7C
$GPGSV,3,2,10,10,47,154,47,12,71,255,52,29,22,299,00,30,43,304,44*72
$GPGSV,3,3,10,31,00,326,00,24,,,00,,,,,,,,*4B
$GPRMC,164536,A,3552.9351,N,10618.3030,W,023.8,107.4,140208,,,A*64
$GPVTG,107.4,T,,M,023.8,N,044.2,K,A*04
$GPGGA,164551,3552.9034,N,10618.1888,W,1,05,01.8,02245.3,M,-022.4,M,,*7D
$GPGSA,A,3,02,04,09,10,12,,,,,,,,02.3,01.8,01.5*03
$GPGSV,3,1,10,02,61,033,45,04,24,051,46,05,58,283,31,09,08,215,34*79
$GPGSV,3,2,10,10,48,154,49,12,71,255,53,29,22,299,00,30,43,304,42*74
$GPGSV,3,3,10,31,00,325,00,24,,,00,,,,,,,,*48
$GPRMC,164551,A,3552.9034,N,10618.1888,W,023.2,107.3,140208,,,A*61
$GPVTG,107.3,T,,M,023.2,N,042.9,K,A*04
$GPGGA,164606,3552.8891,N,10618.0831,W,1,06,01.4,02246.4,M,-022.4,M,,*72
$GPGSA,A,3,02,04,05,09,10,12,,,,,,,02.1,01.4,01.5*08
$GPGSV,3,1,10,02,61,033,52,04,24,051,46,05,58,283,42,09,08,215,36*79
$GPGSV,3,2,10,10,48,154,50,12,71,255,55,29,22,299,00,30,44,304,46*79
$GPGSV,3,3,10,31,00,325,00,24,,,00,,,,,,,,*48
$GPRMC,164606,A,3552.8891,N,10618.0831,W,012.9,091.9,140208,,,A*68
$GPVTG,091.9,T,,M,012.9,N,023.9,K,A*0E
$GPGGA,164621,3552.8861,N,10618.0092,W,1,05,02.0,02248.5,M,-022.4,M,,*72
$GPGSA,A,3,02,04,05,10,12,,,,,,,,04.4,02.0,03.9*0B
$GPGSV,3,1,10,02,61,033,52,04,24,051,47,05,58,282,43,09,08,215,33*7D
$GPGSV,3,2,10,10,48,154,49,12,71,254,55,29,22,299,00,30,44,304,47*71
$GPGSV,3,3,10,31,00,325,00,24,,,00,,,,,,,,*48
$GPRMC,164621,A,3552.8861,N,10618.0092,W,017.8,094.1,140208,,,A*6A
$GPVTG,094.1,T,,M,017.8,N,033.1,K,A*0E
$GPGGA,164636,3552.8833,N,10617.9567,W,1,06,01.4,02248.8,M,-022.4,M,,*73
$GPGSA,A,3,02,04,05,09,10,12,,,,,,,02.1,01.4,01.5*08
$GPGSV,3,1,10,02,61,034,52,04,24,051,46,05,58,282,43,09,08,215,42*7D
$GPGSV,3,2,10,10,48,154,49,12,71,254,55,29,22,299,00,30,44,304,42*74
$GPGSV,3,3,10,31,00,325,00,24,,,00,,,,,,,,*48
$GPRMC,164636,A,3552.8833,N,10617.9567,W,000.3,089.6,140208,,,A*64
$GPVTG,089.6,T,,M,000.3,N,000.6,K,A*0F
$GPGGA,164651,3552.8873,N,10617.9618,W,1,06,01.4,02248.5,M,-022.4,M,,*70
$GPGSA,A,3,02,04,05,09,10,12,,,,,,,02.1,01.4,01.5*08
$GPGSV,3,1,10,02,61,034,52,04,24,051,42,05,58,282,46,09,08,215,45*7B
$GPGSV,3,2,10,10,48,154,52,12,71,253,52,29,22,299,00,30,44,304,50*7D
$GPGSV,3,3,10,31,00,325,00,24,,,00,,,,,,,,*48
$GPRMC,164651,A,3552.8873,N,10617.9618,W,010.0,297.0,140208,,,A*63
$GPVTG,297.0,T,,M,010.0,N,018.5,K,A*0C
$GPGGA,164706,3552.8659,N,10617.9562,W,1,05,02.0,02261.8,M,-022.4,M,,*79
$GPGSA,A,3,02,04,05,10,12,,,,,,,,04.4,02.0,03.9*0B
$GPGSV,3,1,10,02,60,034,52,04,24,051,47,05,58,282,43,09,08,215,29*70
$GPGSV,3,2,10,10,48,154,51,12,71,253,55,29,22,299,00,30,44,304,47*7F
$GPGSV,3,3,10,31,00,325,00,24,,,00,,,,,,,,*48
$GPRMC,164706,A,3552.8659,N,10617.9562,W,005.0,088.5,140208,,,A*65
$GPVTG,088.5,T,,M,005.0,N,009.3,K,A*07
$GPGGA,164721,3552.8598,N,10617.9482,W,1,05,02.0,02261.4,M,-022.4,M,,*71
$GPGSA,A,3,02,04,05,10,12,,,,,,,,04.4,02.0,03.9*0B
$GPGSV,3,1,10,02,60,034,51,04,24,051,35,05,58,282,53,09,07,215,00*73
$GPGSV,3,2,10,10,48,154,41,12,71,253,45,29,22,299,00,30,44,304,46*7E
$GPGSV,3,3,10,31,00,325,00,24,,,49,,,,,,,,*45
$GPRMC,164721,A,3552.8598,N,10617.9482,W,000.3,160.2,140208,,,A*67
$GPVTG,160.2,T,,M,000.3,N,000.6,K,A*0D
$GPGGA,164736,3552.8598,N,10617.9504,W,1,05,02.0,02259.3,M,-022.4,M,,*74
$GPGSA,A,3,02,04,05,10,12,,,,,,,,04.4,02.0,03.9*0B
$GPGSV,3,1,10,02,60,034,52,04,24,051,33,05,59,281,52,09,07,214,00*74
$GPGSV,3,2,10,10,48,154,40,12,71,252,46,29,22,299,00,30,44,304,47*7C
$GPGSV,3,3,10,31,00,325,00,24,,,51,,,,,,,,*4C
$GPRMC,164736,A,3552.8598,N,10617.9504,W,001.0,168.1,140208,,,A*67
$GPVTG,168.1,T,,M,001.0,N,001.9,K,A*0A
$GPGGA,164751,3552.8600,N,10617.9520,W,1,05,02.0,02258.1,M,-022.4,M,,*72
$GPGSA,A,3,02,04,05,10,12,,,,,,,,04.4,02.0,03.9*0B
$GPGSV,3,1,10,02,60,034,51,04,24,051,39,05,59,281,53,09,07,214,00*7C
$GPGSV,3,2,10,10,49,154,36,12,71,252,47,29,22,299,00,30,44,303,46*7B
$GPGSV,3,3,10,31,01,325,00,24,,,51,,,,,,,,*4D
$GPRMC,164751,A,3552.8600,N,10617.9520,W,000.2,168.1,140208,,,A*61
$GPVTG,168.1,T,,M,000.2,N,000.5,K,A*04
$GPGGA,164806,3552.8601,N,10617.9541,W,1,05,02.0,02257.7,M,-022.4,M,,*70
$GPGSA,A,3,02,04,05,10,12,,,,,,,,04.4,02.0,03.9*0B
$GPGSV,3,1,10,02,60,034,51,04,23,051,40,05,59,281,52,09,07,214,00*74
$GPGSV,3,2,10,10,49,153,36,12,71,252,47,29,22,300,00,30,44,303,47*7C
$GPGSV,3,3,10,31,01,325,00,24,,,51,,,,,,,,*4D
$GPRMC,164806,A,3552.8601,N,10617.9541,W,001.0,168.1,140208,,,A*69
$GPVTG,168.1,T,,M,001.0,N,002.0,K,A*00
$GPGGA,164821,3552.8605,N,10617.9558,W,1,05,02.0,02258.1,M,-022.4,M,,*70
$GPGSA,A,3,02,04,05,10,12,,,,,,,,04.4,02.0,03.9*0B
$GPGSV,3,1,10,02,60,034,51,04,23,051,41,05,59,281,52,09,07,214,00*75
$GPGSV,3,2,10,10,49,153,39,12,71,251,47,29,23,300,00,30,44,303,46*70
$GPGSV,3,3,10,31,01,325,00,24,,,51,,,,,,,,*4D
$GPRMC,164821,A,3552.8605,N,10617.9558,W,000.2,168.1,140208,,,A*63
$GPVTG,168.1,T,,M,000.2,N,000.4,K,A*05
$GPGGA,164836,3552.8602,N,10617.9564,W,1,05,02.0,02258.5,M,-022.4,M,,*7A
$GPGSA,A,3,02,04,05,10,12,,,,,,,,04.4,02.0,03.9*0B
$GPGSV,3,1,10,02,60,034,51,04,23,051,41,05,59,280,52,09,07,214,00*74
$GPGSV,3,2,10,10,49,153,40,12,71,251,47,29,23,300,00,30,44,303,46*7E
$GPGSV,3,3,10,31,01,325,00,24,,,52,,,,,,,,*4E
$GPRMC,164836,A,3552.8602,N,10617.9564,W,000.3,168.1,140208,,,A*6C
$GPVTG,168.1,T,,M,000.3,N,000.5,K,A*05
$GPGGA,164851,3552.8606,N,10617.9558,W,1,05,02.0,02259.6,M,-022.4,M,,*72
$GPGSA,A,3,02,04,05,10,12,,,,,,,,04.4,02.0,03.9*0B
$GPGSV,3,1,10,02,60,034,51,04,23,052,41,05,59,280,53,09,07,214,00*76
$GPGSV,3,2,10,10,49,153,41,12,71,250,47,29,23,300,00,30,44,303,47*7F
$GPGSV,3,3,10,31,01,324,00,24,,,49,,,,,,,,*45
$GPRMC,164851,A,3552.8606,N,10617.9558,W,000.2,168.1,140208,,,A*67
$GPVTG,168.1,T,,M,000.2,N,000.5,K,A*04
$GPGGA,164906,3552.8608,N,10617.9579,W,1,05,02.0,02260.7,M,-022.4,M,,*77
$GPGSA,A,3,02,04,05,10,12,,,,,,,,04.4,02.0,03.9*0B
$GPGSV,3,1,10,02,60,034,51,04,23,052,42,05,59,280,52,09,07,214,00*74
$GPGSV,3,2,10,10,49,153,40,12,71,250,46,29,23,300,00,30,45,303,46*7F
$GPGSV,3,3,10,31,01,324,00,24,,,48,,,,,,,,*44
$GPRMC,164906,A,3552.8608,N,10617.9579,W,000.5,168.1,140208,,,A*6E
$GPVTG,168.1,T,,M,000.5,N,000.9,K,A*0F
$GPGGA,164921,3552.8603,N,10617.9582,W,1,05,02.0,02261.7,M,-022.4,M,,*7C
$GPGSA,A,3,02,04,05,10,12,,,,,,,,04.4,02.0,03.9*0B
$GPGSV,3,1,10,02,59,034,51,04,23,052,45,05,59,280,53,09,07,214,00*78
$GPGSV,3,2,10,10,49,153,42,12,71,250,45,29,23,300,00,30,45,303,46*7E
$GPGSV,3,3,10,31,01,324,00,24,,,48,,,,,,,,*44
$GPRMC,164921,A,3552.8603,N,10617.9582,W,000.5,168.1,140208,,,A*64
$GPVTG,168.1,T,,M,000.5,N,000.9,K,A*0F
$GPGGA,164936,3552.8608,N,10617.9598,W,1,05,02.0,02263.0,M,-022.4,M,,*7F
$GPGSA,A,3,02,04,05,10,12,,,,,,,,04.4,02.0,03.9*0B
$GPGSV,3,1,10,02,59,035,51,04,23,052,45,05,59,280,52,09,07,214,00*78
$GPGSV,3,2,10,10,49,153,39,12,71,249,43,29,23,300,00,30,45,303,45*7F
$GPGSV,3,3,10,31,01,324,00,24,,,48,,,,,,,,*44
$GPRMC,164936,A,3552.8608,N,10617.9598,W,000.2,175.4,140208,,,A*6C
$GPVTG,175.4,T,,M,000.2,N,000.5,K,A*0D
$GPGGA,164951,3552.8616,N,10617.9615,W,1,05,02.0,02264.1,M,-022.4,M,,*71
$GPGSA,A,3,02,04,05,10,12,,,,,,,,04.4,02.0,03.9*0B
$GPGSV,3,1,10,02,59,035,52,04,23,052,45,05,59,279,53,09,07,214,00*7C
$GPGSV,3,2,10,10,49,153,42,12,71,249,43,29,23,300,00,30,45,303,45*73
$GPGSV,3,3,10,31,01,324,00,24,,,48,,,,,,,,*44
$GPRMC,164951,A,3552.8616,N,10617.9615,W,000.4,202.8,140208,,,A*6D
$GPVTG,202.8,T,,M,000.4,N,000.7,K,A*06
$GPGGA,165006,3552.8597,N,10617.9630,W,1,05,02.0,02264.6,M,-022.4,M,,*71
$GPGSA,A,3,02,04,05,10,12,,,,,,,,04.4,02.0,03.9*0B
$GPGSV,3,1,10,02,59,035,52,04,23,052,45,05,59,279,53,09,07,214,00*7C
$GPGSV,3,2,10,10,50,153,43,12,71,248,42,29,23,300,00,30,45,303,46*79
$GPGSV,3,3,10,31,01,324,00,24,,,48,,,,,,,,*44
$GPRMC,165006,A,3552.8597,N,10617.9630,W,000.4,209.7,140208,,,A*6E
$GPVTG,209.7,T,,M,000.4,N,000.8,K,A*0D
$GPGGA,165021,3552.8565,N,10617.9614,W,1,05,02.0,02265.1,M,-022.4,M,,*79
$GPGSA,A,3,02,04,05,10,12,,,,,,,,04.4,02.0,03.9*0B
$GPGSV,3,1,10,02,59,035,52,04,23,052,45,05,59,279,52,09,07,214,00*7D
$GPGSV,3,2,10,10,50,153,43,12,71,248,41,29,23,300,00,30,45,302,48*75
$GPGSV,3,3,10,31,01,324,00,24,,,47,,,,,,,,*4B
$GPRMC,165021,A,3552.8565,N,10617.9614,W,000.5,159.4,140208,,,A*64
$GPVTG,159.4,T,,M,000.5,N,000.9,K,A*08
$GPGGA,165036,3552.8557,N,10617.9602,W,1,05,02.0,02265.8,M,-022.4,M,,*70
$GPGSA,A,3,02,04,05,10,12,,,,,,,,04.4,02.0,03.9*0B
$GPGSV,3,1,10,02,59,035,52,04,23,052,42,05,59,279,52,09,06,214,00*7B
$GPGSV,3,2,10,10,50,153,42,12,71,248,41,29,23,300,00,30,45,302,46*7A
$GPGSV,3,3,10,31,01,324,00,24,,,48,,,,,,,,*44
$GPRMC,165036,A,3552.8557,N,10617.9602,W,000.2,136.1,140208,,,A*6F
$GPVTG,136.1,T,,M,000.2,N,000.3,K,A*09
$GPGGA,165051,3552.8547,N,10617.9604,W,1,05,02.0,02265.8,M,-022.4,M,,*76
$GPGSA,A,3,02,04,05,10,12,,,,,,,,04.4,02.0,03.9*0B
$GPGSV,3,1,10,02,59,035,52,04,22,052,44,05,59,278,53,09,06,214,00*7C
$GPGSV,3,2,10,10,50,152,42,12,71,247,41,29,23,300,00,30,45,302,46*74
$GPGSV,3,3,10,31,01,324,00,24,,,47,,,,,,,,*4B
$GPRMC,165051,A,3552.8547,N,10617.9604,W,000.2,136.1,140208,,,A*69
$GPVTG,136.1,T,,M,000.2,N,000.4,K,A*0E
$GPGGA,165106,3552.8557,N,10617.9616,W,1,05,02.0,02265.8,M,-022.4,M,,*77
$GPGSA,A,3,02,04,05,10,12,,,,,,,,04.4,02.0,03.9*0B
$GPGSV,3,1,10,02,59,035,52,04,22,052,45,05,59,278,54,09,06,214,00*7A
$GPGSV,3,2,10,10,50,152,43,12,71,247,42,29,23,300,00,30,45,302,45*75
$GPGSV,3,3,10,31,01,324,00,24,,,48,,,,,,,,*44
$GPRMC,165106,A,3552.8557,N,10617.9616,W,000.2,216.2,140208,,,A*6A
$GPVTG,216.2,T,,M,000.2,N,000.4,K,A*0C
$GPGGA,165121,3552.8533,N,10617.9610,W,1,05,02.0,02266.2,M,-022.4,M,,*7F
$GPGSA,A,3,02,04,05,10,12,,,,,,,,04.4,02.0,03.9*0B
$GPGSV,3,1,10,02,59,035,52,04,22,052,46,05,59,278,54,09,06,213,00*7E
$GPGSV,3,2,10,10,50,152,45,12,71,247,41,29,23,300,00,30,45,302,46*73
$GPGSV,3,3,10,31,01,324,00,24,,,47,,,,,,,,*4B
$GPRMC,165121,A,3552.8533,N,10617.9610,W,000.5,198.7,140208,,,A*6C
$GPVTG,198.7,T,,M,000.5,N,001.0,K,A*0E
$GPGGA,165136,3552.8558,N,10617.9647,W,1,05,02.0,02266.0,M,-022.4,M,,*74
$GPGSA,A,3,02,04,05,10,12,,,,,,,,04.4,02.0,03.9*0B
$GPGSV,3,1,10,02,59,035,52,04,22,052,46,05,59,278,54,09,06,213,00*7E
$GPGSV,3,2,10,10,50,152,45,12,71,246,41,29,24,301,00,30,45,302,47*75
$GPGSV,3,3,10,31,01,323,00,24,,,48,,,,,,,,*43
$GPRMC,165136,A,3552.8558,N,10617.9647,W,000.7,257.5,140208,,,A*65
$GPVTG,257.5,T,,M,000.7,N,001.3,K,A*0D
$GPGGA,165151,3552.8555,N,10617.9649,W,1,05,02.0,02265.8,M,-022.4,M,,*7D
$GPGSA,A,3,02,04,05,10,12,,,,,,,,04.4,02.0,03.9*0B
$GPGSV,3,1,10,02,58,035,52,04,22,052,46,05,59,277,53,09,06,213,00*77
$GPGSV,3,2,10,10,50,152,45,12,71,246,41,29,24,301,00,30,45,302,47*75
$GPGSV,3,3,10,31,01,323,00,24,,,48,,,,,,,,*43
$GPRMC,165151,A,3552.8555,N,10617.9649,W,000.4,257.5,140208,,,A*64
$GPVTG,257.5,T,,M,000.4,N,000.7,K,A*0B
$GPGGA,165206,3552.8547,N,10617.9642,W,1,05,02.0,02265.9,M,-022.4,M,,*75
$GPGSA,A,3,02,04,05,10,12,,,,,,,,04.4,02.0,03.9*0B
$GPGSV,3,1,10,02,58,035,52,04,22,052,46,05,59,277,53,09,06,213,00*77
$GPGSV,3,2,10,10,50,152,46,12,71,245,41,29,24,301,00,30,46,302,46*77
$GPGSV,3,3,10,31,01,323,00,24,,,48,,,,,,,,*43
$GPRMC,165206,A,3552.8547,N,10617.9642,W,000.2,257.5,140208,,,A*6B
$GPVTG,257.5,T,,M,000.2,N,000.4,K,A*0E
$GPGGA,165221,3552.8545,N,10617.9630,W,1,05,02.0,02265.1,M,-022.4,M,,*7F
$GPGSA,A,3,02,04,05,10,12,,,,,,,,04.4,02.0,03.9*0B
$GPGSV,3,1,10,02,58,035,52,04,22,052,46,05,59,277,54,09,06,213,00*70
$GPGSV,3,2,10,10,51,152,45,12,71,245,42,29,24,301,00,30,46,302,45*75
$GPGSV,3,3,10,31,01,323,00,24,,,46,,,,,,,,*4D
$GPRMC,165221,A,3552.8545,N,10617.9630,W,000.6,263.4,140208,,,A*6B
$GPVTG,263.4,T,,M,000.6,N,001.2,K,A*0B
$GPGGA,165236,3552.8546,N,10617.9632,W,1,05,02.0,02264.9,M,-022.4,M,,*71
$GPGSA,A,3,02,04,05,10,12,,,,,,,,04.4,02.0,03.9*0B
$GPGSV,3,1,10,02,58,036,52,04,22,052,45,05,59,277,54,09,06,213,00*70
$GPGSV,3,2,10,10,51,152,46,12,71,245,43,29,24,301,00,30,46,301,44*75
$GPGSV,3,3,10,31,01,323,00,24,,,47,,,,,,,,*4C
$GPRMC,165236,A,3552.8546,N,10617.9632,W,000.5,257.1,140208,,,A*6D
$GPVTG,257.1,T,,M,000.5,N,001.0,K,A*08
$GPGGA,165251,3552.8536,N,10617.9603,W,1,05,02.0,02264.6,M,-022.4,M,,*7A
$GPGSA,A,3,02,04,05,10,12,,,,,,,,04.4,02.0,03.9*0B
$GPGSV,3,1,10,02,58,036,52,04,22,052,43,05,59,277,54,09,06,213,00*76
$GPGSV,3,2,10,10,51,152,47,12,71,244,45,29,24,301,00,30,46,301,43*74
$GPGSV,3,3,10,31,01,323,00,24,,,47,,,,,,,,*4C
$GPRMC,165251,A,3552.8536,N,10617.9603,W,000.4,222.3,140208,,,A*68
$GPVTG,222.3,T,,M,000.4,N,000.8,K,A*00
$GPGGA,165306,3552.8553,N,10617.9617,W,1,05,02.0,02263.8,M,-022.4,M,,*76
$GPGSA,A,3,02,04,05,10,12,,,,,,,,04.4,02.0,03.9*0B
$GPGSV,3,1,10,02,58,036,53,04,22,052,43,05,59,276,54,09,06,213,00*76
$GPGSV,3,2,10,10,51,152,46,12,71,244,45,29,24,301,00,30,46,301,46*70
$GPGSV,3,3,10,31,01,323,00,24,,,48,,,,,,,,*43
$GPRMC,165306,A,3552.8553,N,10617.9617,W,000.3,264.1,140208,,,A*6A
$GPVTG,264.1,T,,M,000.3,N,000.6,K,A*09
$GPGGA,165321,3552.8532,N,10617.9627,W,1,05,02.0,02263.0,M,-022.4,M,,*7F
$GPGSA,A,3,02,04,05,10,12,,,,,,,,04.4,02.0,03.9*0B
$GPGSV,3,1,10,02,58,036,53,04,22,052,42,05,59,276,54,09,06,213,00*77
$GPGSV,3,2,10,10,51,151,46,12,71,244,45,29,24,301,00,30,46,301,47*72
$GPGSV,3,3,10,31,01,323,00,24,,,47,,,,,,,,*4C
$GPRMC,165321,A,3552.8532,N,10617.9627,W,000.9,201.9,140208,,,A*6A
$GPVTG,201.9,T,,M,000.9,N,001.7,K,A*08
$GPGGA,165336,3552.8533,N,10617.9625,W,1,05,02.0,02262.2,M,-022.4,M,,*79
$GPGSA,A,3,02,04,05,10,12,,,,,,,,04.4,02.0,03.8*0A
$GPGSV,3,1,10,02,58,036,53,04,21,052,41,05,59,276,55,09,06,213,00*76
$GPGSV,3,2,10,10,51,151,47,12,70,243,45,29,24,301,00,30,46,301,46*74
$GPGSV,3,3,10,31,01,323,00,24,,,47,,,,,,,,*4C
$GPRMC,165336,A,3552.8533,N,10617.9625,W,000.4,201.9,140208,,,A*62
$GPVTG,201.9,T,,M,000.4,N,000.7,K,A*04
$GPGGA,165351,3552.8559,N,10617.9623,W,1,05,02.0,02261.8,M,-022.4,M,,*7B
$GPGSA,A,3,02,04,05,10,12,,,,,,,,04.4,02.0,03.8*0A
$GPGSV,3,1,10,02,58,036,53,04,21,052,41,05,59,276,55,09,06,213,00*76
$GPGSV,3,2,10,10,51,151,47,12,70,243,44,29,24,301,00,30,46,301,42*71
$GPGSV,3,3,10,31,01,323,00,24,,,48,,,,,,,,*43
$GPRMC,165351,A,3552.8559,N,10617.9623,W,000.2,201.9,140208,,,A*6F
$GPVTG,201.9,T,,M,000.2,N,000.5,K,A*00
$GPGGA,165406,3552.8551,N,10617.9611,W,1,05,02.0,02260.9,M,-022.4,M,,*77
$GPGSA,A,3,02,04,05,10,12,,,,,,,,04.4,02.0,03.8*0A
$GPGSV,3,1,10,02,58,036,53,04,21,053,42,05,59,275,54,09,05,213,00*75
$GPGSV,3,2,10,10,51,151,47,12,70,243,46,29,24,301,00,30,46,301,42*73
$GPGSV,3,3,10,31,01,323,00,24,,,47,,,,,,,,*4C
$GPRMC,165406,A,3552.8551,N,10617.9611,W,000.4,175.6,140208,,,A*6A
$GPVTG,175.6,T,,M,000.4,N,000.8,K,A*04
$GPGGA,165421,3552.8554,N,10617.9619,W,1,05,02.0,02260.5,M,-022.4,M,,*73
$GPGSA,A,3,02,04,05,10,12,,,,,,,,04.4,02.0,03.8*0A
$GPGSV,3,1,10,02,57,036,53,04,21,053,43,05,59,275,54,09,05,213,00*7B
$GPGSV,3,2,10,10,51,151,47,12,70,242,46,29,24,301,00,30,46,301,42*72
$GPGSV,3,3,10,31,01,323,00,24,,,43,,,,,,,,*48
$GPRMC,165421,A,3552.8554,N,10617.9619,W,000.4,206.5,140208,,,A*66
$GPVTG,206.5,T,,M,000.4,N,000.8,K,A*00
$GPGGA,165436,3552.8540,N,10617.9616,W,1,05,02.0,02260.1,M,-022.4,M,,*7B
$GPGSA,A,3,02,04,05,10,12,,,,,,,,04.4,02.0,03.8*0A
$GPGSV,3,1,10,02,57,036,52,04,21,053,43,05,59,275,54,09,05,213,00*7A
$GPGSV,3,2,10,10,52,151,47,12,70,242,48,29,25,301,00,30,46,300,45*78
$GPGSV,3,3,10,31,01,322,00,24,,,46,,,,,,,,*4C
$GPRMC,165436,A,3552.8540,N,10617.9616,W,000.6,167.0,140208,,,A*69
$GPVTG,167.0,T,,M,000.6,N,001.1,K,A*0B
$GPGGA,165451,3552.8565,N,10617.9625,W,1,05,02.0,02259.8,M,-022.4,M,,*7E
$GPGSA,A,3,02,04,05,10,12,,,,,,,,04.4,02.0,03.8*0A
$GPGSV,3,1,10,02,57,036,52,04,21,053,41,05,59,275,54,09,05,212,00*79
$GPGSV,3,2,10,10,52,151,49,12,70,241,47,29,25,301,00,30,46,300,42*7D
$GPGSV,3,3,10,31,01,322,00,24,,,47,,,,,,,,*4D
$GPRMC,165451,A,3552.8565,N,10617.9625,W,000.3,177.7,140208,,,A*6C
$GPVTG,177.7,T,,M,000.3,N,000.6,K,A*0E
$GPGGA,165506,3552.8550,N,10617.9645,W,1,05,02.0,02259.6,M,-022.4,M,,*73
$GPGSA,A,3,02,04,05,10,12,,,,,,,,04.4,02.0,03.8*0A
$GPGSV,3,1,10,02,57,036,53,04,21,053,40,05,60,274,54,09,05,212,00*72
$GPGSV,3,2,10,10,52,151,48,12,70,241,46,29,25,302,00,30,46,300,43*7F
$GPGSV,3,3,10,31,01,322,00,24,,,48,,,,,,,,*42
$GPRMC,165506,A,3552.8550,N,10617.9645,W,000.7,216.3,140208,,,A*6B
$GPVTG,216.3,T,,M,000.7,N,001.3,K,A*0E
$GPGGA,165521,3552.8545,N,10617.9656,W,1,05,02.1,02259.1,M,-022.4,M,,*76
$GPGSA,A,3,02,04,05,10,12,,,,,,,,04.4,02.1,03.8*0B
$GPGSV,3,1,10,02,57,036,53,04,21,053,45,05,60,274,55,09,05,212,00*76
$GPGSV,3,2,10,10,52,151,46,12,70,241,47,29,25,302,00,30,47,300,40*72
$GPGSV,3,3,10,31,01,322,00,24,,,47,,,,,,,,*4D
$GPRMC,165521,A,3552.8545,N,10617.9656,W,000.9,184.7,140208,,,A*6A
$GPVTG,184.7,T,,M,000.9,N,001.7,K,A*08
$GPGGA,165536,3552.8563,N,10617.9667,W,1,05,02.1,02258.4,M,-022.4,M,,*72
$GPGSA,A,3,02,04,05,10,12,,,,,,,,04.4,02.1,03.8*0B
$GPGSV,3,1,10,02,57,037,53,04,21,053,40,05,60,274,54,09,05,212,00*73
$GPGSV,3,2,10,10,52,151,44,12,70,240,47,29,25,302,00,30,47,300,38*7E
$GPGSV,3,3,10,31,01,322,00,24,,,47,,,,,,,,*4D
$GPRMC,165536,A,3552.8563,N,10617.9667,W,000.3,184.7,140208,,,A*60
$GPVTG,184.7,T,,M,000.3,N,000.6,K,A*02
$GPGGA,165551,3552.8534,N,10617.9658,W,1,05,02.1,02257.5,M,-022.4,M,,*73
$GPGSA,A,3,02,04,05,10,12,,,,,,,,04.3,02.1,03.8*0C
$GPGSV,3,1,10,02,57,037,54,04,21,053,41,05,60,274,54,09,05,212,00*75
$GPGSV,3,2,10,10,52,150,45,12,70,240,49,29,25,302,00,30,47,300,40*7F
$GPGSV,3,3,10,31,01,322,00,24,,,41,,,,,,,,*4B
$GPRMC,165551,A,3552.8534,N,10617.9658,W,000.6,187.4,140208,,,A*6A
$GPVTG,187.4,T,,M,000.6,N,001.1,K,A*01
$GPGGA,165606,3552.8559,N,10617.9669,W,1,05,02.1,02257.0,M,-022.4,M,,*7E
$GPGSA,A,3,02,04,05,10,12,,,,,,,,04.3,02.1,03.8*0C
$GPGSV,3,1,10,02,57,037,53,04,21,053,41,05,60,274,53,09,05,212,00*75
$GPGSV,3,2,10,10,52,150,46,12,70,240,48,29,25,302,00,30,47,300,40*7D
$GPGSV,3,3,10,31,01,322,00,24,,,45,,,,,,,,*4F
$GPRMC,165606,A,3552.8559,N,10617.9669,W,000.5,228.9,140208,,,A*6A
$GPVTG,228.9,T,,M,000.5,N,000.9,K,A*00
$GPGGA,165621,3552.8566,N,10617.9680,W,1,05,02.1,02256.5,M,-022.4,M,,*74
$GPGSA,A,3,02,04,05,10,12,,,,,,,,04.3,02.1,03.8*0C
$GPGSV,3,1,10,02,57,037,53,04,20,053,44,05,60,273,53,09,05,212,00*76
$GPGSV,3,2,10,10,52,150,45,12,70,239,47,29,25,302,00,30,47,300,38*70
$GPGSV,3,3,10,31,01,322,00,24,,,42,,,,,,,,*48
$GPRMC,165621,A,3552.8566,N,10617.9680,W,000.4,281.4,140208,,,A*6B
$GPVTG,281.4,T,,M,000.4,N,000.9,K,A*0F
$GPGGA,165636,3552.8556,N,10617.9672,W,1,05,02.1,02255.9,M,-022.4,M,,*73
$GPGSA,A,3,02,04,05,10,12,,,,,,,,04.3,02.1,03.8*0C
$GPGSV,3,1,10,02,56,037,52,04,20,053,46,05,60,273,54,09,05,212,00*73
$GPGSV,3,2,10,10,53,150,46,12,70,239,48,29,25,302,00,30,47,299,39*7D
$GPGSV,3,3,10,31,01,322,00,24,,,46,,,,,,,,*4C
$GPRMC,165636,A,3552.8556,N,10617.9672,W,000.3,281.4,140208,,,A*64
$GPVTG,281.4,T,,M,000.3,N,000.7,K,A*06
$GPGGA,165651,3552.8554,N,10617.9654,W,1,05,02.1,02255.8,M,-022.4,M,,*75
$GPGSA,A,3,02,04,05,10,12,,,,,,,,04.3,02.1,03.8*0C
$GPGSV,3,1,10,02,56,037,52,04,20,053,46,05,60,273,54,09,05,212,00*73
$GPGSV,3,2,10,10,53,150,47,12,70,239,50,29,25,302,00,30,47,299,39*75
$GPGSV,3,3,10,31,01,322,00,24,,,46,,,,,,,,*4C
$GPRMC,165651,A,3552.8554,N,10617.9654,W,000.3,281.4,140208,,,A*63
$GPVTG,281.4,T,,M,000.3,N,000.5,K,A*04
$GPGGA,165706,3552.8562,N,10617.9670,W,1,05,02.1,02255.1,M,-022.4,M,,*7C
$GPGSA,A,3,02,04,05,10,12,,,,,,,,04.3,02.1,03.8*0C
$GPGSV,3,1,10,02,56,037,52,04,20,053,45,05,60,273,54,09,05,212,00*70
$GPGSV,3,2,10,10,53,150,45,12,70,238,50,29,25,302,00,30,47,299,40*78
$GPGSV,3,3,10,31,01,322,00,24,,,46,,,,,,,,*4C
$GPRMC,165706,A,3552.8562,N,10617.9670,W,000.4,312.8,140208,,,A*63
$GPVTG,312.8,T,,M,000.4,N,000.8,K,A*09
$GPGGA,165721,3552.8566,N,10617.9680,W,1,05,02.1,02254.4,M,-022.4,M,,*76
$GPGSA,A,3,02,04,05,10,12,,,,,,,,04.3,02.1,03.8*0C
$GPGSV,3,1,10,02,56,037,53,04,20,053,46,05,60,272,54,09,05,212,00*73
$GPGSV,3,2,10,10,53,150,46,12,70,238,50,29,25,302,00,30,47,299,41*7A
$GPGSV,3,3,10,31,01,321,00,24,,,36,,,,,,,,*48
$GPRMC,165721,A,3552.8566,N,10617.9680,W,000.4,312.8,140208,,,A*6D
$GPVTG,312.8,T,,M,000.4,N,000.8,K,A*09
$GPGGA,165736,3552.8582,N,10617.9692,W,1,05,02.1,02253.7,M,-022.4,M,,*7D
$GPGSA,A,3,02,04,05,10,12,,,,,,,,04.3,02.1,03.8*0C
$GPGSV,3,1,10,02,56,037,52,04,20,053,46,05,60,272,53,09,04,212,00*74
$GPGSV,3,2,10,10,53,150,46,12,70,238,48,29,26,302,00,30,47,299,40*71
$GPGSV,3,3,10,31,01,321,00,24,,,46,,,,,,,,*4F
$GPRMC,165736,A,3552.8582,N,10617.9692,W,000.6,313.0,140208,,,A*69
$GPVTG,313.0,T,,M,000.6,N,001.2,K,A*09
$GPGGA,165751,3552.8580,N,10617.9690,W,1,05,02.1,02253.5,M,-022.4,M,,*7E
$GPGSA,A,3,02,04,05,10,12,,,,,,,,04.3,02.1,03.8*0C
$GPGSV,3,1,10,02,56,037,52,04,20,053,43,05,60,272,53,09,04,212,00*71
$GPGSV,3,2,10,10,53,150,47,12,70,237,47,29,26,302,00,30,47,299,35*72
$GPGSV,3,3,10,31,01,321,00,24,,,48,,,,,,,,*41
$GPRMC,165751,A,3552.8580,N,10617.9690,W,000.4,313.0,140208,,,A*6A
$GPVTG,313.0,T,,M,000.4,N,000.7,K,A*0F
$GPGGA,165806,3552.8591,N,10617.9703,W,1,05,02.1,02251.9,M,-022.4,M,,*76
$GPGSA,A,3,02,04,05,10,12,,,,,,,,04.3,02.1,03.8*0C
$GPGSV,3,1,10,02,56,037,51,04,20,053,40,05,60,272,53,09,04,212,00*71
$GPGSV,3,2,10,10,53,149,47,12,70,237,48,29,26,302,00,30,47,299,35*75
$GPGSV,3,3,10,31,01,321,00,24,,,44,,,,,,,,*4D
$GPRMC,165806,A,3552.8591,N,10617.9703,W,000.7,313.0,140208,,,A*6F
$GPVTG,313.0,T,,M,000.7,N,001.4,K,A*0E
$GPGGA,165821,3552.8602,N,10617.9725,W,1,05,02.1,02249.6,M,-022.4,M,,*78
$GPGSA,A,3,02,04,05,10,12,,,,,,,,04.3,02.1,03.8*0C
$GPGSV,3,1,10,02,56,037,51,04,20,053,42,05,60,271,54,09,04,212,00*77
$GPGSV,3,2,10,10,53,149,46,12,70,237,49,29,26,302,00,30,47,299,34*74
$GPGSV,3,3,10,31,02,321,00,24,,,46,,,,,,,,*4C
$GPRMC,165821,A,3552.8602,N,10617.9725,W,000.5,292.9,140208,,,A*64
$GPVTG,292.9,T,,M,000.5,N,001.0,K,A*09
$GPGGA,165836,3552.8605,N,10617.9726,W,1,05,02.1,02248.7,M,-022.4,M,,*7A
$GPGSA,A,3,02,04,05,10,12,,,,,,,,04.3,02.1,03.8*0C
$GPGSV,3,1,10,02,56,038,51,04,20,053,41,05,60,271,54,09,04,211,00*78
$GPGSV,3,2,10,10,53,149,46,12,69,236,49,29,26,303,00,30,48,298,40*71
$GPGSV,3,3,10,31,02,321,00,24,,,47,,,,,,,,*4D
$GPRMC,165836,A,3552.8605,N,10617.9726,W,000.4,292.9,140208,,,A*67
$GPVTG,292.9,T,,M,000.4,N,000.8,K,A*01
$GPGGA,165851,3552.8641,N,10617.9639,W,1,05,02.1,02248.1,M,-022.4,M,,*72
$GPGSA,A,3,02,04,05,10,12,,,,,,,,04.3,02.1,03.7*03
$GPGSV,3,1,10,02,56,038,34,04,20,053,44,05,60,271,46,09,04,211,00*7D
$GPGSV,3,2,10,10,54,149,46,12,69,236,55,29,26,303,00,30,48,298,35*79
$GPGSV,3,3,10,31,02,321,00,24,,,32,,,,,,,,*4F
$GPRMC,165851,A,3552.8641,N,10617.9639,W,005.9,071.7,140208,,,A*60
$GPVTG,071.7,T,,M,005.9,N,011.0,K,A*00
$GPGGA,165906,3552.8406,N,10617.9533,W,1,05,02.1,02248.9,M,-022.4,M,,*71
$GPGSA,A,3,02,04,05,10,12,,,,,,,,04.3,02.1,03.7*03
$GPGSV,3,1,10,02,55,038,50,04,20,054,36,05,60,271,53,09,04,211,00*7A
$GPGSV,3,2,10,10,54,149,52,12,69,236,40,29,26,303,00,30,48,298,52*79
$GPGSV,3,3,10,31,02,321,00,24,,,46,,,,,,,,*4C
$GPRMC,165906,A,3552.8406,N,10617.9533,W,012.6,186.0,140208,,,A*6C
$GPVTG,186.0,T,,M,012.6,N,023.3,K,A*05
$GPGGA,165921,3552.8069,N,10617.9528,W,1,05,02.1,02248.5,M,-022.4,M,,*7F
$GPGSA,A,3,02,04,05,10,12,,,,,,,,04.3,02.1,03.7*03
$GPGSV,3,1,10,02,55,038,50,04,19,054,34,05,60,270,49,09,04,211,00*78
$GPGSV,3,2,10,10,54,149,43,12,69,235,51,29,26,303,00,30,48,298,52*7A
$GPGSV,3,3,10,31,02,321,00,24,,,42,,,,,,,,*48
$GPRMC,165921,A,3552.8069,N,10617.9528,W,001.2,187.6,140208,,,A*6F
$GPVTG,187.6,T,,M,001.2,N,002.2,K,A*06
$GPGGA,165936,3552.8050,N,10617.9509,W,1,05,02.1,02248.1,M,-022.4,M,,*74
$GPGSA,A,3,02,04,05,10,12,,,,,,,,04.3,02.1,03.7*03
$GPGSV,3,1,10,02,55,038,49,04,19,054,36,05,60,270,49,09,04,211,00*72
$GPGSV,3,2,10,10,54,149,42,12,69,235,51,29,26,303,00,30,48,298,52*7B
$GPGSV,3,3,10,31,02,321,00,24,,,42,,,,,,,,*48
$GPRMC,165936,A,3552.8050,N,10617.9509,W,000.8,187.6,140208,,,A*6B
$GPVTG,187.6,T,,M,000.8,N,001.5,K,A*09
$GPGGA,165951,3552.7900,N,10617.9360,W,1,05,02.1,02247.3,M,-022.4,M,,*72
$GPGSA,A,3,02,04,05,10,12,,,,,,,,04.3,02.1,03.7*03
$GPGSV,3,1,10,02,55,038,46,04,19,054,49,05,60,270,50,09,04,211,00*7D
$GPGSV,3,2,10,10,54,149,50,12,69,235,52,29,26,303,00,30,48,298,49*71
$GPGSV,3,3,10,31,02,321,00,24,,,44,,,,,,,,*4E
$GPRMC,165951,A,3552.7900,N,10617.9360,W,009.8,123.2,140208,,,A*63
$GPVTG,123.2,T,,M,009.8,N,018.2,K,A*05
$GPGGA,170006,3552.7881,N,10617.8511,W,1,04,03.0,02247.1,M,-022.4,M,,*77
$GPGSA,A,3,02,04,10,12,,,,,,,,,05.3,03.0,04.4*03
$GPGSV,3,1,10,02,55,038,53,04,19,054,36,05,60,270,35,09,04,211,00*72
$GPGSV,3,2,10,10,54,149,47,12,69,234,55,29,26,303,00,30,48,298,33*7C
$GPGSV,3,3,10,31,02,320,00,24,,,41,,,,,,,,*4A
$GPRMC,170006,A,3552.7881,N,10617.8511,W,017.9,092.6,140208,,,A*64
$GPVTG,092.6,T,,M,017.9,N,033.2,K,A*0D
$GPGGA,170021,3552.7864,N,10617.7672,W,1,05,02.1,02245.8,M,-022.4,M,,*7A
$GPGSA,A,3,02,04,05,10,12,,,,,,,,04.3,02.1,03.7*03
$GPGSV,3,1,11,02,55,038,52,04,19,054,36,05,60,269,34,06,00,295,00*7C
$GPGSV,3,2,11,09,04,211,00,10,54,148,49,12,69,234,53,29,26,303,00*77
$GPGSV,3,3,11,30,48,298,46,31,02,320,00,24,,,34,,,,*77
$GPRMC,170021,A,3552.7864,N,10617.7672,W,016.8,093.1,140208,,,A*65
$GPVTG,093.1,T,,M,016.8,N,031.1,K,A*0A
$GPGGA,170036,3552.7862,N,10617.6540,W,1,04,03.0,02244.6,M,-022.4,M,,*77
$GPGSA,A,3,02,04,10,12,,,,,,,,,05.3,03.0,04.3*04
$GPGSV,3,1,11,02,55,038,53,04,19,054,36,05,60,269,33,06,00,295,00*7A
$GPGSV,3,2,11,09,04,211,00,10,54,148,48,12,69,234,54,29,27,303,00*70
$GPGSV,3,3,11,30,48,297,35,31,02,320,00,24,,,40,,,,*7F
$GPRMC,170036,A,3552.7862,N,10617.6540,W,024.9,091.8,140208,,,A*6D
$GPVTG,091.8,T,,M,024.9,N,046.1,K,A*01
$GPGGA,170051,3552.8157,N,10617.5378,W,1,04,02.5,02243.8,M,-022.4,M,,*75
$GPGSA,A,3,02,05,10,12,,,,,,,,,15.9,02.5,15.7*0E
$GPGSV,3,1,11,02,55,038,47,04,19,054,31,05,60,269,52,06,00,295,00*7F
$GPGSV,3,2,11,09,04,211,00,10,54,148,46,12,69,234,50,29,27,303,00*7A
$GPGSV,3,3,11,30,48,297,52,31,02,320,00,24,,,43,,,,*7D
$GPRMC,170051,A,3552.8157,N,10617.5378,W,025.4,048.2,140208,,,A*60
$GPVTG,048.2,T,,M,025.4,N,047.1,K,A*02
$GPGGA,170106,3552.8704,N,10617.4088,W,1,05,02.1,02243.7,M,-022.4,M,,*71
$GPGSA,A,3,02,04,05,10,12,,,,,,,,04.3,02.1,03.7*03
$GPGSV,3,1,11,02,55,038,46,04,19,054,45,05,60,269,46,06,00,295,00*78
$GPGSV,3,2,11,09,03,211,00,10,55,148,47,12,69,233,55,29,27,303,00*7F
$GPGSV,3,3,11,30,48,297,35,31,02,320,00,24,,,43,,,,*7C
$GPRMC,170106,A,3552.8704,N,10617.4088,W,027.8,079.1,140208,,,A*61
$GPVTG,079.1,T,,M,027.8,N,051.6,K,A*0D
$GPGGA,170121,3552.8971,N,10617.2574,W,1,05,02.1,02242.9,M,-022.4,M,,*77
$GPGSA,A,3,02,04,05,10,12,,,,,,,,04.3,02.1,03.7*03
