@Sonygps/ver1.0/wgs-84
$GPGGA,180114,4808.9490,N,00928.9610,E,1,05,12.6,00616.6,M,048.0,M,,*49
$GPGSA,A,3,05,09,12,14,22,,,,,,,,19.9,12.6,15.3*0B
$GPGSV,2,1,08,05,40,250,50,09,85,036,51,22,16,285,36,17,,,00*4F
$GPGSV,2,2,08,12,57,247,49,13,,,27,30,,,39,14,16,320,35*77
$GPRMC,180114,A,4808.9490,N,00928.9610,E,000.0,000.0,160607,,,A*76
$GPVTG,000.0,T,,M,000.0,N,000.0,K,A*0D
$GPGGA,180138,4808.8854,N,00929.0764,E,1,05,12.2,00476.0,M,048.0,M,,*4E
$GPGSA,A,3,05,09,12,14,22,,,,,,,,19.3,12.2,14.9*0E
$GPGSV,2,1,07,05,40,250,33,09,85,039,51,12,57,247,46,14,16,320,32*71
$GPGSV,2,2,07,17,29,049,36,22,16,285,35,30,,,33,,,,*76
$GPRMC,180138,A,4808.8854,N,00929.0764,E,014.2,138.7,160607,,,A*7D
$GPVTG,138.7,T,,M,014.2,N,026.3,K,A*00
$GPGGA,180218,4808.5224,N,00928.9566,E,1,05,11.6,00569.6,M,048.0,M,,*49
$GPGSA,A,3,05,09,12,14,22,,,,,,,,18.3,11.6,14.2*03
$GPGSV,2,1,07,05,40,250,40,09,85,043,48,12,57,248,45,14,16,320,35*7B
$GPGSV,2,2,07,17,29,049,34,22,16,285,33,30,,,35,,,,*74
$GPRMC,180218,A,4808.5224,N,00928.9566,E,044.3,206.1,160607,,,A*78
$GPVTG,206.1,T,,M,044.3,N,082.1,K,A*00
$GPGGA,180238,4808.3737,N,00928.5909,E,1,05,11.2,00658.4,M,048.0,M,,*44
$GPGSA,A,3,05,09,12,14,22,,,,,,,,17.8,11.2,13.8*0E
$GPGSV,2,1,07,05,40,250,35,09,85,045,49,12,57,248,48,14,16,320,33*75
$GPGSV,2,2,07,17,29,049,34,22,16,285,39,30,,,35,,,,*7E
$GPRMC,180238,A,4808.3737,N,00928.5909,E,056.3,211.1,160607,,,A*77
$GPVTG,211.1,T,,M,056.3,N,104.3,K,A*08
$GPGGA,180258,4808.0645,N,00928.4824,E,1,05,10.9,00527.0,M,048.0,M,,*4F
$GPGSA,A,3,05,09,12,14,22,,,,,,,,17.3,10.9,13.4*03
$GPGSV,2,1,07,05,40,250,39,09,85,047,50,12,58,248,41,14,16,320,41*70
$GPGSV,2,2,07,17,29,049,32,22,15,285,35,30,,,34,,,,*76
$GPRMC,180258,A,4808.0645,N,00928.4824,E,051.3,202.7,160607,,,A*7A
$GPVTG,202.7,T,,M,051.3,N,095.0,K,A*01
$GPGGA,180328,4807.7054,N,00928.2863,E,1,05,10.4,00477.1,M,048.0,M,,*4A
$GPGSA,A,3,05,09,12,14,22,,,,,,,,16.5,10.4,12.8*04
$GPGSV,2,1,08,05,41,251,36,09,85,050,49,12,58,248,40,14,16,320,39*70
$GPGSV,2,2,08,17,29,049,32,22,15,284,34,15,,,00,30,,,33*7A
$GPRMC,180328,A,4807.7054,N,00928.2863,E,027.6,204.2,160607,,,A*70
$GPVTG,204.2,T,,M,027.6,N,051.2,K,A*0C
$GPGGA,180343,4807.5964,N,00928.1465,E,1,04,11.7,00564.8,M,048.0,M,,*4F
$GPGSA,A,3,05,09,12,14,,,,,,,,,19.1,11.7,15.1*03
$GPGSV,2,1,07,05,41,251,31,09,85,051,50,12,58,248,40,14,16,320,36*7E
$GPGSV,2,2,07,17,28,049,35,22,15,284,29,30,,,32,,,,*7A
$GPRMC,180343,A,4807.5964,N,00928.1465,E,031.0,202.8,160607,,,A*71
$GPVTG,202.8,T,,M,031.0,N,057.4,K,A*01
$GPGGA,180358,4807.4761,N,00928.0992,E,1,05,09.9,00563.2,M,048.0,M,,*40
$GPGSA,A,3,05,09,12,14,22,,,,,,,,15.8,09.9,12.2*05
$GPGSV,2,1,07,05,41,251,38,09,85,053,50,12,58,248,41,14,17,320,40*74
$GPGSV,2,2,07,17,28,049,36,22,15,284,41,30,,,28,,,,*7C
$GPRMC,180358,A,4807.4761,N,00928.0992,E,044.6,194.3,160607,,,A*76
$GPVTG,194.3,T,,M,044.6,N,082.7,K,A*09
$GPGGA,180413,4807.2691,N,00927.9958,E,1,05,09.7,00560.6,M,048.0,M,,*49
$GPGSA,A,3,05,09,12,14,22,,,,,,,,15.4,09.7,12.0*05
$GPGSV,2,1,07,05,41,251,39,09,85,054,50,12,58,249,42,14,17,320,40*70
$GPGSV,2,2,07,17,28,049,35,22,15,284,36,30,,,26,,,,*71
$GPRMC,180413,A,4807.2691,N,00927.9958,E,057.6,198.3,160607,,,A*78
$GPVTG,198.3,T,,M,057.6,N,106.8,K,A*05
$GPGGA,180428,4807.0246,N,00927.8952,E,1,05,09.5,00527.4,M,048.0,M,,*45
$GPGSA,A,3,05,09,12,14,22,,,,,,,,15.1,09.5,11.7*06
$GPGSV,2,1,07,05,41,251,37,09,85,055,50,12,58,249,39,14,17,320,40*73
$GPGSV,2,2,07,17,28,049,36,22,15,284,41,30,,,00,,,,*76
$GPRMC,180428,A,4807.0246,N,00927.8952,E,060.7,198.0,160607,,,A*71
$GPVTG,198.0,T,,M,060.7,N,112.5,K,A*0B
$GPGGA,180443,4806.7763,N,00927.7733,E,1,05,09.2,00523.4,M,048.0,M,,*49
$GPGSA,A,3,05,09,12,14,22,,,,,,,,14.7,09.2,11.4*05
$GPGSV,2,1,07,05,41,251,36,09,85,057,51,12,58,249,42,14,17,320,41*7C
$GPGSV,2,2,07,17,28,048,39,22,15,284,41,30,,,00,,,,*78
$GPRMC,180443,A,4806.7763,N,00927.7733,E,062.1,197.9,160607,,,A*7C
$GPVTG,197.9,T,,M,062.1,N,115.1,K,A*0A
$GPGGA,180458,4806.5411,N,00927.6426,E,1,05,09.0,00521.2,M,048.0,M,,*47
$GPGSA,A,3,05,09,12,14,22,,,,,,,,14.4,09.0,11.2*02
$GPGSV,2,1,07,05,41,251,35,09,85,058,50,12,58,249,42,14,17,320,41*71
$GPGSV,2,2,07,17,28,048,35,22,15,284,39,30,,,00,,,,*7B
$GPRMC,180458,A,4806.5411,N,00927.6426,E,058.4,197.7,160607,,,A*76
$GPVTG,197.7,T,,M,058.4,N,108.2,K,A*07
$GPGGA,180513,4806.3164,N,00927.5359,E,1,05,08.8,00520.1,M,048.0,M,,*4F
$GPGSA,A,3,05,09,12,14,22,,,,,,,,14.0,08.8,10.9*05
$GPGSV,2,1,07,05,41,251,38,09,85,059,51,12,59,249,42,14,17,320,42*7E
$GPGSV,2,2,07,17,28,048,38,22,15,284,40,30,,,00,,,,*78
$GPRMC,180513,A,4806.3164,N,00927.5359,E,051.6,199.9,160607,,,A*7E
$GPVTG,199.9,T,,M,051.6,N,095.6,K,A*0D
$GPGGA,180553,4805.8742,N,00927.3133,E,1,04,03.1,00517.2,M,048.0,M,,*4D
$GPGSA,A,2,05,09,12,22,,,,,,,,,03.3,03.1,00.9*07
$GPGSV,2,1,07,05,42,251,34,09,85,062,51,12,59,249,37,14,17,320,29*76
$GPGSV,2,2,07,17,28,048,41,22,15,283,37,30,,,00,,,,*71
$GPRMC,180553,A,4805.8742,N,00927.3133,E,046.8,195.0,160607,,,A*75
$GPVTG,195.0,T,,M,046.8,N,086.7,K,A*03
$GPGGA,180618,4805.5572,N,00927.3750,E,1,04,03.1,00517.2,M,048.0,M,,*4E
$GPGSA,A,2,05,09,12,22,,,,,,,,,03.3,03.1,00.9*07
$GPGSV,2,1,07,05,42,251,42,09,85,064,51,12,59,249,52,14,17,320,00*79
$GPGSV,2,2,07,17,28,048,35,22,15,283,45,30,,,35,,,,*71
$GPRMC,180618,A,4805.5572,N,00927.3750,E,046.1,171.5,160607,,,A*70
$GPVTG,171.5,T,,M,046.1,N,085.4,K,A*05
$GPGGA,180638,4805.2977,N,00927.2456,E,1,05,07.8,00525.4,M,048.0,M,,*4D
$GPGSA,A,3,05,09,12,14,22,,,,,,,,12.4,07.8,09.6*0F
$GPGSV,2,1,08,05,42,252,43,09,84,066,52,12,59,250,42,14,17,320,36*78
$GPGSV,2,2,08,17,27,048,34,22,15,283,33,26,17,167,00,30,,,34*42
$GPRMC,180638,A,4805.2977,N,00927.2456,E,053.2,207.1,160607,,,A*79
$GPVTG,207.1,T,,M,053.2,N,098.5,K,A*09
$GPGGA,180653,4805.0894,N,00927.0771,E,1,05,07.6,00548.3,M,048.0,M,,*48
$GPGSA,A,3,05,09,12,14,22,,,,,,,,12.1,07.6,09.4*06
$GPGSV,2,1,08,05,42,252,45,09,84,067,52,12,59,250,35,14,18,320,36*70
$GPGSV,2,2,08,17,27,048,41,22,15,283,40,26,17,167,00,30,,,35*45
$GPRMC,180653,A,4805.0894,N,00927.0771,E,057.2,202.3,160607,,,A*7D
$GPVTG,202.3,T,,M,057.2,N,106.1,K,A*08
$GPGGA,180718,4804.7095,N,00926.8930,E,1,05,07.3,00560.5,M,048.0,M,,*42
$GPGSA,A,3,05,09,12,14,22,,,,,,,,11.7,07.3,09.1*03
$GPGSV,2,1,08,05,42,252,35,09,84,069,51,12,59,250,46,14,18,320,33*7B
$GPGSV,2,2,08,17,27,048,40,22,15,283,40,26,17,167,00,30,,,37*46
$GPRMC,180718,A,4804.7095,N,00926.8930,E,057.0,194.5,160607,,,A*76
$GPVTG,194.5,T,,M,057.0,N,105.6,K,A*04
$GPGGA,180733,4804.4963,N,00926.7686,E,1,04,07.3,00611.9,M,048.0,M,,*4D
$GPGSA,A,3,09,12,14,22,,,,,,,,,11.5,07.3,08.9*0D
$GPGSV,2,1,08,05,42,252,29,09,84,070,52,12,60,250,43,14,18,320,39*78
$GPGSV,2,2,08,17,27,048,36,22,15,283,33,26,17,167,00,30,,,36*42
$GPRMC,180733,A,4804.4963,N,00926.7686,E,054.7,198.3,160607,,,A*7F
$GPVTG,198.3,T,,M,054.7,N,101.3,K,A*0B
$GPGGA,180748,4804.2524,N,00926.7393,E,1,05,07.0,00523.5,M,048.0,M,,*45
$GPGSA,A,3,05,09,12,14,22,,,,,,,,11.2,07.0,08.7*02
$GPGSV,2,1,08,05,42,252,32,09,84,071,51,12,60,250,43,14,18,320,39*70
$GPGSV,2,2,08,17,27,048,33,22,15,283,32,26,17,167,00,30,,,41*46
$GPRMC,180748,A,4804.2524,N,00926.7393,E,055.1,197.9,160607,,,A*79
$GPVTG,197.9,T,,M,055.1,N,102.1,K,A*08
$GPGGA,180803,4804.0844,N,00926.5059,E,1,05,06.9,00669.0,M,048.0,M,,*4B
$GPGSA,A,3,05,09,12,14,22,,,,,,,,11.0,06.9,08.5*0A
$GPGSV,2,1,08,05,42,252,42,09,84,072,50,12,60,250,42,14,18,320,33*7E
$GPGSV,2,2,08,17,27,047,28,22,15,283,38,26,17,167,00,30,,,32*4D
$GPRMC,180803,A,4804.0844,N,00926.5059,E,054.5,211.5,160607,,,A*73
$GPVTG,211.5,T,,M,054.5,N,100.9,K,A*06
$GPGGA,180818,4803.8669,N,00926.3830,E,1,05,06.7,00582.0,M,048.0,M,,*46
$GPGSA,A,3,05,09,12,14,22,,,,,,,,10.7,06.7,08.4*03
$GPGSV,2,1,08,05,43,252,37,09,84,073,52,12,60,250,37,14,18,320,38*77
$GPGSV,2,2,08,17,27,047,35,22,15,282,34,26,17,167,00,30,,,35*4B
$GPRMC,180818,A,4803.8669,N,00926.3830,E,049.5,204.6,160607,,,A*7D
$GPVTG,204.6,T,,M,049.5,N,091.6,K,A*0B
$GPGGA,180908,4803.5727,N,00926.3769,E,1,04,09.7,00658.2,M,048.0,M,,*4B
$GPGSA,A,3,05,09,12,14,,,,,,,,,16.7,09.7,13.6*02
$GPGSV,2,1,08,05,43,252,34,09,84,076,47,12,60,251,49,14,18,319,43*7B
$GPGSV,2,2,08,17,27,047,00,22,14,282,27,26,16,167,00,30,,,00*49
$GPRMC,180908,A,4803.5727,N,00926.3769,E,033.5,143.0,160607,,,A*73
$GPVTG,143.0,T,,M,033.5,N,062.1,K,A*0B
$GPGGA,180933,4803.4532,N,00926.6391,E,1,04,09.5,00656.2,M,048.0,M,,*4E
$GPGSA,A,3,05,09,12,14,,,,,,,,,16.5,09.5,13.5*01
$GPGSV,2,1,08,05,43,252,48,09,84,077,49,12,60,251,45,14,19,319,38*7E
$GPGSV,2,2,08,17,27,047,00,22,14,282,34,26,16,167,00,30,,,00*4B
$GPRMC,180933,A,4803.4532,N,00926.6391,E,031.1,124.1,160607,,,A*7C
$GPVTG,124.1,T,,M,031.1,N,057.7,K,A*0D
$GPGGA,180953,4803.2717,N,00926.8675,E,1,05,06.0,00609.4,M,048.0,M,,*4D
$GPGSA,A,3,05,09,12,14,22,,,,,,,,09.5,06.0,07.4*01
$GPGSV,2,1,08,05,43,253,39,09,84,078,48,12,61,251,51,14,19,319,43*7F
$GPGSV,2,2,08,17,26,047,39,22,14,282,35,26,16,167,00,30,,,32*40
$GPRMC,180953,A,4803.2717,N,00926.8675,E,046.9,143.1,160607,,,A*71
$GPVTG,143.1,T,,M,046.9,N,086.8,K,A*07
$GPGGA,181013,4803.1028,N,00927.0788,E,1,05,05.8,00664.6,M,048.0,M,,*41
$GPGSA,A,3,05,09,12,14,22,,,,,,,,09.3,05.8,07.2*0A
$GPGSV,2,1,08,05,43,253,48,09,83,079,46,12,61,251,44,14,19,319,40*76
$GPGSV,2,2,08,17,26,047,40,22,14,282,41,26,16,167,00,30,,,38*47
$GPRMC,181013,A,4803.1028,N,00927.0788,E,039.8,129.4,160607,,,A*7F
$GPVTG,129.4,T,,M,039.8,N,073.8,K,A*0D
$GPGGA,181028,4803.0009,N,00927.2882,E,1,05,05.7,00593.7,M,048.0,M,,*49
$GPGSA,A,3,05,09,12,14,22,,,,,,,,09.1,05.7,07.1*04
$GPGSV,2,1,08,05,43,253,45,09,83,080,46,12,61,252,51,14,19,319,41*7B
$GPGSV,2,2,08,17,26,047,43,22,14,282,36,26,16,167,00,30,,,33*4F
$GPRMC,181028,A,4803.0009,N,00927.2882,E,038.5,141.4,160607,,,A*70
$GPVTG,141.4,T,,M,038.5,N,071.4,K,A*01
$GPGGA,181043,4802.8577,N,00927.4186,E,1,05,05.6,00596.6,M,048.0,M,,*4F
$GPGSA,A,3,05,09,12,14,22,,,,,,,,09.0,05.6,07.0*05
$GPGSV,2,1,08,05,44,253,43,09,83,081,48,12,61,252,50,14,19,319,40*75
$GPGSV,2,2,08,17,26,047,42,22,14,282,40,26,16,167,00,30,,,40*4B
$GPRMC,181043,A,4802.8577,N,00927.4186,E,040.6,142.1,160607,,,A*79
$GPVTG,142.1,T,,M,040.6,N,075.3,K,A*08
$GPGGA,181058,4802.7030,N,00927.5427,E,1,05,05.5,00599.5,M,048.0,M,,*4C
$GPGSA,A,3,05,09,12,14,22,,,,,,,,08.8,05.5,06.8*06
$GPGSV,2,1,08,05,44,253,48,09,83,082,52,12,61,252,50,14,19,319,38*79
$GPGSV,2,2,08,17,26,047,37,22,14,281,46,26,16,167,00,30,,,42*4E
$GPRMC,181058,A,4802.7030,N,00927.5427,E,043.7,158.2,160607,,,A*7F
$GPVTG,158.2,T,,M,043.7,N,081.0,K,A*0A
$GPGGA,181123,4802.4564,N,00927.7907,E,1,05,05.4,00530.3,M,048.0,M,,*4F
$GPGSA,A,3,05,09,12,14,22,,,,,,,,08.6,05.4,06.6*07
$GPGSV,2,1,08,05,44,253,47,09,83,083,51,12,61,252,49,14,19,319,36*72
$GPGSV,2,2,08,17,26,047,33,22,14,281,45,26,15,167,00,30,,,35*4A
$GPRMC,181123,A,4802.4564,N,00927.7907,E,043.1,156.5,160607,,,A*77
$GPVTG,156.5,T,,M,043.1,N,079.8,K,A*0A
$GPGGA,181138,4802.2943,N,00927.8530,E,1,05,05.3,00542.6,M,048.0,M,,*4A
$GPGSA,A,3,05,09,12,14,22,,,,,,,,08.4,05.3,06.5*01
$GPGSV,2,1,08,05,44,253,35,09,83,084,47,12,61,252,45,14,19,319,39*74
$GPGSV,2,2,08,17,26,047,31,22,14,281,33,26,15,167,00,30,,,34*48
$GPRMC,181138,A,4802.2943,N,00927.8530,E,042.5,143.5,160607,,,A*74
$GPVTG,143.5,T,,M,042.5,N,078.8,K,A*0A
$GPGGA,181203,4802.1406,N,00928.1817,E,1,04,08.8,00622.0,M,048.0,M,,*44
$GPGSA,A,3,05,09,12,14,,,,,,,,,15.7,08.8,12.9*01
$GPGSV,2,1,08,05,44,253,42,09,83,085,47,12,62,252,49,14,19,319,40*74
$GPGSV,2,2,08,17,26,046,28,22,14,281,00,26,15,167,00,30,,,00*46
$GPRMC,181203,A,4802.1406,N,00928.1817,E,045.6,143.7,160607,,,A*78
$GPVTG,143.7,T,,M,045.6,N,084.4,K,A*03
$GPGGA,181218,4801.9612,N,00928.3441,E,1,04,08.8,00633.4,M,048.0,M,,*4B
$GPGSA,A,3,05,09,12,14,,,,,,,,,15.6,08.8,12.9*00
$GPGSV,2,1,08,05,44,253,41,09,83,085,49,12,62,252,50,14,19,319,41*70
$GPGSV,2,2,08,17,26,046,33,22,14,281,00,26,15,167,00,30,,,00*4C
$GPRMC,181218,A,4801.9612,N,00928.3441,E,049.3,143.7,160607,,,A*7A
$GPVTG,143.7,T,,M,049.3,N,091.4,K,A*0E
$GPGGA,181233,4801.8042,N,00928.5363,E,1,04,08.7,00630.4,M,048.0,M,,*4D
$GPGSA,A,3,05,09,12,14,,,,,,,,,15.5,08.7,12.8*0D
$GPGSV,2,1,08,05,44,254,32,09,83,086,44,12,62,253,38,14,20,319,34*7A
$GPGSV,2,2,08,17,26,046,34,22,14,281,00,26,15,167,00,30,,,00*4B
$GPRMC,181233,A,4801.8042,N,00928.5363,E,047.2,131.1,160607,,,A*7C
$GPVTG,131.1,T,,M,047.2,N,087.4,K,A*05
$GPGGA,181253,4801.6186,N,00928.7354,E,1,04,08.6,00628.5,M,048.0,M,,*43
$GPGSA,A,3,05,09,12,14,,,,,,,,,15.4,08.6,12.8*0D
$GPGSV,2,1,08,05,44,254,36,09,82,087,51,12,62,253,41,14,20,319,35*75
$GPGSV,2,2,08,17,25,046,28,22,14,281,00,26,15,167,00,30,,,00*45
$GPRMC,181253,A,4801.6186,N,00928.7354,E,042.1,140.4,160607,,,A*7E
$GPVTG,140.4,T,,M,042.1,N,077.9,K,A*02
$GPGGA,181313,4801.4662,N,00928.9847,E,1,05,04.8,00620.1,M,048.0,M,,*41
$GPGSA,A,3,05,09,12,14,22,,,,,,,,07.6,04.8,05.9*09
$GPGSV,2,1,08,05,45,254,47,09,82,088,41,12,62,253,47,14,20,319,31*7E
$GPGSV,2,2,08,17,25,046,31,22,14,281,36,26,15,167,00,30,,,31*4A
$GPRMC,181313,A,4801.4662,N,00928.9847,E,030.7,097.1,160607,,,A*7E
$GPVTG,097.1,T,,M,030.7,N,056.9,K,A*0C
$GPGGA,181328,4801.4087,N,00929.1394,E,1,03,02.9,00621.1,M,048.0,M,,*48
$GPGSA,A,2,09,12,14,,,,,,,,,,03.0,02.9,01.0*05
$GPGSV,2,1,08,05,45,254,33,09,82,088,48,12,62,253,40,14,20,319,37*75
$GPGSV,2,2,08,17,25,046,34,22,14,280,00,26,15,167,00,30,,,26*4D
$GPRMC,181328,A,4801.4087,N,00929.1394,E,034.4,136.3,160607,,,A*78
$GPVTG,136.3,T,,M,034.4,N,063.8,K,A*04
$GPGGA,181353,4801.2673,N,00929.4109,E,1,05,04.6,00583.9,M,048.0,M,,*40
$GPGSA,A,3,05,09,12,14,22,,,,,,,,07.3,04.6,05.7*0C
$GPGSV,2,1,08,05,45,254,35,09,82,089,40,12,62,253,50,14,20,319,35*79
$GPGSV,2,2,08,17,25,046,38,22,14,280,37,26,14,167,00,30,,,39*4A
$GPRMC,181353,A,4801.2673,N,00929.4109,E,029.1,112.4,160607,,,A*74
$GPVTG,112.4,T,,M,029.1,N,054.0,K,A*00
$GPGGA,181413,4801.2179,N,00929.6132,E,1,05,04.5,00594.2,M,048.0,M,,*4A
$GPGSA,A,3,05,09,12,14,22,,,,,,,,07.2,04.5,05.5*0C
$GPGSV,2,1,08,05,45,254,38,09,82,090,41,12,62,254,50,14,20,319,32*7D
$GPGSV,2,2,08,17,25,046,36,22,13,280,40,26,14,167,00,30,,,35*4F
$GPRMC,181413,A,4801.2179,N,00929.6132,E,030.4,117.7,160607,,,A*7B
$GPVTG,117.7,T,,M,030.4,N,056.3,K,A*0A
$GPGGA,181438,4801.1392,N,00929.8630,E,1,05,04.4,00557.7,M,048.0,M,,*47
$GPGSA,A,3,05,09,12,14,22,,,,,,,,07.0,04.4,05.4*0E
$GPGSV,2,1,08,05,45,254,39,09,82,091,49,12,63,254,46,14,20,319,35*74
$GPGSV,2,2,08,17,25,046,32,22,13,280,36,26,14,167,00,30,,,35*4A
$GPRMC,181438,A,4801.1392,N,00929.8630,E,017.3,042.3,160607,,,A*7A
$GPVTG,042.3,T,,M,017.3,N,032.1,K,A*0D
$GPGGA,181458,4801.1257,N,00929.8592,E,1,04,08.1,00674.4,M,048.0,M,,*4B
$GPGSA,A,3,05,09,12,14,,,,,,,,,14.8,08.1,12.3*0C
$GPGSV,2,1,08,05,45,254,36,09,82,092,49,12,63,254,49,14,20,318,40*74
$GPGSV,2,2,08,17,25,046,33,22,13,280,28,26,14,167,00,30,,,36*47
$GPRMC,181458,A,4801.1257,N,00929.8592,E,011.7,153.2,160607,,,A*7D
$GPVTG,153.2,T,,M,011.7,N,021.7,K,A*0B
$GPGGA,181513,4801.0983,N,00929.8808,E,1,04,08.1,00703.0,M,048.0,M,,*4D
$GPGSA,A,3,05,09,12,14,,,,,,,,,14.7,08.1,12.3*03
$GPGSV,2,1,08,05,45,254,35,09,82,092,50,12,63,254,49,14,21,318,42*7C
$GPGSV,2,2,08,17,25,046,31,22,13,280,29,26,14,167,00,30,,,32*40
$GPRMC,181513,A,4801.0983,N,00929.8808,E,009.8,146.5,160607,,,A*7B
$GPVTG,146.5,T,,M,009.8,N,018.2,K,A*01
$GPGGA,181743,4801.0506,N,00929.9256,E,1,04,07.5,00664.3,M,048.0,M,,*43
$GPGSA,A,3,05,09,12,14,,,,,,,,,14.0,07.5,11.8*07
$GPGSV,2,1,08,05,46,255,43,09,81,097,35,12,64,255,47,14,21,318,40*70
$GPGSV,2,2,08,17,24,045,47,22,13,279,00,26,13,167,00,30,,,33*48
$GPRMC,181743,A,4801.0506,N,00929.9256,E,003.0,000.0,160607,,,A*79
$GPVTG,000.0,T,,M,003.0,N,005.6,K,A*0D
$GPGGA,181818,4801.0281,N,00929.9738,E,1,05,03.7,00559.4,M,048.0,M,,*4A
$GPGSA,A,3,05,09,12,14,22,,,,,,,,05.8,03.7,04.5*00
$GPGSV,3,1,10,05,47,256,43,09,80,098,35,12,64,256,45,14,22,318,36*77
$GPGSV,3,2,10,17,24,045,30,22,13,279,33,26,13,167,27,21,,,28*4F
$GPGSV,3,3,10,30,,,40,25,,,28,,,,,,,,*72
$GPRMC,181818,A,4801.0281,N,00929.9738,E,001.3,000.0,160607,,,A*7C
$GPVTG,000.0,T,,M,001.3,N,002.5,K,A*08
